{
"type": "FeatureCollection",
"errorDescr": "Church was not found",
"features": [
{"type":"Feature","properties":{"id":383,"name":"Церква Пресвятої Трійці","denomination":"ukrainian_greek_catholic","region":"Автономна Республіка Крим","image":"https://map.ugcc.ua/pub/base/78421044d86a92d.jpg","website":"https://map.ugcc.ua/view/383-"},"geometry":{"type":"Point","coordinates":[34.21211,44.50729]}},
{"type":"Feature","properties":{"id":385,"name":"Храм священомученика Йосафата","denomination":"ukrainian_greek_catholic","region":"Автономна Республіка Крим","image":"https://map.ugcc.ua/pub/base/50c2f57e0d4489d.jpg","website":"https://map.ugcc.ua/view/385-"},"geometry":{"type":"Point","coordinates":[34.08818,44.97025]}},
{"type":"Feature","properties":{"id":389,"name":"Церква святих рівноапостольських князів Володимира і Ольги","denomination":"ukrainian_greek_catholic","region":"Автономна Республіка Крим","image":"https://map.ugcc.ua/pub/base/f812f39b228d855.jpg","website":"https://map.ugcc.ua/view/389-"},"geometry":{"type":"Point","coordinates":[36.44418,45.35883]}},
{"type":"Feature","properties":{"id":1527,"name":"Церква Різдва Пресвятої Богородиці","denomination":"ukrainian_greek_catholic","region":"Вінницька область","image":"https://map.ugcc.ua/pub/base/434fe0cb2b67136.jpg","website":"https://map.ugcc.ua/view/1527-"},"geometry":{"type":"Point","coordinates":[27.67286,49.0745]}},
{"type":"Feature","properties":{"id":171,"name":"Храм Преображення Господнього","denomination":"ukrainian_greek_catholic","region":"Дніпропетровська область","image":"https://map.ugcc.ua/pub/base/9c25b0f3506b864.jpg","website":"https://map.ugcc.ua/view/171-"},"geometry":{"type":"Point","coordinates":[34.58773,48.51599]}},
{"type":"Feature","properties":{"id":173,"name":"Церква Святої Трійці","denomination":"ukrainian_greek_catholic","region":"Дніпропетровська область","image":"https://map.ugcc.ua/pub/base/95a8c776a280c52.jpg","website":"https://map.ugcc.ua/view/173-"},"geometry":{"type":"Point","coordinates":[33.43521,47.98352]}},
{"type":"Feature","properties":{"id":529,"name":"Катедральний Собор Покрови Пресвятої Богородиці","denomination":"ukrainian_greek_catholic","region":"Донецька область","image":"https://map.ugcc.ua/pub/base/083f97f3c9f0c37.jpg","website":"https://map.ugcc.ua/view/529-"},"geometry":{"type":"Point","coordinates":[37.76494,48.00854]}},
{"type":"Feature","properties":{"id":2747,"name":"Церква Вознесіння Господнього","denomination":"ukrainian_greek_catholic","region":"Донецька область","image":"https://map.ugcc.ua/pub/base/cb948f4456ab678.jpg","website":"https://map.ugcc.ua/view/2747-"},"geometry":{"type":"Point","coordinates":[38.03795,48.3066]}},
{"type":"Feature","properties":{"id":2973,"name":"Церква Зіслання Святого Духа","denomination":"ukrainian_greek_catholic","region":"Донецька область","image":"https://map.ugcc.ua/pub/base/f35434a91270bb7.jpg","website":"https://map.ugcc.ua/view/2973-"},"geometry":{"type":"Point","coordinates":[38.07828,48.75368]}},
{"type":"Feature","properties":{"id":3111,"name":"Церква Різдва Пресвятої Богородиці","denomination":"ukrainian_greek_catholic","region":"Донецька область","image":"https://map.ugcc.ua/pub/base/f8aec8f7bfdec0f.jpg","website":"https://map.ugcc.ua/view/3111-"},"geometry":{"type":"Point","coordinates":[38.20123,48.8579]}},
{"type":"Feature","properties":{"id":3009,"name":"Церква святого Івана Богослова","denomination":"ukrainian_greek_catholic","region":"Житомирська область","image":"https://map.ugcc.ua/pub/base/708560fdb0ee247.jpg","website":"https://map.ugcc.ua/view/3009-"},"geometry":{"type":"Point","coordinates":[28.17721,50.03372]}},
{"type":"Feature","properties":{"id":1361,"name":"Церква святого Іллі","denomination":"ukrainian_greek_catholic","region":"Запорізька область","image":"https://map.ugcc.ua/pub/base/d7c7e05a285f74d.jpg","website":"https://map.ugcc.ua/view/1361-"},"geometry":{"type":"Point","coordinates":[35.83822,47.24651]}},
{"type":"Feature","properties":{"id":1517,"name":"Церква святих Петра і Павла","denomination":"ukrainian_greek_catholic","region":"Запорізька область","image":"https://map.ugcc.ua/pub/base/7fbf5c6aa1349d7.jpg","website":"https://map.ugcc.ua/view/1517-"},"geometry":{"type":"Point","coordinates":[35.69642,47.25402]}},
{"type":"Feature","properties":{"id":24,"name":"Церква Успіння Пресвятої Богородиці","denomination":"ukrainian_greek_catholic","region":"Івано-Франківська область","image":"https://map.ugcc.ua/pub/base/ce1a4b26e25f90e.jpg","website":"https://map.ugcc.ua/view/24-"},"geometry":{"type":"Point","coordinates":[24.69736,49.08548]}},
{"type":"Feature","properties":{"id":24,"name":"Церква Успіння Пресвятої Богородиці","denomination":"ukrainian_greek_catholic","region":"Івано-Франківська область","image":"https://map.ugcc.ua/pub/base/ce1a4b26e25f90e.jpg","website":"https://map.ugcc.ua/view/24-"},"geometry":{"type":"Point","coordinates":[24.69736,49.08548]}},
{"type":"Feature","properties":{"id":48,"name":"Церква Святого Йосафата","denomination":"ukrainian_greek_catholic","region":"Івано-Франківська область","image":"https://map.ugcc.ua/pub/base/be1d726dce4718d.jpg","website":"https://map.ugcc.ua/view/48-"},"geometry":{"type":"Point","coordinates":[24.75993,48.79722]}},
{"type":"Feature","properties":{"id":49,"name":"Церква Перенесення мощів святого Миколая","denomination":"ukrainian_greek_catholic","region":"Івано-Франківська область","image":"https://map.ugcc.ua/pub/base/2d7e9e92c52e057.jpg","website":"https://map.ugcc.ua/view/49-"},"geometry":{"type":"Point","coordinates":[24.44091,49.46921]}},
{"type":"Feature","properties":{"id":51,"name":"Церква Пресвятої Трійці","denomination":"ukrainian_greek_catholic","region":"Івано-Франківська область","image":"https://map.ugcc.ua/pub/base/97a0057eeb7fbdf.jpg","website":"https://map.ugcc.ua/view/51-"},"geometry":{"type":"Point","coordinates":[24.81342,48.32851]}},
{"type":"Feature","properties":{"id":392,"name":"Церква Зіслання Святого Духа","denomination":"ukrainian_greek_catholic","region":"Івано-Франківська область","image":"https://map.ugcc.ua/pub/base/3492fb780b2e989.jpg","website":"https://map.ugcc.ua/view/392-"},"geometry":{"type":"Point","coordinates":[24.86183,48.73693]}},
{"type":"Feature","properties":{"id":664,"name":"Церква Зіслання Святого Духа","denomination":"ukrainian_greek_catholic","region":"Івано-Франківська область","image":"https://map.ugcc.ua/pub/base/dcc246be5a2c412.jpg","website":"https://map.ugcc.ua/view/664-"},"geometry":{"type":"Point","coordinates":[24.75081,48.55186]}},
{"type":"Feature","properties":{"id":851,"name":"Церква святого Івана Хрестителя","denomination":"ukrainian_greek_catholic","region":"Івано-Франківська область","image":"https://map.ugcc.ua/pub/base/454caf58d00cbf9.jpg","website":"https://map.ugcc.ua/view/851-"},"geometry":{"type":"Point","coordinates":[24.73281,48.90481]}},
{"type":"Feature","properties":{"id":860,"name":"Прокатедральний Собор Благовіщення Пресвятої Діви Марії","denomination":"ukrainian_greek_catholic","region":"Івано-Франківська область","image":"https://map.ugcc.ua/pub/base/3f58c605a8e8794.jpg","website":"https://map.ugcc.ua/view/860-"},"geometry":{"type":"Point","coordinates":[24.57162,48.63087]}},
{"type":"Feature","properties":{"id":1159,"name":"Церква Різдва Пречистої Діви Марії","denomination":"ukrainian_greek_catholic","region":"Івано-Франківська область","image":"https://map.ugcc.ua/pub/base/968cad417b934de.jpg","website":"https://map.ugcc.ua/view/1159-"},"geometry":{"type":"Point","coordinates":[24.53496,49.19191]}},
{"type":"Feature","properties":{"id":1537,"name":"Церква святого Миколая","denomination":"ukrainian_greek_catholic","region":"Івано-Франківська область","image":"https://map.ugcc.ua/pub/base/2aa97dae94a9007.jpg","website":"https://map.ugcc.ua/view/1537-"},"geometry":{"type":"Point","coordinates":[24.5472,48.68295]}},
{"type":"Feature","properties":{"id":1748,"name":"Церква Святого Архистратига Михаїла","denomination":"ukrainian_greek_catholic","region":"Івано-Франківська область","image":"https://map.ugcc.ua/pub/base/6a25f489c9cd19e.jpg","website":"https://map.ugcc.ua/view/1748-"},"geometry":{"type":"Point","coordinates":[24.36983,49.02564]}},
{"type":"Feature","properties":{"id":1971,"name":"Церква Святого Архистратига Михаїла","denomination":"ukrainian_greek_catholic","region":"Івано-Франківська область","image":"https://map.ugcc.ua/pub/base/10b24242a5f8b17.jpg","website":"https://map.ugcc.ua/view/1971-"},"geometry":{"type":"Point","coordinates":[24.88059,48.51619]}},
{"type":"Feature","properties":{"id":1980,"name":"Церква Покрови Пресвятої Богородиці","denomination":"ukrainian_greek_catholic","region":"Івано-Франківська область","image":"https://map.ugcc.ua/pub/base/e4bbf4201a0f07a.jpg","website":"https://map.ugcc.ua/view/1980-"},"geometry":{"type":"Point","coordinates":[24.97988,48.51571]}},
{"type":"Feature","properties":{"id":2419,"name":"Церква святого Юрія Побідоносця","denomination":"ukrainian_greek_catholic","region":"Івано-Франківська область","image":"https://map.ugcc.ua/pub/base/d0037baff2430e4.jpg","website":"https://map.ugcc.ua/view/2419-"},"geometry":{"type":"Point","coordinates":[24.8346,48.156]}},
{"type":"Feature","properties":{"id":2431,"name":"Церква Успіння Пресвятої Богородиці","denomination":"ukrainian_greek_catholic","region":"Івано-Франківська область","image":"https://map.ugcc.ua/pub/base/29b06079c60e6e8.jpg","website":"https://map.ugcc.ua/view/2431-"},"geometry":{"type":"Point","coordinates":[24.55461,48.45426]}},
{"type":"Feature","properties":{"id":2432,"name":"Церква святих Петра і Павла","denomination":"ukrainian_greek_catholic","region":"Івано-Франківська область","image":"https://map.ugcc.ua/pub/base/1847daf8f60fb21.jpg","website":"https://map.ugcc.ua/view/2432-"},"geometry":{"type":"Point","coordinates":[24.55573,48.48005]}},
{"type":"Feature","properties":{"id":2435,"name":"Церква святого Михайла","denomination":"ukrainian_greek_catholic","region":"Івано-Франківська область","image":"https://map.ugcc.ua/pub/base/3c2db6c4be9cc4a.jpg","website":"https://map.ugcc.ua/view/2435-"},"geometry":{"type":"Point","coordinates":[24.57696,48.47643]}},
{"type":"Feature","properties":{"id":2475,"name":"Церква Пресвятої Трійці","denomination":"ukrainian_greek_catholic","region":"Івано-Франківська область","image":"https://map.ugcc.ua/pub/base/4c56d95b5028d5b.jpg","website":"https://map.ugcc.ua/view/2475-"},"geometry":{"type":"Point","coordinates":[24.97003,48.55991]}},
{"type":"Feature","properties":{"id":2525,"name":"Церква Воскресіння Господнього","denomination":"ukrainian_greek_catholic","region":"Івано-Франківська область","image":"https://map.ugcc.ua/pub/base/fed5f6e8d7c7acc.jpg","website":"https://map.ugcc.ua/view/2525-"},"geometry":{"type":"Point","coordinates":[24.60658,48.57249]}},
{"type":"Feature","properties":{"id":2527,"name":"Церква святого великомученика Димитрія Мироточця","denomination":"ukrainian_greek_catholic","region":"Івано-Франківська область","image":"https://map.ugcc.ua/pub/base/d675e55e72b5b55.jpg","website":"https://map.ugcc.ua/view/2527-"},"geometry":{"type":"Point","coordinates":[24.6117,48.56542]}},
{"type":"Feature","properties":{"id":2527,"name":"Церква святого великомученика Димитрія Мироточця","denomination":"ukrainian_greek_catholic","region":"Івано-Франківська область","image":"https://map.ugcc.ua/pub/base/d675e55e72b5b55.jpg","website":"https://map.ugcc.ua/view/2527-"},"geometry":{"type":"Point","coordinates":[24.6117,48.56542]}},
{"type":"Feature","properties":{"id":2532,"name":"Церква Успіння Пресвятої Богородиці","denomination":"ukrainian_greek_catholic","region":"Івано-Франківська область","image":"https://map.ugcc.ua/pub/base/b9bc61029bad495.jpg","website":"https://map.ugcc.ua/view/2532-"},"geometry":{"type":"Point","coordinates":[24.5308,48.67205]}},
{"type":"Feature","properties":{"id":2536,"name":"Церква Різдва Пресвятої Богородиці","denomination":"ukrainian_greek_catholic","region":"Івано-Франківська область","image":"https://map.ugcc.ua/pub/base/af92260ab8c0a56.jpg","website":"https://map.ugcc.ua/view/2536-"},"geometry":{"type":"Point","coordinates":[24.49283,48.65974]}},
{"type":"Feature","properties":{"id":2616,"name":"Церква святого Йосифа Обручника","denomination":"ukrainian_greek_catholic","region":"Івано-Франківська область","image":"https://map.ugcc.ua/pub/base/17562db15ffddac.jpg","website":"https://map.ugcc.ua/view/2616-"},"geometry":{"type":"Point","coordinates":[24.72341,48.92885]}},
{"type":"Feature","properties":{"id":2617,"name":"Церква Преображення Господнього","denomination":"ukrainian_greek_catholic","region":"Івано-Франківська область","image":"https://map.ugcc.ua/pub/base/.jpg","website":"https://map.ugcc.ua/view/2617-"},"geometry":{"type":"Point","coordinates":[24.69048,48.94608]}},
{"type":"Feature","properties":{"id":2618,"name":"Церква Святого Великомученика Дмитрія","denomination":"ukrainian_greek_catholic","region":"Івано-Франківська область","image":"https://map.ugcc.ua/pub/base/68dc475679ac22a.jpg","website":"https://map.ugcc.ua/view/2618-"},"geometry":{"type":"Point","coordinates":[24.69461,48.94304]}},
{"type":"Feature","properties":{"id":2621,"name":"Церква Царя Христа","denomination":"ukrainian_greek_catholic","region":"Івано-Франківська область","image":"https://map.ugcc.ua/pub/base/18f6b8fbe0bee96.jpg","website":"https://map.ugcc.ua/view/2621-"},"geometry":{"type":"Point","coordinates":[24.73293,48.91692]}},
{"type":"Feature","properties":{"id":2623,"name":"Церква святих Ольги і Володимира","denomination":"ukrainian_greek_catholic","region":"Івано-Франківська область","image":"https://map.ugcc.ua/pub/base/d9ccbdb26a4a26b.jpg","website":"https://map.ugcc.ua/view/2623-"},"geometry":{"type":"Point","coordinates":[24.73652,48.93884]}},
{"type":"Feature","properties":{"id":2624,"name":"Церква святих Петра і Павла","denomination":"ukrainian_greek_catholic","region":"Івано-Франківська область","image":"https://map.ugcc.ua/pub/base/b2b3cbd58991ed8.jpg","website":"https://map.ugcc.ua/view/2624-"},"geometry":{"type":"Point","coordinates":[24.69251,48.93124]}},
{"type":"Feature","properties":{"id":2630,"name":"Церква Вознесіння Господнього","denomination":"ukrainian_greek_catholic","region":"Івано-Франківська область","image":"https://map.ugcc.ua/pub/base/4bcb3ad9b19c469.jpg","website":"https://map.ugcc.ua/view/2630-"},"geometry":{"type":"Point","coordinates":[24.69324,48.90117]}},
{"type":"Feature","properties":{"id":2631,"name":"Церква Зіслання Святого Духа","denomination":"ukrainian_greek_catholic","region":"Івано-Франківська область","image":"https://map.ugcc.ua/pub/base/6c83779c23cb533.jpg","website":"https://map.ugcc.ua/view/2631-"},"geometry":{"type":"Point","coordinates":[24.71021,48.91278]}},
{"type":"Feature","properties":{"id":2633,"name":"Церква Пресвятої Трійці","denomination":"ukrainian_greek_catholic","region":"Івано-Франківська область","image":"https://map.ugcc.ua/pub/base/807d4a64b398840.jpg","website":"https://map.ugcc.ua/view/2633-"},"geometry":{"type":"Point","coordinates":[24.69129,48.90529]}},
{"type":"Feature","properties":{"id":2636,"name":"Церква Трьох Святителів","denomination":"ukrainian_greek_catholic","region":"Івано-Франківська область","image":"https://map.ugcc.ua/pub/base/8a7b5e7338fd598.jpg","website":"https://map.ugcc.ua/view/2636-"},"geometry":{"type":"Point","coordinates":[24.70208,48.86883]}},
{"type":"Feature","properties":{"id":2637,"name":"Церква Богоявлення Господнього","denomination":"ukrainian_greek_catholic","region":"Івано-Франківська область","image":"https://map.ugcc.ua/pub/base/c168025283b9a54.jpg","website":"https://map.ugcc.ua/view/2637-"},"geometry":{"type":"Point","coordinates":[24.74246,48.94195]}},
{"type":"Feature","properties":{"id":2638,"name":"Церква святого Юрія","denomination":"ukrainian_greek_catholic","region":"Івано-Франківська область","image":"https://map.ugcc.ua/pub/base/ded9d646f063cfe.jpg","website":"https://map.ugcc.ua/view/2638-"},"geometry":{"type":"Point","coordinates":[24.76058,48.91586]}},
{"type":"Feature","properties":{"id":2641,"name":"Церква святого Микити","denomination":"ukrainian_greek_catholic","region":"Івано-Франківська область","image":"https://map.ugcc.ua/pub/base/3e0d828e9b1ed30.jpg","website":"https://map.ugcc.ua/view/2641-"},"geometry":{"type":"Point","coordinates":[24.75273,48.90671]}},
{"type":"Feature","properties":{"id":2642,"name":"Церква Всіх Святих Українського Народу","denomination":"ukrainian_greek_catholic","region":"Івано-Франківська область","image":"https://map.ugcc.ua/pub/base/2a947ab5a4347ce.jpg","website":"https://map.ugcc.ua/view/2642-"},"geometry":{"type":"Point","coordinates":[24.74468,48.91265]}},
{"type":"Feature","properties":{"id":2643,"name":"Церква Успіння Пресвятої Богородиці","denomination":"ukrainian_greek_catholic","region":"Івано-Франківська область","image":"https://map.ugcc.ua/pub/base/2bf144a99c3aed9.jpg","website":"https://map.ugcc.ua/view/2643-"},"geometry":{"type":"Point","coordinates":[24.671,48.90135]}},
{"type":"Feature","properties":{"id":2644,"name":"Церква святих Кирила і Методія","denomination":"ukrainian_greek_catholic","region":"Івано-Франківська область","image":"https://map.ugcc.ua/pub/base/fe8684446eda9d8.jpg","website":"https://map.ugcc.ua/view/2644-"},"geometry":{"type":"Point","coordinates":[24.66907,48.91145]}},
{"type":"Feature","properties":{"id":2645,"name":"Церква Христа Чоловіколюбця","denomination":"ukrainian_greek_catholic","region":"Івано-Франківська область","image":"https://map.ugcc.ua/pub/base/.jpg","website":"https://map.ugcc.ua/view/2645-"},"geometry":{"type":"Point","coordinates":[24.69252,48.92119]}},
{"type":"Feature","properties":{"id":2658,"name":"Церква Пресвятої Трійці","denomination":"ukrainian_greek_catholic","region":"Івано-Франківська область","image":"https://map.ugcc.ua/pub/base/614f9aee0cf736e.jpg","website":"https://map.ugcc.ua/view/2658-"},"geometry":{"type":"Point","coordinates":[25.00455,48.86577]}},
{"type":"Feature","properties":{"id":2664,"name":"Церква священномучениці Параскеви","denomination":"ukrainian_greek_catholic","region":"Івано-Франківська область","image":"https://map.ugcc.ua/pub/base/3864e0a5d2247ec.jpg","website":"https://map.ugcc.ua/view/2664-"},"geometry":{"type":"Point","coordinates":[24.66695,48.77291]}},
{"type":"Feature","properties":{"id":2700,"name":"Церква Царя Христа","denomination":"ukrainian_greek_catholic","region":"Івано-Франківська область","image":"https://map.ugcc.ua/pub/base/59dc36353cab384.jpg","website":"https://map.ugcc.ua/view/2700-"},"geometry":{"type":"Point","coordinates":[25.0012,48.86292]}},
{"type":"Feature","properties":{"id":2702,"name":"Церква Святих Володимира і Ольги","denomination":"ukrainian_greek_catholic","region":"Івано-Франківська область","image":"https://map.ugcc.ua/pub/base/.jpg","website":"https://map.ugcc.ua/view/2702-"},"geometry":{"type":"Point","coordinates":[24.35812,49.03302]}},
{"type":"Feature","properties":{"id":2703,"name":"Церква святого Миколая","denomination":"ukrainian_greek_catholic","region":"Івано-Франківська область","image":"https://map.ugcc.ua/pub/base/dd3f024eb649515.jpg","website":"https://map.ugcc.ua/view/2703-"},"geometry":{"type":"Point","coordinates":[24.37867,49.01142]}},
{"type":"Feature","properties":{"id":2755,"name":"Церква Різдва Пресвятої Богородиці","denomination":"ukrainian_greek_catholic","region":"Івано-Франківська область","image":"https://map.ugcc.ua/pub/base/7c0dd452053d6a0.jpg","website":"https://map.ugcc.ua/view/2755-"},"geometry":{"type":"Point","coordinates":[24.86047,48.73727]}},
{"type":"Feature","properties":{"id":3057,"name":"Церква Пресвятої Трійці","denomination":"ukrainian_greek_catholic","region":"Івано-Франківська область","image":"https://map.ugcc.ua/pub/base/506e34cdf338d02.jpg","website":"https://map.ugcc.ua/view/3057-"},"geometry":{"type":"Point","coordinates":[24.87886,48.59007]}},
{"type":"Feature","properties":{"id":3148,"name":"Церква св. Архистратига Михаїла","denomination":"ukrainian_greek_catholic","region":"Івано-Франківська область","image":"https://map.ugcc.ua/pub/base/0b194a13d26eb4e.jpg","website":"https://map.ugcc.ua/view/3148-"},"geometry":{"type":"Point","coordinates":[24.83389,48.85013]}},
{"type":"Feature","properties":{"id":3150,"name":"Церква святих Кирила і Мефодія","denomination":"ukrainian_greek_catholic","region":"Івано-Франківська область","image":"https://map.ugcc.ua/pub/base/9aa8e9721753216.jpg","website":"https://map.ugcc.ua/view/3150-"},"geometry":{"type":"Point","coordinates":[24.352,49.04296]}},
{"type":"Feature","properties":{"id":3151,"name":"Церква Різдва Пресвятої Богородиці","denomination":"ukrainian_greek_catholic","region":"Івано-Франківська область","image":"https://map.ugcc.ua/pub/base/9b8c028a9ad402e.jpg","website":"https://map.ugcc.ua/view/3151-"},"geometry":{"type":"Point","coordinates":[24.3823,48.51294]}},
{"type":"Feature","properties":{"id":3165,"name":"Церква Успіння Пресвятої Богородиці","denomination":"ukrainian_greek_catholic","region":"Івано-Франківська область","image":"https://map.ugcc.ua/pub/base/babe782c9d9a520.jpg","website":"https://map.ugcc.ua/view/3165-"},"geometry":{"type":"Point","coordinates":[24.45871,48.63295]}},
{"type":"Feature","properties":{"id":3167,"name":"Церква святої великомучениці Варвари","denomination":"ukrainian_greek_catholic","region":"Івано-Франківська область","image":"https://map.ugcc.ua/pub/base/.jpg","website":"https://map.ugcc.ua/view/3167-"},"geometry":{"type":"Point","coordinates":[24.42919,48.6173]}},
{"type":"Feature","properties":{"id":3170,"name":"Церква святої Параскеви","denomination":"ukrainian_greek_catholic","region":"Івано-Франківська область","image":"https://map.ugcc.ua/pub/base/3e5a9650ee0fe3e.jpg","website":"https://map.ugcc.ua/view/3170-"},"geometry":{"type":"Point","coordinates":[24.46538,48.58348]}},
{"type":"Feature","properties":{"id":3172,"name":"Церква Пресвятої Трійці","denomination":"ukrainian_greek_catholic","region":"Івано-Франківська область","image":"https://map.ugcc.ua/pub/base/1ef88563688bc5f.jpg","website":"https://map.ugcc.ua/view/3172-"},"geometry":{"type":"Point","coordinates":[24.47941,48.57664]}},
{"type":"Feature","properties":{"id":3173,"name":"Церква Покрови Пресвятої Богородиці","denomination":"ukrainian_greek_catholic","region":"Івано-Франківська область","image":"https://map.ugcc.ua/pub/base/7efdc7a57faaa68.jpg","website":"https://map.ugcc.ua/view/3173-"},"geometry":{"type":"Point","coordinates":[24.2946,48.50801]}},
{"type":"Feature","properties":{"id":3174,"name":"Церква Зіслання святого Духа","denomination":"ukrainian_greek_catholic","region":"Івано-Франківська область","image":"https://map.ugcc.ua/pub/base/3eeb9c2166e3648.jpg","website":"https://map.ugcc.ua/view/3174-"},"geometry":{"type":"Point","coordinates":[24.3844,48.5481]}},
{"type":"Feature","properties":{"id":3175,"name":"Церква святого Димитрія","denomination":"ukrainian_greek_catholic","region":"Івано-Франківська область","image":"https://map.ugcc.ua/pub/base/dd37555fab7b5a5.jpg","website":"https://map.ugcc.ua/view/3175-"},"geometry":{"type":"Point","coordinates":[24.33908,48.52973]}},
{"type":"Feature","properties":{"id":3177,"name":"Церква святого великомученика Юрія","denomination":"ukrainian_greek_catholic","region":"Івано-Франківська область","image":"https://map.ugcc.ua/pub/base/fad7814191d2eaf.jpg","website":"https://map.ugcc.ua/view/3177-"},"geometry":{"type":"Point","coordinates":[24.24366,48.45843]}},
{"type":"Feature","properties":{"id":3250,"name":"Церква святого Миколая Чарнецького","denomination":"ukrainian_greek_catholic","region":"Івано-Франківська область","image":"https://map.ugcc.ua/pub/base/638f5b392480787.jpg","website":"https://map.ugcc.ua/view/3250-"},"geometry":{"type":"Point","coordinates":[25.53393,48.75703]}},
{"type":"Feature","properties":{"id":3278,"name":"Церква Івана Богослова","denomination":"ukrainian_greek_catholic","region":"Івано-Франківська область","image":"https://map.ugcc.ua/pub/base/1e937455cee0306.jpg","website":"https://map.ugcc.ua/view/3278-"},"geometry":{"type":"Point","coordinates":[24.53629,48.8066]}},
{"type":"Feature","properties":{"id":13,"name":"Церква Святого Миколая Чудотворця на Аскольдовій могилі","denomination":"ukrainian_greek_catholic","region":"Київ","image":"https://map.ugcc.ua/pub/base/a79b8bb6b30bc9b.jpg","website":"https://map.ugcc.ua/view/13-"},"geometry":{"type":"Point","coordinates":[30.55133,50.44412]}},
{"type":"Feature","properties":{"id":706,"name":"Екуменічний храм св. Миколая на КПІ","denomination":"ukrainian_greek_catholic","region":"Київ","image":"https://map.ugcc.ua/pub/base/bf7fccc757aea49.jpg","website":"https://map.ugcc.ua/view/706-"},"geometry":{"type":"Point","coordinates":[30.45321,50.45049]}},
{"type":"Feature","properties":{"id":707,"name":"Екуменічний храм УГКЦ на Інституцькій","denomination":"ukrainian_greek_catholic","region":"Київ","image":"https://map.ugcc.ua/pub/base/cd18b1c0885f751.jpg","website":"https://map.ugcc.ua/view/707-"},"geometry":{"type":"Point","coordinates":[30.52808,50.44809]}},
{"type":"Feature","properties":{"id":9,"name":"Собор Вишгородської Богородиці","denomination":"ukrainian_greek_catholic","region":"Київська область","image":"https://map.ugcc.ua/pub/base/efa7985bad0e84f.jpg","website":"https://map.ugcc.ua/view/9-"},"geometry":{"type":"Point","coordinates":[30.49696,50.59115]}},
{"type":"Feature","properties":{"id":711,"name":"Церква святого Великомученика Юрія","denomination":"ukrainian_greek_catholic","region":"Київська область","image":"https://map.ugcc.ua/pub/base/97e0989769b4959.jpg","website":"https://map.ugcc.ua/view/711-"},"geometry":{"type":"Point","coordinates":[30.29562,50.18786]}},
{"type":"Feature","properties":{"id":1467,"name":"Церква Різдва Пресвятої Богородиці","denomination":"ukrainian_greek_catholic","region":"Київська область","image":"https://map.ugcc.ua/pub/base/7f1d8e97ac7f9b5.jpg","website":"https://map.ugcc.ua/view/1467-"},"geometry":{"type":"Point","coordinates":[30.24656,50.52928]}},
{"type":"Feature","properties":{"id":2053,"name":"Церква святого Дмитра","denomination":"ukrainian_greek_catholic","region":"Київська область","image":"https://map.ugcc.ua/pub/base/5aacad67768c057.jpg","website":"https://map.ugcc.ua/view/2053-"},"geometry":{"type":"Point","coordinates":[29.93115,50.08219]}},
{"type":"Feature","properties":{"id":2508,"name":"Церква святих Віри, Надії, Любові та їхньої матері Софії","denomination":"ukrainian_greek_catholic","region":"Київська область","image":"https://map.ugcc.ua/pub/base/b55ad688c3315f7.jpg","website":"https://map.ugcc.ua/view/2508-"},"geometry":{"type":"Point","coordinates":[29.98445,50.39633]}},
{"type":"Feature","properties":{"id":938,"name":"Каплиця Царя Христа","denomination":"ukrainian_greek_catholic","region":"Луганська область","image":"https://map.ugcc.ua/pub/base/.jpg","website":"https://map.ugcc.ua/view/938-"},"geometry":{"type":"Point","coordinates":[38.49174,48.93693]}},
{"type":"Feature","properties":{"id":60,"name":"Церква Успіння Пресвятої Богородиці","denomination":"ukrainian_greek_catholic","region":"Львівська область","image":"https://map.ugcc.ua/pub/base/aed734b52cb997e.jpg","website":"https://map.ugcc.ua/view/60-"},"geometry":{"type":"Point","coordinates":[24.51839,49.82399]}},
{"type":"Feature","properties":{"id":64,"name":"Церква Собору Пресвятої Богородиці","denomination":"ukrainian_greek_catholic","region":"Львівська область","image":"https://map.ugcc.ua/pub/base/531bc2cda768944.jpg","website":"https://map.ugcc.ua/view/64-"},"geometry":{"type":"Point","coordinates":[24.93358,49.63624]}},
{"type":"Feature","properties":{"id":65,"name":"Церква Святого Юрія Переможця","denomination":"ukrainian_greek_catholic","region":"Львівська область","image":"https://map.ugcc.ua/pub/base/573837834f74c0d.jpg","website":"https://map.ugcc.ua/view/65-"},"geometry":{"type":"Point","coordinates":[23.38897,49.94389]}},
{"type":"Feature","properties":{"id":88,"name":"Церква Благовіщення Пресвятої Діви Марії","denomination":"ukrainian_greek_catholic","region":"Львівська область","image":"https://map.ugcc.ua/pub/base/b0f971cbf0ef320.jpg","website":"https://map.ugcc.ua/view/88-"},"geometry":{"type":"Point","coordinates":[23.64634,49.78609]}},
{"type":"Feature","properties":{"id":89,"name":"Церква Успіння Пресвятої Богородиці","denomination":"ukrainian_greek_catholic","region":"Львівська область","image":"https://map.ugcc.ua/pub/base/3171eef6572f3fe.jpg","website":"https://map.ugcc.ua/view/89-"},"geometry":{"type":"Point","coordinates":[23.9406,49.52798]}},
{"type":"Feature","properties":{"id":101,"name":"Церква Святого архистратига Михаїла","denomination":"ukrainian_greek_catholic","region":"Львівська область","image":"https://map.ugcc.ua/pub/base/453718d5c168ff2.jpg","website":"https://map.ugcc.ua/view/101-"},"geometry":{"type":"Point","coordinates":[24.10288,50.16504]}},
{"type":"Feature","properties":{"id":102,"name":"Церква Христового Воскресіння","denomination":"ukrainian_greek_catholic","region":"Львівська область","image":"https://map.ugcc.ua/pub/base/d8038f747eee725.jpg","website":"https://map.ugcc.ua/view/102-"},"geometry":{"type":"Point","coordinates":[24.05236,50.39584]}},
{"type":"Feature","properties":{"id":105,"name":"Церква Різдва Пресвятої Богородиці","denomination":"ukrainian_greek_catholic","region":"Львівська область","image":"https://map.ugcc.ua/pub/base/7da7fba653f41d6.jpg","website":"https://map.ugcc.ua/view/105-"},"geometry":{"type":"Point","coordinates":[24.49787,50.24355]}},
{"type":"Feature","properties":{"id":106,"name":"Церква Вознесіння Господа нашого Ісуса Христа","denomination":"ukrainian_greek_catholic","region":"Львівська область","image":"https://map.ugcc.ua/pub/base/a0df1f3957cf762.jpg","website":"https://map.ugcc.ua/view/106-"},"geometry":{"type":"Point","coordinates":[25.27659,49.85163]}},
{"type":"Feature","properties":{"id":110,"name":"Церква Апостола і євангелиста Луки","denomination":"ukrainian_greek_catholic","region":"Львівська область","image":"https://map.ugcc.ua/pub/base/d85617ccbf3102e.jpg","website":"https://map.ugcc.ua/view/110-"},"geometry":{"type":"Point","coordinates":[25.13159,50.23816]}},
{"type":"Feature","properties":{"id":180,"name":"Церква Святого Юра","denomination":"ukrainian_greek_catholic","region":"Львівська область","image":"https://map.ugcc.ua/pub/base/7ea1feabd60e1c8.jpg","website":"https://map.ugcc.ua/view/180-"},"geometry":{"type":"Point","coordinates":[25.14344,50.08558]}},
{"type":"Feature","properties":{"id":186,"name":"Храм Зіслання Святого Духа","denomination":"ukrainian_greek_catholic","region":"Львівська область","image":"https://map.ugcc.ua/pub/base/.jpg","website":"https://map.ugcc.ua/view/186-"},"geometry":{"type":"Point","coordinates":[25.16663,50.02118]}},
{"type":"Feature","properties":{"id":187,"name":"Церква Преображення Господнього (Гаї-Смоленські, Львівська обл.) ","denomination":"ukrainian_greek_catholic","region":"Львівська область","image":"https://map.ugcc.ua/pub/base/.jpg","website":"https://map.ugcc.ua/view/187-"},"geometry":{"type":"Point","coordinates":[25.12132,50.04864]}},
{"type":"Feature","properties":{"id":189,"name":"Церква Собору Пресвятої Богородиці (с. Заболотці, Львівська обл.) ","denomination":"ukrainian_greek_catholic","region":"Львівська область","image":"https://map.ugcc.ua/pub/base/22ff164c08c76dc.jpg","website":"https://map.ugcc.ua/view/189-"},"geometry":{"type":"Point","coordinates":[24.9726,50.03119]}},
{"type":"Feature","properties":{"id":193,"name":"Храм Святого Івана Богослова","denomination":"ukrainian_greek_catholic","region":"Львівська область","image":"https://map.ugcc.ua/pub/base/40b4a8a72cd2f18.jpg","website":"https://map.ugcc.ua/view/193-"},"geometry":{"type":"Point","coordinates":[25.07667,49.98233]}},
{"type":"Feature","properties":{"id":193,"name":"Храм Святого Івана Богослова","denomination":"ukrainian_greek_catholic","region":"Львівська область","image":"https://map.ugcc.ua/pub/base/40b4a8a72cd2f18.jpg","website":"https://map.ugcc.ua/view/193-"},"geometry":{"type":"Point","coordinates":[25.07667,49.98233]}},
{"type":"Feature","properties":{"id":194,"name":"Церква св. Юрія Побідоносця","denomination":"ukrainian_greek_catholic","region":"Львівська область","image":"https://map.ugcc.ua/pub/base/.jpg","website":"https://map.ugcc.ua/view/194-"},"geometry":{"type":"Point","coordinates":[25.15969,49.99359]}},
{"type":"Feature","properties":{"id":195,"name":"Церква Пресвятої Трійці","denomination":"ukrainian_greek_catholic","region":"Львівська область","image":"https://map.ugcc.ua/pub/base/e7c94340dc04387.jpg","website":"https://map.ugcc.ua/view/195-"},"geometry":{"type":"Point","coordinates":[25.04807,50.04995]}},
{"type":"Feature","properties":{"id":197,"name":"Церква св. Великомучениці Параскеви П’ятниці","denomination":"ukrainian_greek_catholic","region":"Львівська область","image":"https://map.ugcc.ua/pub/base/d96b7a405040a45.jpg","website":"https://map.ugcc.ua/view/197-"},"geometry":{"type":"Point","coordinates":[25.08174,50.13289]}},
{"type":"Feature","properties":{"id":198,"name":"Церква Покрови Пресвятої Богородиці","denomination":"ukrainian_greek_catholic","region":"Львівська область","image":"https://map.ugcc.ua/pub/base/.jpg","website":"https://map.ugcc.ua/view/198-"},"geometry":{"type":"Point","coordinates":[25.10598,50.16451]}},
{"type":"Feature","properties":{"id":200,"name":"Церква Різдва Пресвятої Богородиці","denomination":"ukrainian_greek_catholic","region":"Львівська область","image":"https://map.ugcc.ua/pub/base/.jpg","website":"https://map.ugcc.ua/view/200-"},"geometry":{"type":"Point","coordinates":[24.94836,50.06356]}},
{"type":"Feature","properties":{"id":200,"name":"Церква Різдва Пресвятої Богородиці","denomination":"ukrainian_greek_catholic","region":"Львівська область","image":"https://map.ugcc.ua/pub/base/.jpg","website":"https://map.ugcc.ua/view/200-"},"geometry":{"type":"Point","coordinates":[24.94836,50.06356]}},
{"type":"Feature","properties":{"id":202,"name":"Церква Святого Йосафата","denomination":"ukrainian_greek_catholic","region":"Львівська область","image":"https://map.ugcc.ua/pub/base/87521e0a15f8c8a.jpg","website":"https://map.ugcc.ua/view/202-"},"geometry":{"type":"Point","coordinates":[24.94951,50.18426]}},
{"type":"Feature","properties":{"id":249,"name":"Церква Хреста Господнього","denomination":"ukrainian_greek_catholic","region":"Львівська область","image":"https://map.ugcc.ua/pub/base/ed9b9d2e300c860.jpg","website":"https://map.ugcc.ua/view/249-"},"geometry":{"type":"Point","coordinates":[24.02615,49.84924]}},
{"type":"Feature","properties":{"id":266,"name":"Церква Воздвиження Чесного Хреста","denomination":"ukrainian_greek_catholic","region":"Львівська область","image":"https://map.ugcc.ua/pub/base/55973a352ab7830.jpg","website":"https://map.ugcc.ua/view/266-"},"geometry":{"type":"Point","coordinates":[23.89206,49.83184]}},
{"type":"Feature","properties":{"id":266,"name":"Церква Воздвиження Чесного Хреста","denomination":"ukrainian_greek_catholic","region":"Львівська область","image":"https://map.ugcc.ua/pub/base/55973a352ab7830.jpg","website":"https://map.ugcc.ua/view/266-"},"geometry":{"type":"Point","coordinates":[23.89206,49.83184]}},
{"type":"Feature","properties":{"id":279,"name":"Церква Покрову Пресвятої Богородиці","denomination":"ukrainian_greek_catholic","region":"Львівська область","image":"https://map.ugcc.ua/pub/base/76ee4d8b749f6ca.jpg","website":"https://map.ugcc.ua/view/279-"},"geometry":{"type":"Point","coordinates":[24.06718,49.83636]}},
{"type":"Feature","properties":{"id":284,"name":"Церква Премудрості Божої","denomination":"ukrainian_greek_catholic","region":"Львівська область","image":"https://map.ugcc.ua/pub/base/071fcd4b91ffef5.jpg","website":"https://map.ugcc.ua/view/284-"},"geometry":{"type":"Point","coordinates":[24.06606,49.84387]}},
{"type":"Feature","properties":{"id":286,"name":"Церква святих Володимира і Ольги","denomination":"ukrainian_greek_catholic","region":"Львівська область","image":"https://map.ugcc.ua/pub/base/69c1f5c5598d71d.jpg","website":"https://map.ugcc.ua/view/286-"},"geometry":{"type":"Point","coordinates":[24.07016,49.84547]}},
{"type":"Feature","properties":{"id":287,"name":"Церква Введення в Храм Пресвятої Богородиці","denomination":"ukrainian_greek_catholic","region":"Львівська область","image":"https://map.ugcc.ua/pub/base/060db2f1d14e458.jpg","website":"https://map.ugcc.ua/view/287-"},"geometry":{"type":"Point","coordinates":[24.04415,49.7976]}},
{"type":"Feature","properties":{"id":289,"name":"Церква святих апостолів Петра і Павла","denomination":"ukrainian_greek_catholic","region":"Львівська область","image":"https://map.ugcc.ua/pub/base/bee6d58b9508e05.jpg","website":"https://map.ugcc.ua/view/289-"},"geometry":{"type":"Point","coordinates":[24.08957,49.77198]}},
{"type":"Feature","properties":{"id":296,"name":"Церква Вознесіння ГНІХ","denomination":"ukrainian_greek_catholic","region":"Львівська область","image":"https://map.ugcc.ua/pub/base/752b560e4972538.jpg","website":"https://map.ugcc.ua/view/296-"},"geometry":{"type":"Point","coordinates":[24.00802,49.81042]}},
{"type":"Feature","properties":{"id":301,"name":"Храм Святого Архистратига Михаїла","denomination":"ukrainian_greek_catholic","region":"Львівська область","image":"https://map.ugcc.ua/pub/base/0a4b8b8db43ff8e.jpg","website":"https://map.ugcc.ua/view/301-"},"geometry":{"type":"Point","coordinates":[24.0175,49.82451]}},
{"type":"Feature","properties":{"id":302,"name":"Храм Святого Йосифа (сс. Святого Вінкентія)","denomination":"ukrainian_greek_catholic","region":"Львівська область","image":"https://map.ugcc.ua/pub/base/31b59ab018acaae.jpg","website":"https://map.ugcc.ua/view/302-"},"geometry":{"type":"Point","coordinates":[23.99778,49.82891]}},
{"type":"Feature","properties":{"id":315,"name":"Церква Пресвятої Тройці","denomination":"ukrainian_greek_catholic","region":"Львівська область","image":"https://map.ugcc.ua/pub/base/5e34a01d63bda09.jpg","website":"https://map.ugcc.ua/view/315-"},"geometry":{"type":"Point","coordinates":[24.27742,49.86344]}},
{"type":"Feature","properties":{"id":319,"name":"Церква Воскресіння ГНІХ","denomination":"ukrainian_greek_catholic","region":"Львівська область","image":"https://map.ugcc.ua/pub/base/33ca144040f0125.jpg","website":"https://map.ugcc.ua/view/319-"},"geometry":{"type":"Point","coordinates":[24.13488,49.81168]}},
{"type":"Feature","properties":{"id":322,"name":"Церква Святого Миколая","denomination":"ukrainian_greek_catholic","region":"Львівська область","image":"https://map.ugcc.ua/pub/base/8c4b6bced25ea5d.jpg","website":"https://map.ugcc.ua/view/322-"},"geometry":{"type":"Point","coordinates":[24.15328,49.90226]}},
{"type":"Feature","properties":{"id":329,"name":"Церква Собору Пресвятої Богородиці","denomination":"ukrainian_greek_catholic","region":"Львівська область","image":"https://map.ugcc.ua/pub/base/726c286033ae2e7.jpg","website":"https://map.ugcc.ua/view/329-"},"geometry":{"type":"Point","coordinates":[24.21646,49.87269]}},
{"type":"Feature","properties":{"id":346,"name":"Церква святих апостолів Петра і Павла","denomination":"ukrainian_greek_catholic","region":"Львівська область","image":"https://map.ugcc.ua/pub/base/4a7c7bdd5af5618.jpg","website":"https://map.ugcc.ua/view/346-"},"geometry":{"type":"Point","coordinates":[24.45587,49.79599]}},
{"type":"Feature","properties":{"id":378,"name":"Церква блаженного Миколая Чарнецького","denomination":"ukrainian_greek_catholic","region":"Львівська область","image":"https://map.ugcc.ua/pub/base/5c44c52c38be2d8.jpg","website":"https://map.ugcc.ua/view/378-"},"geometry":{"type":"Point","coordinates":[24.89766,49.79455]}},
{"type":"Feature","properties":{"id":381,"name":"Церква святого Миколая","denomination":"ukrainian_greek_catholic","region":"Львівська область","image":"https://map.ugcc.ua/pub/base/d19996909b350fa.jpg","website":"https://map.ugcc.ua/view/381-"},"geometry":{"type":"Point","coordinates":[24.55897,49.6683]}},
{"type":"Feature","properties":{"id":407,"name":"Церква святого Миколая","denomination":"ukrainian_greek_catholic","region":"Львівська область","image":"https://map.ugcc.ua/pub/base/387e4048c816b19.jpg","website":"https://map.ugcc.ua/view/407-"},"geometry":{"type":"Point","coordinates":[24.51418,49.82318]}},
{"type":"Feature","properties":{"id":503,"name":"Церква Введення в храм Пресвятої Богородиці","denomination":"ukrainian_greek_catholic","region":"Львівська область","image":"https://map.ugcc.ua/pub/base/.jpg","website":"https://map.ugcc.ua/view/503-"},"geometry":{"type":"Point","coordinates":[24.07272,49.71222]}},
{"type":"Feature","properties":{"id":504,"name":"Церква Покрову Пресвятої Богородиці","denomination":"ukrainian_greek_catholic","region":"Львівська область","image":"https://map.ugcc.ua/pub/base/df1b49f298d84db.jpg","website":"https://map.ugcc.ua/view/504-"},"geometry":{"type":"Point","coordinates":[24.48591,49.75055]}},
{"type":"Feature","properties":{"id":507,"name":"Церква апостолів Петра і Павла","denomination":"ukrainian_greek_catholic","region":"Львівська область","image":"https://map.ugcc.ua/pub/base/.jpg","website":"https://map.ugcc.ua/view/507-"},"geometry":{"type":"Point","coordinates":[24.47744,49.74101]}},
{"type":"Feature","properties":{"id":507,"name":"Церква апостолів Петра і Павла","denomination":"ukrainian_greek_catholic","region":"Львівська область","image":"https://map.ugcc.ua/pub/base/.jpg","website":"https://map.ugcc.ua/view/507-"},"geometry":{"type":"Point","coordinates":[24.47744,49.74101]}},
{"type":"Feature","properties":{"id":514,"name":"Церква пророка Іллі","denomination":"ukrainian_greek_catholic","region":"Львівська область","image":"https://map.ugcc.ua/pub/base/d58a2cb1a60a0e3.jpg","website":"https://map.ugcc.ua/view/514-"},"geometry":{"type":"Point","coordinates":[24.19124,49.74088]}},
{"type":"Feature","properties":{"id":667,"name":"Церква Архистратига Михаїла","denomination":"ukrainian_greek_catholic","region":"Львівська область","image":"https://map.ugcc.ua/pub/base/0885200ed32d9a8.jpg","website":"https://map.ugcc.ua/view/667-"},"geometry":{"type":"Point","coordinates":[24.51203,49.72786]}},
{"type":"Feature","properties":{"id":667,"name":"Церква Архистратига Михаїла","denomination":"ukrainian_greek_catholic","region":"Львівська область","image":"https://map.ugcc.ua/pub/base/0885200ed32d9a8.jpg","website":"https://map.ugcc.ua/view/667-"},"geometry":{"type":"Point","coordinates":[24.51203,49.72786]}},
{"type":"Feature","properties":{"id":668,"name":"Церква Архистратига Михаїла","denomination":"ukrainian_greek_catholic","region":"Львівська область","image":"https://map.ugcc.ua/pub/base/.jpg","website":"https://map.ugcc.ua/view/668-"},"geometry":{"type":"Point","coordinates":[24.50965,49.72994]}},
{"type":"Feature","properties":{"id":718,"name":"Церква святого Йосифа та Воздвиження Чесного Хреста","denomination":"ukrainian_greek_catholic","region":"Львівська область","image":"https://map.ugcc.ua/pub/base/03f4d49e70cab03.jpg","website":"https://map.ugcc.ua/view/718-"},"geometry":{"type":"Point","coordinates":[24.9841,49.93938]}},
{"type":"Feature","properties":{"id":827,"name":"Церква святого Архистратига Михаїла","denomination":"ukrainian_greek_catholic","region":"Львівська область","image":"https://map.ugcc.ua/pub/base/2f422f9e027878a.jpg","website":"https://map.ugcc.ua/view/827-"},"geometry":{"type":"Point","coordinates":[24.59787,49.53324]}},
{"type":"Feature","properties":{"id":828,"name":"Церква святих верховних апостолів Петра і Павла","denomination":"ukrainian_greek_catholic","region":"Львівська область","image":"https://map.ugcc.ua/pub/base/6c80676281bba6d.jpg","website":"https://map.ugcc.ua/view/828-"},"geometry":{"type":"Point","coordinates":[23.83084,49.25991]}},
{"type":"Feature","properties":{"id":852,"name":"Церква Різдва Пресвятої Богородиці","denomination":"ukrainian_greek_catholic","region":"Львівська область","image":"https://map.ugcc.ua/pub/base/b670832928280b6.jpg","website":"https://map.ugcc.ua/view/852-"},"geometry":{"type":"Point","coordinates":[24.14402,49.47525]}},
{"type":"Feature","properties":{"id":882,"name":"Церква святих Петра і Павла","denomination":"ukrainian_greek_catholic","region":"Львівська область","image":"https://map.ugcc.ua/pub/base/23af1ea811dce62.jpg","website":"https://map.ugcc.ua/view/882-"},"geometry":{"type":"Point","coordinates":[23.56323,49.93066]}},
{"type":"Feature","properties":{"id":896,"name":"Церква Вознесіння Господнього","denomination":"ukrainian_greek_catholic","region":"Львівська область","image":"https://map.ugcc.ua/pub/base/21a115f3bda4cf9.jpg","website":"https://map.ugcc.ua/view/896-"},"geometry":{"type":"Point","coordinates":[23.49997,49.47509]}},
{"type":"Feature","properties":{"id":1094,"name":"Церква святого Архістратига Михаїла","denomination":"ukrainian_greek_catholic","region":"Львівська область","image":"https://map.ugcc.ua/pub/base/1b35197d60f1ce9.jpg","website":"https://map.ugcc.ua/view/1094-"},"geometry":{"type":"Point","coordinates":[24.2749,50.47841]}},
{"type":"Feature","properties":{"id":1096,"name":"Церква святого Духа","denomination":"ukrainian_greek_catholic","region":"Львівська область","image":"https://map.ugcc.ua/pub/base/cc1a0065ee8a7e4.jpg","website":"https://map.ugcc.ua/view/1096-"},"geometry":{"type":"Point","coordinates":[24.26324,50.46276]}},
{"type":"Feature","properties":{"id":1130,"name":"Церква Перенесення мощей святого Миколая","denomination":"ukrainian_greek_catholic","region":"Львівська область","image":"https://map.ugcc.ua/pub/base/135dfbde118369d.jpg","website":"https://map.ugcc.ua/view/1130-"},"geometry":{"type":"Point","coordinates":[24.01854,50.37853]}},
{"type":"Feature","properties":{"id":1130,"name":"Церква Перенесення мощей святого Миколая","denomination":"ukrainian_greek_catholic","region":"Львівська область","image":"https://map.ugcc.ua/pub/base/135dfbde118369d.jpg","website":"https://map.ugcc.ua/view/1130-"},"geometry":{"type":"Point","coordinates":[24.01854,50.37853]}},
{"type":"Feature","properties":{"id":1138,"name":"Церква св. вмчц. Параскевії Тарнавської","denomination":"ukrainian_greek_catholic","region":"Львівська область","image":"https://map.ugcc.ua/pub/base/97f385085a26fe8.jpg","website":"https://map.ugcc.ua/view/1138-"},"geometry":{"type":"Point","coordinates":[23.93991,50.34894]}},
{"type":"Feature","properties":{"id":1140,"name":"Церква св. вмч. Параскевії П’ятниці","denomination":"ukrainian_greek_catholic","region":"Львівська область","image":"https://map.ugcc.ua/pub/base/c897aeb762eae11.jpg","website":"https://map.ugcc.ua/view/1140-"},"geometry":{"type":"Point","coordinates":[24.08589,50.30153]}},
{"type":"Feature","properties":{"id":1141,"name":"Церква Перенесення мощів св. Стефана","denomination":"ukrainian_greek_catholic","region":"Львівська область","image":"https://map.ugcc.ua/pub/base/4991700768ca6aa.jpg","website":"https://map.ugcc.ua/view/1141-"},"geometry":{"type":"Point","coordinates":[24.0162,50.39467]}},
{"type":"Feature","properties":{"id":1145,"name":"Церква святих безсрібників Косми і Дам'яна","denomination":"ukrainian_greek_catholic","region":"Львівська область","image":"https://map.ugcc.ua/pub/base/bf58c2782c89e2f.jpg","website":"https://map.ugcc.ua/view/1145-"},"geometry":{"type":"Point","coordinates":[24.05753,50.42072]}},
{"type":"Feature","properties":{"id":1145,"name":"Церква святих безсрібників Косми і Дам'яна","denomination":"ukrainian_greek_catholic","region":"Львівська область","image":"https://map.ugcc.ua/pub/base/bf58c2782c89e2f.jpg","website":"https://map.ugcc.ua/view/1145-"},"geometry":{"type":"Point","coordinates":[24.05753,50.42072]}},
{"type":"Feature","properties":{"id":1146,"name":"Церква Воздвиження Чеcного і Животворящого Хреста Господнього","denomination":"ukrainian_greek_catholic","region":"Львівська область","image":"https://map.ugcc.ua/pub/base/50a12e066743655.jpg","website":"https://map.ugcc.ua/view/1146-"},"geometry":{"type":"Point","coordinates":[24.02613,50.35764]}},
{"type":"Feature","properties":{"id":1147,"name":"Церква святого Архістратига Михаїла","denomination":"ukrainian_greek_catholic","region":"Львівська область","image":"https://map.ugcc.ua/pub/base/0b902037672e72c.jpg","website":"https://map.ugcc.ua/view/1147-"},"geometry":{"type":"Point","coordinates":[23.88692,50.38423]}},
{"type":"Feature","properties":{"id":1148,"name":"Церква Воскресіння Господнього","denomination":"ukrainian_greek_catholic","region":"Львівська область","image":"https://map.ugcc.ua/pub/base/c33a74c9bb37bc5.jpg","website":"https://map.ugcc.ua/view/1148-"},"geometry":{"type":"Point","coordinates":[24.05241,50.3958]}},
{"type":"Feature","properties":{"id":1149,"name":"Церква святих безсрібників Косми і Дам’яна","denomination":"ukrainian_greek_catholic","region":"Львівська область","image":"https://map.ugcc.ua/pub/base/d11b9b69e2f273b.jpg","website":"https://map.ugcc.ua/view/1149-"},"geometry":{"type":"Point","coordinates":[23.83494,50.38819]}},
{"type":"Feature","properties":{"id":1150,"name":"Церква святого Миколая","denomination":"ukrainian_greek_catholic","region":"Львівська область","image":"https://map.ugcc.ua/pub/base/.jpg","website":"https://map.ugcc.ua/view/1150-"},"geometry":{"type":"Point","coordinates":[23.88046,50.36279]}},
{"type":"Feature","properties":{"id":1151,"name":"Церква Вознесіння Господнього","denomination":"ukrainian_greek_catholic","region":"Львівська область","image":"https://map.ugcc.ua/pub/base/4cd06e1c60508ed.jpg","website":"https://map.ugcc.ua/view/1151-"},"geometry":{"type":"Point","coordinates":[24.12747,50.44452]}},
{"type":"Feature","properties":{"id":1152,"name":"Церква св. Миколая","denomination":"ukrainian_greek_catholic","region":"Львівська область","image":"https://map.ugcc.ua/pub/base/3147a11e9f5dc78.jpg","website":"https://map.ugcc.ua/view/1152-"},"geometry":{"type":"Point","coordinates":[24.07889,50.44361]}},
{"type":"Feature","properties":{"id":1155,"name":"Церква Воздвиження Чесного і Животворящого Хреста Господнього","denomination":"ukrainian_greek_catholic","region":"Львівська область","image":"https://map.ugcc.ua/pub/base/d033514e8971134.jpg","website":"https://map.ugcc.ua/view/1155-"},"geometry":{"type":"Point","coordinates":[24.10816,50.40936]}},
{"type":"Feature","properties":{"id":1156,"name":"Церква Пресвятої Трійці","denomination":"ukrainian_greek_catholic","region":"Львівська область","image":"https://map.ugcc.ua/pub/base/76596da8f44d5ce.jpg","website":"https://map.ugcc.ua/view/1156-"},"geometry":{"type":"Point","coordinates":[24.24227,50.2245]}},
{"type":"Feature","properties":{"id":1157,"name":"Церква Покрови Пресвятої Богородиці","denomination":"ukrainian_greek_catholic","region":"Львівська область","image":"https://map.ugcc.ua/pub/base/bf9c6280f1ac0a5.jpg","website":"https://map.ugcc.ua/view/1157-"},"geometry":{"type":"Point","coordinates":[24.21943,50.20075]}},
{"type":"Feature","properties":{"id":1472,"name":"Церква Богородиці-Володарки України","denomination":"ukrainian_greek_catholic","region":"Львівська область","image":"https://map.ugcc.ua/pub/base/8b0b68ae03a48ce.jpg","website":"https://map.ugcc.ua/view/1472-"},"geometry":{"type":"Point","coordinates":[24.24052,50.3888]}},
{"type":"Feature","properties":{"id":1494,"name":"Церква Архангела Михаїла","denomination":"ukrainian_greek_catholic","region":"Львівська область","image":"https://map.ugcc.ua/pub/base/46c83d7f54f45bc.jpg","website":"https://map.ugcc.ua/view/1494-"},"geometry":{"type":"Point","coordinates":[23.65757,49.13557]}},
{"type":"Feature","properties":{"id":1496,"name":"Церква Св. вмуч. Євстахія","denomination":"ukrainian_greek_catholic","region":"Львівська область","image":"https://map.ugcc.ua/pub/base/8df96cdb809c324.jpg","website":"https://map.ugcc.ua/view/1496-"},"geometry":{"type":"Point","coordinates":[23.6869,49.1479]}},
{"type":"Feature","properties":{"id":1504,"name":"Церква Покрови Пресвятої Богородиці","denomination":"ukrainian_greek_catholic","region":"Львівська область","image":"https://map.ugcc.ua/pub/base/93eccecc72272db.jpg","website":"https://map.ugcc.ua/view/1504-"},"geometry":{"type":"Point","coordinates":[23.74541,49.18691]}},
{"type":"Feature","properties":{"id":1508,"name":"Церква святих апостолів Петра і Павла","denomination":"ukrainian_greek_catholic","region":"Львівська область","image":"https://map.ugcc.ua/pub/base/3128660b547f712.jpg","website":"https://map.ugcc.ua/view/1508-"},"geometry":{"type":"Point","coordinates":[23.74082,49.23214]}},
{"type":"Feature","properties":{"id":1509,"name":"Церква Вознесіння Христового","denomination":"ukrainian_greek_catholic","region":"Львівська область","image":"https://map.ugcc.ua/pub/base/.jpg","website":"https://map.ugcc.ua/view/1509-"},"geometry":{"type":"Point","coordinates":[23.75043,49.25832]}},
{"type":"Feature","properties":{"id":1510,"name":"Церква святого Михаїла","denomination":"ukrainian_greek_catholic","region":"Львівська область","image":"https://map.ugcc.ua/pub/base/9268c904afbfda8.jpg","website":"https://map.ugcc.ua/view/1510-"},"geometry":{"type":"Point","coordinates":[23.76626,49.25269]}},
{"type":"Feature","properties":{"id":1511,"name":"Церква Різдва Пресвятої Богородиці","denomination":"ukrainian_greek_catholic","region":"Львівська область","image":"https://map.ugcc.ua/pub/base/60fc937b65e56d3.jpg","website":"https://map.ugcc.ua/view/1511-"},"geometry":{"type":"Point","coordinates":[23.80325,49.23771]}},
{"type":"Feature","properties":{"id":1513,"name":"Церква святих апостолів Петра і Павла","denomination":"ukrainian_greek_catholic","region":"Львівська область","image":"https://map.ugcc.ua/pub/base/87a03b9a02d2b4c.jpg","website":"https://map.ugcc.ua/view/1513-"},"geometry":{"type":"Point","coordinates":[23.75415,49.28409]}},
{"type":"Feature","properties":{"id":1548,"name":"Афганський храм Стрітення ГНІХ","denomination":"ukrainian_greek_catholic","region":"Львівська область","image":"https://map.ugcc.ua/pub/base/f98a6e751b2e03e.jpg","website":"https://map.ugcc.ua/view/1548-"},"geometry":{"type":"Point","coordinates":[24.01648,49.85202]}},
{"type":"Feature","properties":{"id":1663,"name":"Церква Христа Чоловіколюбця","denomination":"ukrainian_greek_catholic","region":"Львівська область","image":"https://map.ugcc.ua/pub/base/931cbe110926492.jpg","website":"https://map.ugcc.ua/view/1663-"},"geometry":{"type":"Point","coordinates":[23.46108,49.65461]}},
{"type":"Feature","properties":{"id":1881,"name":"Церква святого великомученика Юрія","denomination":"ukrainian_greek_catholic","region":"Львівська область","image":"https://map.ugcc.ua/pub/base/.jpg","website":"https://map.ugcc.ua/view/1881-"},"geometry":{"type":"Point","coordinates":[24.41112,49.80504]}},
{"type":"Feature","properties":{"id":1882,"name":"Церква святих Безсрібників Косми і Дам’яна","denomination":"ukrainian_greek_catholic","region":"Львівська область","image":"https://map.ugcc.ua/pub/base/c6693911bb35762.jpg","website":"https://map.ugcc.ua/view/1882-"},"geometry":{"type":"Point","coordinates":[24.43086,49.82075]}},
{"type":"Feature","properties":{"id":1886,"name":"Церква Покрови Пресвятої Богородиці","denomination":"ukrainian_greek_catholic","region":"Львівська область","image":"https://map.ugcc.ua/pub/base/36d97a5973e59f0.jpg","website":"https://map.ugcc.ua/view/1886-"},"geometry":{"type":"Point","coordinates":[24.63372,49.76912]}},
{"type":"Feature","properties":{"id":1888,"name":"Церква Введення в Храм Пресвятої Богородиці","denomination":"ukrainian_greek_catholic","region":"Львівська область","image":"https://map.ugcc.ua/pub/base/8e4d6e2f508cd46.jpg","website":"https://map.ugcc.ua/view/1888-"},"geometry":{"type":"Point","coordinates":[24.57213,49.80936]}},
{"type":"Feature","properties":{"id":1893,"name":"Церква Перенесення мощей святителя Миколая","denomination":"ukrainian_greek_catholic","region":"Львівська область","image":"https://map.ugcc.ua/pub/base/bf150dd9de20988.jpg","website":"https://map.ugcc.ua/view/1893-"},"geometry":{"type":"Point","coordinates":[24.2375,49.70101]}},
{"type":"Feature","properties":{"id":1896,"name":"Церква преподобної Параскевії","denomination":"ukrainian_greek_catholic","region":"Львівська область","image":"https://map.ugcc.ua/pub/base/14056b9dd180f00.jpg","website":"https://map.ugcc.ua/view/1896-"},"geometry":{"type":"Point","coordinates":[24.04496,49.77031]}},
{"type":"Feature","properties":{"id":1903,"name":"Церква преподобної Параскевії","denomination":"ukrainian_greek_catholic","region":"Львівська область","image":"https://map.ugcc.ua/pub/base/2f7ad2c146ea1a0.jpg","website":"https://map.ugcc.ua/view/1903-"},"geometry":{"type":"Point","coordinates":[24.82033,49.89493]}},
{"type":"Feature","properties":{"id":1904,"name":"Церква Успіння Пресвятої Богородиці","denomination":"ukrainian_greek_catholic","region":"Львівська область","image":"https://map.ugcc.ua/pub/base/b315c0e58810db0.jpg","website":"https://map.ugcc.ua/view/1904-"},"geometry":{"type":"Point","coordinates":[25.09656,49.87115]}},
{"type":"Feature","properties":{"id":1905,"name":"Церква Зіслання Святого Духа","denomination":"ukrainian_greek_catholic","region":"Львівська область","image":"https://map.ugcc.ua/pub/base/411404a19e3cdd6.jpg","website":"https://map.ugcc.ua/view/1905-"},"geometry":{"type":"Point","coordinates":[24.88124,49.91709]}},
{"type":"Feature","properties":{"id":1908,"name":"Церква Воздвиження Чесного і Животворящого Хреста Господнього","denomination":"ukrainian_greek_catholic","region":"Львівська область","image":"https://map.ugcc.ua/pub/base/e65c5e05d1a6eb4.jpg","website":"https://map.ugcc.ua/view/1908-"},"geometry":{"type":"Point","coordinates":[24.89665,49.83781]}},
{"type":"Feature","properties":{"id":1912,"name":"Церква Вознесіння ГНІХ","denomination":"ukrainian_greek_catholic","region":"Львівська область","image":"https://map.ugcc.ua/pub/base/bd1cfc456ef5b1c.jpg","website":"https://map.ugcc.ua/view/1912-"},"geometry":{"type":"Point","coordinates":[24.87507,49.80681]}},
{"type":"Feature","properties":{"id":1915,"name":"Церква Різдва Пресвятої Богородиці","denomination":"ukrainian_greek_catholic","region":"Львівська область","image":"https://map.ugcc.ua/pub/base/55c3c43c6227ef8.jpg","website":"https://map.ugcc.ua/view/1915-"},"geometry":{"type":"Point","coordinates":[24.91133,49.79727]}},
{"type":"Feature","properties":{"id":1922,"name":"Церква святих апостолів Петра і Павла","denomination":"ukrainian_greek_catholic","region":"Львівська область","image":"https://map.ugcc.ua/pub/base/.jpg","website":"https://map.ugcc.ua/view/1922-"},"geometry":{"type":"Point","coordinates":[25.01993,49.82914]}},
{"type":"Feature","properties":{"id":1924,"name":"Церква святого Архистратига Михаїла","denomination":"ukrainian_greek_catholic","region":"Львівська область","image":"https://map.ugcc.ua/pub/base/1a3885e1ce35e49.jpg","website":"https://map.ugcc.ua/view/1924-"},"geometry":{"type":"Point","coordinates":[24.91767,49.78951]}},
{"type":"Feature","properties":{"id":1925,"name":"Церква Преображення ГНІХ","denomination":"ukrainian_greek_catholic","region":"Львівська область","image":"https://map.ugcc.ua/pub/base/ff587dbbc674454.jpg","website":"https://map.ugcc.ua/view/1925-"},"geometry":{"type":"Point","coordinates":[24.82339,49.9335]}},
{"type":"Feature","properties":{"id":1926,"name":"Церква Різдва Пресвятої Богородиці","denomination":"ukrainian_greek_catholic","region":"Львівська область","image":"https://map.ugcc.ua/pub/base/.jpg","website":"https://map.ugcc.ua/view/1926-"},"geometry":{"type":"Point","coordinates":[24.83078,49.85067]}},
{"type":"Feature","properties":{"id":1928,"name":"Церква святого Миколая","denomination":"ukrainian_greek_catholic","region":"Львівська область","image":"https://map.ugcc.ua/pub/base/5db59f4062d10f8.jpg","website":"https://map.ugcc.ua/view/1928-"},"geometry":{"type":"Point","coordinates":[24.94983,49.8721]}},
{"type":"Feature","properties":{"id":1934,"name":"Церква святої Параскевії","denomination":"ukrainian_greek_catholic","region":"Львівська область","image":"https://map.ugcc.ua/pub/base/a6f41a01cdc7f80.jpg","website":"https://map.ugcc.ua/view/1934-"},"geometry":{"type":"Point","coordinates":[23.26141,49.89252]}},
{"type":"Feature","properties":{"id":1937,"name":"Церква преподобного Онуфрія Великого","denomination":"ukrainian_greek_catholic","region":"Львівська область","image":"https://map.ugcc.ua/pub/base/18820b56773fde8.jpg","website":"https://map.ugcc.ua/view/1937-"},"geometry":{"type":"Point","coordinates":[23.12155,49.93992]}},
{"type":"Feature","properties":{"id":1942,"name":"Церква святої вуликомучениці Параскевії П’ятниці","denomination":"ukrainian_greek_catholic","region":"Львівська область","image":"https://map.ugcc.ua/pub/base/.jpg","website":"https://map.ugcc.ua/view/1942-"},"geometry":{"type":"Point","coordinates":[23.30739,49.90433]}},
{"type":"Feature","properties":{"id":1945,"name":"Церква святого Миколая","denomination":"ukrainian_greek_catholic","region":"Львівська область","image":"https://map.ugcc.ua/pub/base/29cf1a7dd505cb9.jpg","website":"https://map.ugcc.ua/view/1945-"},"geometry":{"type":"Point","coordinates":[23.16077,49.96069]}},
{"type":"Feature","properties":{"id":1958,"name":"Церква Різдва св. Івана Хрестителя","denomination":"ukrainian_greek_catholic","region":"Львівська область","image":"https://map.ugcc.ua/pub/base/.jpg","website":"https://map.ugcc.ua/view/1958-"},"geometry":{"type":"Point","coordinates":[23.2843,49.87677]}},
{"type":"Feature","properties":{"id":2159,"name":"Церква Успення Пресвятої Богородиці","denomination":"ukrainian_greek_catholic","region":"Львівська область","image":"https://map.ugcc.ua/pub/base/4929b402f91cf34.jpg","website":"https://map.ugcc.ua/view/2159-"},"geometry":{"type":"Point","coordinates":[23.63846,49.84794]}},
{"type":"Feature","properties":{"id":2160,"name":"Церква Покрови Пресвятої Богородиці","denomination":"ukrainian_greek_catholic","region":"Львівська область","image":"https://map.ugcc.ua/pub/base/fa3de2a662e1677.jpg","website":"https://map.ugcc.ua/view/2160-"},"geometry":{"type":"Point","coordinates":[23.67508,49.7642]}},
{"type":"Feature","properties":{"id":2160,"name":"Церква Покрови Пресвятої Богородиці","denomination":"ukrainian_greek_catholic","region":"Львівська область","image":"https://map.ugcc.ua/pub/base/fa3de2a662e1677.jpg","website":"https://map.ugcc.ua/view/2160-"},"geometry":{"type":"Point","coordinates":[23.67508,49.7642]}},
{"type":"Feature","properties":{"id":2161,"name":"Церква Різдва Пресвятої Богородиці","denomination":"ukrainian_greek_catholic","region":"Львівська область","image":"https://map.ugcc.ua/pub/base/7859914180a4aa2.jpg","website":"https://map.ugcc.ua/view/2161-"},"geometry":{"type":"Point","coordinates":[23.58972,49.78986]}},
{"type":"Feature","properties":{"id":2165,"name":"Церква Святого великомученика Юрія","denomination":"ukrainian_greek_catholic","region":"Львівська область","image":"https://map.ugcc.ua/pub/base/a496fdac676deb4.jpg","website":"https://map.ugcc.ua/view/2165-"},"geometry":{"type":"Point","coordinates":[23.53262,49.78054]}},
{"type":"Feature","properties":{"id":2167,"name":"Церква святого великомученика Димитрія","denomination":"ukrainian_greek_catholic","region":"Львівська область","image":"https://map.ugcc.ua/pub/base/.jpg","website":"https://map.ugcc.ua/view/2167-"},"geometry":{"type":"Point","coordinates":[23.48404,49.74336]}},
{"type":"Feature","properties":{"id":2174,"name":"Церква святого пророка Іллі","denomination":"ukrainian_greek_catholic","region":"Львівська область","image":"https://map.ugcc.ua/pub/base/.jpg","website":"https://map.ugcc.ua/view/2174-"},"geometry":{"type":"Point","coordinates":[23.45959,49.67521]}},
{"type":"Feature","properties":{"id":2175,"name":"Церква святих безсрібників Косми і Дам’яна","denomination":"ukrainian_greek_catholic","region":"Львівська область","image":"https://map.ugcc.ua/pub/base/.jpg","website":"https://map.ugcc.ua/view/2175-"},"geometry":{"type":"Point","coordinates":[23.48207,49.6746]}},
{"type":"Feature","properties":{"id":2176,"name":"Церква святого Миколая","denomination":"ukrainian_greek_catholic","region":"Львівська область","image":"https://map.ugcc.ua/pub/base/f0dc631a1788414.jpg","website":"https://map.ugcc.ua/view/2176-"},"geometry":{"type":"Point","coordinates":[23.50835,49.69716]}},
{"type":"Feature","properties":{"id":2178,"name":"Церква Пресвятої Євхаристії","denomination":"ukrainian_greek_catholic","region":"Львівська область","image":"https://map.ugcc.ua/pub/base/a9061e64cfe5cd2.jpg","website":"https://map.ugcc.ua/view/2178-"},"geometry":{"type":"Point","coordinates":[23.54759,49.69193]}},
{"type":"Feature","properties":{"id":2181,"name":"Церква святого апостола Филипа","denomination":"ukrainian_greek_catholic","region":"Львівська область","image":"https://map.ugcc.ua/pub/base/.jpg","website":"https://map.ugcc.ua/view/2181-"},"geometry":{"type":"Point","coordinates":[23.60185,49.67729]}},
{"type":"Feature","properties":{"id":2182,"name":"Церква преподобної Параскевії","denomination":"ukrainian_greek_catholic","region":"Львівська область","image":"https://map.ugcc.ua/pub/base/3a9f19cf81f759a.jpg","website":"https://map.ugcc.ua/view/2182-"},"geometry":{"type":"Point","coordinates":[23.58395,49.67573]}},
{"type":"Feature","properties":{"id":2183,"name":"Церква Різдва Пресвятої Богородиці","denomination":"ukrainian_greek_catholic","region":"Львівська область","image":"https://map.ugcc.ua/pub/base/55f6b24d38c2a11.jpg","website":"https://map.ugcc.ua/view/2183-"},"geometry":{"type":"Point","coordinates":[23.5818,49.65447]}},
{"type":"Feature","properties":{"id":2185,"name":"Церква святих Петра і Павла","denomination":"ukrainian_greek_catholic","region":"Львівська область","image":"https://map.ugcc.ua/pub/base/317fdd61323db68.jpg","website":"https://map.ugcc.ua/view/2185-"},"geometry":{"type":"Point","coordinates":[23.69085,49.62634]}},
{"type":"Feature","properties":{"id":2190,"name":"Церква Святого Івана Золотоустого","denomination":"ukrainian_greek_catholic","region":"Львівська область","image":"https://map.ugcc.ua/pub/base/dbc3945360206e1.jpg","website":"https://map.ugcc.ua/view/2190-"},"geometry":{"type":"Point","coordinates":[23.7173,49.67913]}},
{"type":"Feature","properties":{"id":2191,"name":"Церква Преображення Господнього","denomination":"ukrainian_greek_catholic","region":"Львівська область","image":"https://map.ugcc.ua/pub/base/.jpg","website":"https://map.ugcc.ua/view/2191-"},"geometry":{"type":"Point","coordinates":[23.72023,49.6989]}},
{"type":"Feature","properties":{"id":2192,"name":"Церква святого Миколая","denomination":"ukrainian_greek_catholic","region":"Львівська область","image":"https://map.ugcc.ua/pub/base/fa2c97664ec78da.jpg","website":"https://map.ugcc.ua/view/2192-"},"geometry":{"type":"Point","coordinates":[23.73833,49.72168]}},
{"type":"Feature","properties":{"id":2193,"name":"Церква Верховних апостолів Петра і Павла","denomination":"ukrainian_greek_catholic","region":"Львівська область","image":"https://map.ugcc.ua/pub/base/7f9254b36b0cdf1.jpg","website":"https://map.ugcc.ua/view/2193-"},"geometry":{"type":"Point","coordinates":[23.42336,49.46663]}},
{"type":"Feature","properties":{"id":2194,"name":"Церква Покрови Пресвятої Богородиці","denomination":"ukrainian_greek_catholic","region":"Львівська область","image":"https://map.ugcc.ua/pub/base/13d9bc263d4ac68.jpg","website":"https://map.ugcc.ua/view/2194-"},"geometry":{"type":"Point","coordinates":[23.42344,49.46731]}},
{"type":"Feature","properties":{"id":2548,"name":"Церква Вознесіння Господнього","denomination":"ukrainian_greek_catholic","region":"Львівська область","image":"https://map.ugcc.ua/pub/base/ff92d40cbe611b2.jpg","website":"https://map.ugcc.ua/view/2548-"},"geometry":{"type":"Point","coordinates":[24.22001,49.6237]}},
{"type":"Feature","properties":{"id":2553,"name":"Церква Покрови Пресвятої Богородиці","denomination":"ukrainian_greek_catholic","region":"Львівська область","image":"https://map.ugcc.ua/pub/base/f9bc4ec103d1bdb.jpg","website":"https://map.ugcc.ua/view/2553-"},"geometry":{"type":"Point","coordinates":[24.29731,49.63613]}},
{"type":"Feature","properties":{"id":2554,"name":"Церква Воздвиження Чесного Хреста","denomination":"ukrainian_greek_catholic","region":"Львівська область","image":"https://map.ugcc.ua/pub/base/.jpg","website":"https://map.ugcc.ua/view/2554-"},"geometry":{"type":"Point","coordinates":[24.27454,49.6671]}},
{"type":"Feature","properties":{"id":2562,"name":"Церква Благовіщення Пресвятої Богородиці у Патріаршому Домі","denomination":"ukrainian_greek_catholic","region":"Львівська область","image":"https://map.ugcc.ua/pub/base/9d1a3707d665920.jpg","website":"https://map.ugcc.ua/view/2562-"},"geometry":{"type":"Point","coordinates":[24.03622,49.80372]}},
{"type":"Feature","properties":{"id":2573,"name":"Церква святого Івана Богослова","denomination":"ukrainian_greek_catholic","region":"Львівська область","image":"https://map.ugcc.ua/pub/base/22dbb8eb20211a1.jpg","website":"https://map.ugcc.ua/view/2573-"},"geometry":{"type":"Point","coordinates":[23.83671,49.82407]}},
{"type":"Feature","properties":{"id":2574,"name":"Церква святих апостолів Петра і Павла","denomination":"ukrainian_greek_catholic","region":"Львівська область","image":"https://map.ugcc.ua/pub/base/20be856bddb3bed.jpg","website":"https://map.ugcc.ua/view/2574-"},"geometry":{"type":"Point","coordinates":[23.68964,49.83953]}},
{"type":"Feature","properties":{"id":2577,"name":"Церква Різдва Пресвятої Богородиці","denomination":"ukrainian_greek_catholic","region":"Львівська область","image":"https://map.ugcc.ua/pub/base/.jpg","website":"https://map.ugcc.ua/view/2577-"},"geometry":{"type":"Point","coordinates":[23.69079,49.74933]}},
{"type":"Feature","properties":{"id":2580,"name":"Церква Покрови Пресвятої Богородиці","denomination":"ukrainian_greek_catholic","region":"Львівська область","image":"https://map.ugcc.ua/pub/base/9de56f3017fb706.jpg","website":"https://map.ugcc.ua/view/2580-"},"geometry":{"type":"Point","coordinates":[23.73312,49.84116]}},
{"type":"Feature","properties":{"id":2584,"name":"Церква Різдва Пресвятої Богородиці","denomination":"ukrainian_greek_catholic","region":"Львівська область","image":"https://map.ugcc.ua/pub/base/.jpg","website":"https://map.ugcc.ua/view/2584-"},"geometry":{"type":"Point","coordinates":[23.87146,49.24266]}},
{"type":"Feature","properties":{"id":2587,"name":"Церква Архистратига Михаїла","denomination":"ukrainian_greek_catholic","region":"Львівська область","image":"https://map.ugcc.ua/pub/base/62edee3c8480075.jpg","website":"https://map.ugcc.ua/view/2587-"},"geometry":{"type":"Point","coordinates":[23.89831,49.2591]}},
{"type":"Feature","properties":{"id":2604,"name":"Церква Зiслання Святого Духа","denomination":"ukrainian_greek_catholic","region":"Львівська область","image":"https://map.ugcc.ua/pub/base/.jpg","website":"https://map.ugcc.ua/view/2604-"},"geometry":{"type":"Point","coordinates":[23.92261,49.2536]}},
{"type":"Feature","properties":{"id":2606,"name":"Церква святих Йоакима та Анни","denomination":"ukrainian_greek_catholic","region":"Львівська область","image":"https://map.ugcc.ua/pub/base/dbdfe02e80f202a.jpg","website":"https://map.ugcc.ua/view/2606-"},"geometry":{"type":"Point","coordinates":[24.02072,49.14649]}},
{"type":"Feature","properties":{"id":2610,"name":"Церква Рiздва Пресвятої Богородицi","denomination":"ukrainian_greek_catholic","region":"Львівська область","image":"https://map.ugcc.ua/pub/base/.jpg","website":"https://map.ugcc.ua/view/2610-"},"geometry":{"type":"Point","coordinates":[24.03696,49.21516]}},
{"type":"Feature","properties":{"id":2611,"name":"Церква святого Володимира Великого","denomination":"ukrainian_greek_catholic","region":"Львівська область","image":"https://map.ugcc.ua/pub/base/1aeae8b25634d8e.jpg","website":"https://map.ugcc.ua/view/2611-"},"geometry":{"type":"Point","coordinates":[23.97315,49.27651]}},
{"type":"Feature","properties":{"id":2613,"name":"Церква святого Василiя Великого","denomination":"ukrainian_greek_catholic","region":"Львівська область","image":"https://map.ugcc.ua/pub/base/.jpg","website":"https://map.ugcc.ua/view/2613-"},"geometry":{"type":"Point","coordinates":[23.96951,49.19133]}},
{"type":"Feature","properties":{"id":2615,"name":"Церква Покрови Пресвятої Богородиці","denomination":"ukrainian_greek_catholic","region":"Львівська область","image":"https://map.ugcc.ua/pub/base/.jpg","website":"https://map.ugcc.ua/view/2615-"},"geometry":{"type":"Point","coordinates":[23.96301,49.25339]}},
{"type":"Feature","properties":{"id":2652,"name":"Церква Воскресіння Господнього","denomination":"ukrainian_greek_catholic","region":"Львівська область","image":"https://map.ugcc.ua/pub/base/721c0d04aabc3c0.jpg","website":"https://map.ugcc.ua/view/2652-"},"geometry":{"type":"Point","coordinates":[23.91139,49.3]}},
{"type":"Feature","properties":{"id":2656,"name":"Церква святих Петра i Павла","denomination":"ukrainian_greek_catholic","region":"Львівська область","image":"https://map.ugcc.ua/pub/base/ffbc4b0eaba4c25.jpg","website":"https://map.ugcc.ua/view/2656-"},"geometry":{"type":"Point","coordinates":[23.85732,49.30085]}},
{"type":"Feature","properties":{"id":2659,"name":"Церква Рiздва Пресвятої Богородицi","denomination":"ukrainian_greek_catholic","region":"Львівська область","image":"https://map.ugcc.ua/pub/base/bc39440c89e1df2.jpg","website":"https://map.ugcc.ua/view/2659-"},"geometry":{"type":"Point","coordinates":[23.95299,49.31234]}},
{"type":"Feature","properties":{"id":2660,"name":"Церква святої Параскеви","denomination":"ukrainian_greek_catholic","region":"Львівська область","image":"https://map.ugcc.ua/pub/base/b739065d250db88.jpg","website":"https://map.ugcc.ua/view/2660-"},"geometry":{"type":"Point","coordinates":[23.94201,49.36997]}},
{"type":"Feature","properties":{"id":2723,"name":"Церква Введення в Храм Пресвятої Богородиці","denomination":"ukrainian_greek_catholic","region":"Львівська область","image":"https://map.ugcc.ua/pub/base/7c5fdd7b2673894.jpg","website":"https://map.ugcc.ua/view/2723-"},"geometry":{"type":"Point","coordinates":[24.2119,49.56002]}},
{"type":"Feature","properties":{"id":2725,"name":"Церква Покрови Пресвятої Богородиці","denomination":"ukrainian_greek_catholic","region":"Львівська область","image":"https://map.ugcc.ua/pub/base/f6e2a3abc4111c6.jpg","website":"https://map.ugcc.ua/view/2725-"},"geometry":{"type":"Point","coordinates":[24.11652,49.47616]}},
{"type":"Feature","properties":{"id":2760,"name":"Церква Успення Пресвятої Богородиці","denomination":"ukrainian_greek_catholic","region":"Львівська область","image":"https://map.ugcc.ua/pub/base/2cc172918c6cf40.jpg","website":"https://map.ugcc.ua/view/2760-"},"geometry":{"type":"Point","coordinates":[23.90447,49.81508]}},
{"type":"Feature","properties":{"id":2762,"name":"Церква Чуда Архистратига Михаїла","denomination":"ukrainian_greek_catholic","region":"Львівська область","image":"https://map.ugcc.ua/pub/base/3a15bd72d81ad7b.jpg","website":"https://map.ugcc.ua/view/2762-"},"geometry":{"type":"Point","coordinates":[24.17519,49.32769]}},
{"type":"Feature","properties":{"id":2767,"name":"Церква святого Миколая","denomination":"ukrainian_greek_catholic","region":"Львівська область","image":"https://map.ugcc.ua/pub/base/.jpg","website":"https://map.ugcc.ua/view/2767-"},"geometry":{"type":"Point","coordinates":[24.33491,49.27979]}},
{"type":"Feature","properties":{"id":2768,"name":"Церква святих апостолів Петра і Павла","denomination":"ukrainian_greek_catholic","region":"Львівська область","image":"https://map.ugcc.ua/pub/base/8708eb83668927e.jpg","website":"https://map.ugcc.ua/view/2768-"},"geometry":{"type":"Point","coordinates":[24.27926,49.28983]}},
{"type":"Feature","properties":{"id":2771,"name":"Церква святих мучеників Бориса і Гліба","denomination":"ukrainian_greek_catholic","region":"Львівська область","image":"https://map.ugcc.ua/pub/base/3d051442530acc8.jpg","website":"https://map.ugcc.ua/view/2771-"},"geometry":{"type":"Point","coordinates":[24.15054,49.37608]}},
{"type":"Feature","properties":{"id":2772,"name":"Церква Успіння Пресвятої Богородиці","denomination":"ukrainian_greek_catholic","region":"Львівська область","image":"https://map.ugcc.ua/pub/base/8572d8395b6b566.jpg","website":"https://map.ugcc.ua/view/2772-"},"geometry":{"type":"Point","coordinates":[24.35323,49.23219]}},
{"type":"Feature","properties":{"id":2784,"name":"Церква святого Володимира","denomination":"ukrainian_greek_catholic","region":"Львівська область","image":"https://map.ugcc.ua/pub/base/95796bed57bdec8.jpg","website":"https://map.ugcc.ua/view/2784-"},"geometry":{"type":"Point","coordinates":[24.00612,49.3479]}},
{"type":"Feature","properties":{"id":2802,"name":"Церква Преподобного Симеона Стовпника","denomination":"ukrainian_greek_catholic","region":"Львівська область","image":"https://map.ugcc.ua/pub/base/.jpg","website":"https://map.ugcc.ua/view/2802-"},"geometry":{"type":"Point","coordinates":[24.23281,49.28036]}},
{"type":"Feature","properties":{"id":2803,"name":"Церква святого Івана Богослова","denomination":"ukrainian_greek_catholic","region":"Львівська область","image":"https://map.ugcc.ua/pub/base/.jpg","website":"https://map.ugcc.ua/view/2803-"},"geometry":{"type":"Point","coordinates":[23.68569,49.5471]}},
{"type":"Feature","properties":{"id":2805,"name":"Церква Пресвятої Тройці","denomination":"ukrainian_greek_catholic","region":"Львівська область","image":"https://map.ugcc.ua/pub/base/c7fa81f3aa95c53.jpg","website":"https://map.ugcc.ua/view/2805-"},"geometry":{"type":"Point","coordinates":[23.75685,49.70311]}},
{"type":"Feature","properties":{"id":2807,"name":"Церква Різдва святого Івана Хрестителя","denomination":"ukrainian_greek_catholic","region":"Львівська область","image":"https://map.ugcc.ua/pub/base/.jpg","website":"https://map.ugcc.ua/view/2807-"},"geometry":{"type":"Point","coordinates":[23.72007,49.60164]}},
{"type":"Feature","properties":{"id":2813,"name":"Церква Покрови Пресвятої Богородиці","denomination":"ukrainian_greek_catholic","region":"Львівська область","image":"https://map.ugcc.ua/pub/base/bf7077541f386d2.jpg","website":"https://map.ugcc.ua/view/2813-"},"geometry":{"type":"Point","coordinates":[23.64197,49.59857]}},
{"type":"Feature","properties":{"id":2815,"name":"Церква Покрови Пресвятої Богородиці","denomination":"ukrainian_greek_catholic","region":"Львівська область","image":"https://map.ugcc.ua/pub/base/.jpg","website":"https://map.ugcc.ua/view/2815-"},"geometry":{"type":"Point","coordinates":[23.69753,49.70958]}},
{"type":"Feature","properties":{"id":2816,"name":"Церква Преображення Господнього","denomination":"ukrainian_greek_catholic","region":"Львівська область","image":"https://map.ugcc.ua/pub/base/.jpg","website":"https://map.ugcc.ua/view/2816-"},"geometry":{"type":"Point","coordinates":[23.72017,49.69882]}},
{"type":"Feature","properties":{"id":2819,"name":"Церква Покрови Пресвятої Богородиці","denomination":"ukrainian_greek_catholic","region":"Львівська область","image":"https://map.ugcc.ua/pub/base/.jpg","website":"https://map.ugcc.ua/view/2819-"},"geometry":{"type":"Point","coordinates":[23.80055,49.47181]}},
{"type":"Feature","properties":{"id":2825,"name":"Церква святого Івана Золотоустого","denomination":"ukrainian_greek_catholic","region":"Львівська область","image":"https://map.ugcc.ua/pub/base/.jpg","website":"https://map.ugcc.ua/view/2825-"},"geometry":{"type":"Point","coordinates":[24.05527,49.58976]}},
{"type":"Feature","properties":{"id":2826,"name":"Церква Введення в Храм Пресвятої Богородиці","denomination":"ukrainian_greek_catholic","region":"Львівська область","image":"https://map.ugcc.ua/pub/base/1d7af319c5d3776.jpg","website":"https://map.ugcc.ua/view/2826-"},"geometry":{"type":"Point","coordinates":[23.81536,49.58056]}},
{"type":"Feature","properties":{"id":2830,"name":"Церква святого Миколая","denomination":"ukrainian_greek_catholic","region":"Львівська область","image":"https://map.ugcc.ua/pub/base/fdb7570b3667cb3.jpg","website":"https://map.ugcc.ua/view/2830-"},"geometry":{"type":"Point","coordinates":[23.85439,49.54182]}},
{"type":"Feature","properties":{"id":2836,"name":"Церква святої великомучениці Параскевії","denomination":"ukrainian_greek_catholic","region":"Львівська область","image":"https://map.ugcc.ua/pub/base/3ad641f6bf11515.jpg","website":"https://map.ugcc.ua/view/2836-"},"geometry":{"type":"Point","coordinates":[23.89309,49.57176]}},
{"type":"Feature","properties":{"id":2838,"name":"Церква Непорочного Зачаття Пресвятої Богородиці","denomination":"ukrainian_greek_catholic","region":"Львівська область","image":"https://map.ugcc.ua/pub/base/68960a56d9beeb5.jpg","website":"https://map.ugcc.ua/view/2838-"},"geometry":{"type":"Point","coordinates":[24.00855,49.59078]}},
{"type":"Feature","properties":{"id":2841,"name":"Церква святого Миколая","denomination":"ukrainian_greek_catholic","region":"Львівська область","image":"https://map.ugcc.ua/pub/base/0c78b9e64fc8b6a.jpg","website":"https://map.ugcc.ua/view/2841-"},"geometry":{"type":"Point","coordinates":[23.97436,49.52553]}},
{"type":"Feature","properties":{"id":2842,"name":"Церква святого Архистратига Михаїла","denomination":"ukrainian_greek_catholic","region":"Львівська область","image":"https://map.ugcc.ua/pub/base/e71a3e65a9e0faf.jpg","website":"https://map.ugcc.ua/view/2842-"},"geometry":{"type":"Point","coordinates":[23.9841,49.52208]}},
{"type":"Feature","properties":{"id":2843,"name":"Церква Покрови Пресвятої Богородиці","denomination":"ukrainian_greek_catholic","region":"Львівська область","image":"https://map.ugcc.ua/pub/base/d3d05d6dc4d5d8f.jpg","website":"https://map.ugcc.ua/view/2843-"},"geometry":{"type":"Point","coordinates":[23.87007,49.52465]}},
{"type":"Feature","properties":{"id":2844,"name":"Церква святого Миколая","denomination":"ukrainian_greek_catholic","region":"Львівська область","image":"https://map.ugcc.ua/pub/base/c76062b34fe102c.jpg","website":"https://map.ugcc.ua/view/2844-"},"geometry":{"type":"Point","coordinates":[23.8701,49.52465]}},
{"type":"Feature","properties":{"id":2845,"name":"Церква святого архистратига Михаїла","denomination":"ukrainian_greek_catholic","region":"Львівська область","image":"https://map.ugcc.ua/pub/base/fb138bdcb63d032.jpg","website":"https://map.ugcc.ua/view/2845-"},"geometry":{"type":"Point","coordinates":[23.91146,49.45753]}},
{"type":"Feature","properties":{"id":2846,"name":"Церква Воздвиження Чесного Хреста","denomination":"ukrainian_greek_catholic","region":"Львівська область","image":"https://map.ugcc.ua/pub/base/3d65493d71b75aa.jpg","website":"https://map.ugcc.ua/view/2846-"},"geometry":{"type":"Point","coordinates":[23.85272,49.47528]}},
{"type":"Feature","properties":{"id":2847,"name":"Церква святого великомученика Димитрія","denomination":"ukrainian_greek_catholic","region":"Львівська область","image":"https://map.ugcc.ua/pub/base/.jpg","website":"https://map.ugcc.ua/view/2847-"},"geometry":{"type":"Point","coordinates":[23.79539,49.50708]}},
{"type":"Feature","properties":{"id":2850,"name":"Церква святого пророка Іллі","denomination":"ukrainian_greek_catholic","region":"Львівська область","image":"https://map.ugcc.ua/pub/base/7e2386236884714.jpg","website":"https://map.ugcc.ua/view/2850-"},"geometry":{"type":"Point","coordinates":[23.98929,49.57998]}},
{"type":"Feature","properties":{"id":2855,"name":"Церква Покрови Пресвятої Богородиці","denomination":"ukrainian_greek_catholic","region":"Львівська область","image":"https://map.ugcc.ua/pub/base/557fd848eb0552a.jpg","website":"https://map.ugcc.ua/view/2855-"},"geometry":{"type":"Point","coordinates":[23.87105,49.16081]}},
{"type":"Feature","properties":{"id":2856,"name":"Церква Святої Покрови Пречистої Діви Марії","denomination":"ukrainian_greek_catholic","region":"Львівська область","image":"https://map.ugcc.ua/pub/base/75c84ac62e24cc1.jpg","website":"https://map.ugcc.ua/view/2856-"},"geometry":{"type":"Point","coordinates":[23.87105,49.16058]}},
{"type":"Feature","properties":{"id":2857,"name":"Церква святого Димитрія","denomination":"ukrainian_greek_catholic","region":"Львівська область","image":"https://map.ugcc.ua/pub/base/639b61c1aa985d0.jpg","website":"https://map.ugcc.ua/view/2857-"},"geometry":{"type":"Point","coordinates":[23.86007,49.23273]}},
{"type":"Feature","properties":{"id":2864,"name":"Церква архістратига Михаїла","denomination":"ukrainian_greek_catholic","region":"Львівська область","image":"https://map.ugcc.ua/pub/base/.jpg","website":"https://map.ugcc.ua/view/2864-"},"geometry":{"type":"Point","coordinates":[24.16711,49.47343]}},
{"type":"Feature","properties":{"id":2866,"name":"Церква Пресвятої Трійці","denomination":"ukrainian_greek_catholic","region":"Львівська область","image":"https://map.ugcc.ua/pub/base/a69e0c8b7214407.jpg","website":"https://map.ugcc.ua/view/2866-"},"geometry":{"type":"Point","coordinates":[23.97134,49.46965]}},
{"type":"Feature","properties":{"id":2867,"name":"Церква Положення пояса Пресвятої Богородиці","denomination":"ukrainian_greek_catholic","region":"Львівська область","image":"https://map.ugcc.ua/pub/base/.jpg","website":"https://map.ugcc.ua/view/2867-"},"geometry":{"type":"Point","coordinates":[23.98992,49.40079]}},
{"type":"Feature","properties":{"id":2868,"name":"Церква Різдва Христового","denomination":"ukrainian_greek_catholic","region":"Львівська область","image":"https://map.ugcc.ua/pub/base/38a51583d519127.jpg","website":"https://map.ugcc.ua/view/2868-"},"geometry":{"type":"Point","coordinates":[24.15545,49.45724]}},
{"type":"Feature","properties":{"id":2869,"name":"Церква Перенесення мощей святого Миколая","denomination":"ukrainian_greek_catholic","region":"Львівська область","image":"https://map.ugcc.ua/pub/base/3503f8298f95e9c.jpg","website":"https://map.ugcc.ua/view/2869-"},"geometry":{"type":"Point","coordinates":[24.15533,49.44329]}},
{"type":"Feature","properties":{"id":2871,"name":"Церква Різдва Пресвятої Богородиці","denomination":"ukrainian_greek_catholic","region":"Львівська область","image":"https://map.ugcc.ua/pub/base/.jpg","website":"https://map.ugcc.ua/view/2871-"},"geometry":{"type":"Point","coordinates":[24.03319,49.46083]}},
{"type":"Feature","properties":{"id":2876,"name":"Церква Вознесіння Господнього","denomination":"ukrainian_greek_catholic","region":"Львівська область","image":"https://map.ugcc.ua/pub/base/943a110fb6fc752.jpg","website":"https://map.ugcc.ua/view/2876-"},"geometry":{"type":"Point","coordinates":[24.42264,49.53067]}},
{"type":"Feature","properties":{"id":2882,"name":"Церква святої великомучениці Варвари","denomination":"ukrainian_greek_catholic","region":"Львівська область","image":"https://map.ugcc.ua/pub/base/.jpg","website":"https://map.ugcc.ua/view/2882-"},"geometry":{"type":"Point","coordinates":[24.27326,49.55768]}},
{"type":"Feature","properties":{"id":2885,"name":"Церква Успення Пресвятої Богородиці","denomination":"ukrainian_greek_catholic","region":"Львівська область","image":"https://map.ugcc.ua/pub/base/f88f8e44e9a15a3.jpg","website":"https://map.ugcc.ua/view/2885-"},"geometry":{"type":"Point","coordinates":[24.40111,49.51978]}},
{"type":"Feature","properties":{"id":2895,"name":"Церква Преображення Господнього","denomination":"ukrainian_greek_catholic","region":"Львівська область","image":"https://map.ugcc.ua/pub/base/a66ae717c75f8c8.jpg","website":"https://map.ugcc.ua/view/2895-"},"geometry":{"type":"Point","coordinates":[24.53476,49.59957]}},
{"type":"Feature","properties":{"id":2896,"name":"Церква Покрови Пресвятої Богородиці","denomination":"ukrainian_greek_catholic","region":"Львівська область","image":"https://map.ugcc.ua/pub/base/.jpg","website":"https://map.ugcc.ua/view/2896-"},"geometry":{"type":"Point","coordinates":[24.51497,49.58828]}},
{"type":"Feature","properties":{"id":2921,"name":"Церква Пресвятої Трійці","denomination":"ukrainian_greek_catholic","region":"Львівська область","image":"https://map.ugcc.ua/pub/base/172c12a8f7a30b0.jpg","website":"https://map.ugcc.ua/view/2921-"},"geometry":{"type":"Point","coordinates":[24.7756,49.6587]}},
{"type":"Feature","properties":{"id":2924,"name":"Церква Різдва Пресвятої Богородиці","denomination":"ukrainian_greek_catholic","region":"Львівська область","image":"https://map.ugcc.ua/pub/base/f71fad19e691497.jpg","website":"https://map.ugcc.ua/view/2924-"},"geometry":{"type":"Point","coordinates":[24.82631,49.61654]}},
{"type":"Feature","properties":{"id":2927,"name":"Церква святого Дмитрія","denomination":"ukrainian_greek_catholic","region":"Львівська область","image":"https://map.ugcc.ua/pub/base/.jpg","website":"https://map.ugcc.ua/view/2927-"},"geometry":{"type":"Point","coordinates":[24.65465,49.65938]}},
{"type":"Feature","properties":{"id":2930,"name":"Церква Різдва Пресвятої Діви Марії","denomination":"ukrainian_greek_catholic","region":"Львівська область","image":"https://map.ugcc.ua/pub/base/d8bfdc6ec7d0c1e.jpg","website":"https://map.ugcc.ua/view/2930-"},"geometry":{"type":"Point","coordinates":[24.31552,49.38337]}},
{"type":"Feature","properties":{"id":2931,"name":"Церква святих Володимира і Ольги","denomination":"ukrainian_greek_catholic","region":"Львівська область","image":"https://map.ugcc.ua/pub/base/f1fe66f72b561c9.jpg","website":"https://map.ugcc.ua/view/2931-"},"geometry":{"type":"Point","coordinates":[24.29763,49.40727]}},
{"type":"Feature","properties":{"id":2932,"name":"Церква Успення Пресвятої Богородиці","denomination":"ukrainian_greek_catholic","region":"Львівська область","image":"https://map.ugcc.ua/pub/base/55a48cc21aa796f.jpg","website":"https://map.ugcc.ua/view/2932-"},"geometry":{"type":"Point","coordinates":[24.23363,49.52996]}},
{"type":"Feature","properties":{"id":2935,"name":"Церква Успіння Пресвятої Богородиці","denomination":"ukrainian_greek_catholic","region":"Львівська область","image":"https://map.ugcc.ua/pub/base/afd8422d740b553.jpg","website":"https://map.ugcc.ua/view/2935-"},"geometry":{"type":"Point","coordinates":[24.25668,49.45654]}},
{"type":"Feature","properties":{"id":2938,"name":"Церква Покрови Пресвятої Богородиці","denomination":"ukrainian_greek_catholic","region":"Львівська область","image":"https://map.ugcc.ua/pub/base/592602d39428fdc.jpg","website":"https://map.ugcc.ua/view/2938-"},"geometry":{"type":"Point","coordinates":[24.34553,49.3976]}},
{"type":"Feature","properties":{"id":2947,"name":"Церква Воздвиження Чесного Хреста","denomination":"ukrainian_greek_catholic","region":"Львівська область","image":"https://map.ugcc.ua/pub/base/.jpg","website":"https://map.ugcc.ua/view/2947-"},"geometry":{"type":"Point","coordinates":[24.31889,49.43916]}},
{"type":"Feature","properties":{"id":2955,"name":"Церква святого архістратига Михаїла","denomination":"ukrainian_greek_catholic","region":"Львівська область","image":"https://map.ugcc.ua/pub/base/dce786e4005808b.jpg","website":"https://map.ugcc.ua/view/2955-"},"geometry":{"type":"Point","coordinates":[23.49933,49.86227]}},
{"type":"Feature","properties":{"id":2959,"name":"Церква Вознесіння Господнього","denomination":"ukrainian_greek_catholic","region":"Львівська область","image":"https://map.ugcc.ua/pub/base/43ef1fbe220709f.jpg","website":"https://map.ugcc.ua/view/2959-"},"geometry":{"type":"Point","coordinates":[23.62166,50.22234]}},
{"type":"Feature","properties":{"id":2975,"name":"Церква Успіння Пресвятої Богородиці","denomination":"ukrainian_greek_catholic","region":"Львівська область","image":"https://map.ugcc.ua/pub/base/c3d054bc0555380.jpg","website":"https://map.ugcc.ua/view/2975-"},"geometry":{"type":"Point","coordinates":[24.68604,50.05977]}},
{"type":"Feature","properties":{"id":2984,"name":"Церква великомученика Пантелеймона","denomination":"ukrainian_greek_catholic","region":"Львівська область","image":"https://map.ugcc.ua/pub/base/702ab258220a1d4.jpg","website":"https://map.ugcc.ua/view/2984-"},"geometry":{"type":"Point","coordinates":[23.51167,49.03361]}},
{"type":"Feature","properties":{"id":2985,"name":"Церква Покрови Пресвятої Богородиці","denomination":"ukrainian_greek_catholic","region":"Львівська область","image":"https://map.ugcc.ua/pub/base/4b7efeeb5663239.jpg","website":"https://map.ugcc.ua/view/2985-"},"geometry":{"type":"Point","coordinates":[23.54214,49.51568]}},
{"type":"Feature","properties":{"id":2986,"name":"Церква святого Юрія","denomination":"ukrainian_greek_catholic","region":"Львівська область","image":"https://map.ugcc.ua/pub/base/dcd18c2eadae303.jpg","website":"https://map.ugcc.ua/view/2986-"},"geometry":{"type":"Point","coordinates":[23.62173,50.23529]}},
{"type":"Feature","properties":{"id":2987,"name":"Церква Різдва Пресвятої Богородиці","denomination":"ukrainian_greek_catholic","region":"Львівська область","image":"https://map.ugcc.ua/pub/base/117f6d2ce4990cd.jpg","website":"https://map.ugcc.ua/view/2987-"},"geometry":{"type":"Point","coordinates":[23.45,49.51083]}},
{"type":"Feature","properties":{"id":2988,"name":"Церква Зіслання Святого Духа","denomination":"ukrainian_greek_catholic","region":"Львівська область","image":"https://map.ugcc.ua/pub/base/bd388da6a3228a6.jpg","website":"https://map.ugcc.ua/view/2988-"},"geometry":{"type":"Point","coordinates":[23.13694,49.5675]}},
{"type":"Feature","properties":{"id":2995,"name":"Церква Пресвятої Євхаристії","denomination":"ukrainian_greek_catholic","region":"Львівська область","image":"https://map.ugcc.ua/pub/base/e8b9bb545e1f68f.jpg","website":"https://map.ugcc.ua/view/2995-"},"geometry":{"type":"Point","coordinates":[24.79201,50.01396]}},
{"type":"Feature","properties":{"id":3002,"name":"Церква святого Миколи","denomination":"ukrainian_greek_catholic","region":"Львівська область","image":"https://map.ugcc.ua/pub/base/.jpg","website":"https://map.ugcc.ua/view/3002-"},"geometry":{"type":"Point","coordinates":[24.88661,50.15237]}},
{"type":"Feature","properties":{"id":3003,"name":"Церква святого архістратига Михаїла","denomination":"ukrainian_greek_catholic","region":"Львівська область","image":"https://map.ugcc.ua/pub/base/689633c6c13ad17.jpg","website":"https://map.ugcc.ua/view/3003-"},"geometry":{"type":"Point","coordinates":[24.89863,50.17043]}},
{"type":"Feature","properties":{"id":3004,"name":"Церква святих Петра і Павла","denomination":"ukrainian_greek_catholic","region":"Львівська область","image":"https://map.ugcc.ua/pub/base/.jpg","website":"https://map.ugcc.ua/view/3004-"},"geometry":{"type":"Point","coordinates":[24.93668,50.14706]}},
{"type":"Feature","properties":{"id":3007,"name":"Церква святого Юрія","denomination":"ukrainian_greek_catholic","region":"Львівська область","image":"https://map.ugcc.ua/pub/base/ff7baf21904f4e7.jpg","website":"https://map.ugcc.ua/view/3007-"},"geometry":{"type":"Point","coordinates":[24.60956,49.95585]}},
{"type":"Feature","properties":{"id":3010,"name":"Церква Успіння Пресвятої Богородиці","denomination":"ukrainian_greek_catholic","region":"Львівська область","image":"https://map.ugcc.ua/pub/base/f036fb139d8b653.jpg","website":"https://map.ugcc.ua/view/3010-"},"geometry":{"type":"Point","coordinates":[24.5434,50.00332]}},
{"type":"Feature","properties":{"id":3014,"name":"Церква святої Трійці","denomination":"ukrainian_greek_catholic","region":"Львівська область","image":"https://map.ugcc.ua/pub/base/6020e83768189a6.jpg","website":"https://map.ugcc.ua/view/3014-"},"geometry":{"type":"Point","coordinates":[23.54754,50.20631]}},
{"type":"Feature","properties":{"id":3016,"name":"Церква Успіння Пресвятої Богородиці","denomination":"ukrainian_greek_catholic","region":"Львівська область","image":"https://map.ugcc.ua/pub/base/ac282d51786ca06.jpg","website":"https://map.ugcc.ua/view/3016-"},"geometry":{"type":"Point","coordinates":[23.64887,50.27866]}},
{"type":"Feature","properties":{"id":3022,"name":"Церква Різдва Пресвятої Богородиці","denomination":"ukrainian_greek_catholic","region":"Львівська область","image":"https://map.ugcc.ua/pub/base/e4d25a55c1f0e4a.jpg","website":"https://map.ugcc.ua/view/3022-"},"geometry":{"type":"Point","coordinates":[23.76449,50.13907]}},
{"type":"Feature","properties":{"id":3024,"name":"Церква Преображення Господнього","denomination":"ukrainian_greek_catholic","region":"Львівська область","image":"https://map.ugcc.ua/pub/base/ce0545f6eb6c299.jpg","website":"https://map.ugcc.ua/view/3024-"},"geometry":{"type":"Point","coordinates":[24.55733,49.90905]}},
{"type":"Feature","properties":{"id":3025,"name":"Церква Покрови Пресвятої Богородиці","denomination":"ukrainian_greek_catholic","region":"Львівська область","image":"https://map.ugcc.ua/pub/base/a2543c16279b623.jpg","website":"https://map.ugcc.ua/view/3025-"},"geometry":{"type":"Point","coordinates":[24.50747,49.98186]}},
{"type":"Feature","properties":{"id":3028,"name":"Церква Різдва Пресвятої Богородиці","denomination":"ukrainian_greek_catholic","region":"Львівська область","image":"https://map.ugcc.ua/pub/base/5d719b8c154e3e4.jpg","website":"https://map.ugcc.ua/view/3028-"},"geometry":{"type":"Point","coordinates":[23.40787,49.29996]}},
{"type":"Feature","properties":{"id":3032,"name":"Церква Зіслання Святого Духа","denomination":"ukrainian_greek_catholic","region":"Львівська область","image":"https://map.ugcc.ua/pub/base/72492f57ba61e81.jpg","website":"https://map.ugcc.ua/view/3032-"},"geometry":{"type":"Point","coordinates":[23.55085,50.2086]}},
{"type":"Feature","properties":{"id":3039,"name":"Студентський храм Рівноапостольного князя Володимира","denomination":"ukrainian_greek_catholic","region":"Львівська область","image":"https://map.ugcc.ua/pub/base/c4d8f8541f6ed41.jpg","website":"https://map.ugcc.ua/view/3039-"},"geometry":{"type":"Point","coordinates":[24.00512,49.82654]}},
{"type":"Feature","properties":{"id":3045,"name":"Церква Різдва Пресвятої Богородиці","denomination":"ukrainian_greek_catholic","region":"Львівська область","image":"https://map.ugcc.ua/pub/base/7cdd6400c30f710.jpg","website":"https://map.ugcc.ua/view/3045-"},"geometry":{"type":"Point","coordinates":[24.35141,49.91302]}},
{"type":"Feature","properties":{"id":3047,"name":"Церква Преображення ГНІХ","denomination":"ukrainian_greek_catholic","region":"Львівська область","image":"https://map.ugcc.ua/pub/base/4b5e5c09a56acaa.jpg","website":"https://map.ugcc.ua/view/3047-"},"geometry":{"type":"Point","coordinates":[24.27956,49.98858]}},
{"type":"Feature","properties":{"id":3049,"name":"Церква Різдва Пресвятої Богородиці","denomination":"ukrainian_greek_catholic","region":"Львівська область","image":"https://map.ugcc.ua/pub/base/d3cd840efbdb130.jpg","website":"https://map.ugcc.ua/view/3049-"},"geometry":{"type":"Point","coordinates":[24.39497,49.95756]}},
{"type":"Feature","properties":{"id":3052,"name":"Церква Пресвятої Богородиці Владичиці України","denomination":"ukrainian_greek_catholic","region":"Львівська область","image":"https://map.ugcc.ua/pub/base/216751bb6a2821b.jpg","website":"https://map.ugcc.ua/view/3052-"},"geometry":{"type":"Point","coordinates":[24.2406,50.38891]}},
{"type":"Feature","properties":{"id":3059,"name":"Церква Преображення Господнього","denomination":"ukrainian_greek_catholic","region":"Львівська область","image":"https://map.ugcc.ua/pub/base/992b8030da0b0fd.jpg","website":"https://map.ugcc.ua/view/3059-"},"geometry":{"type":"Point","coordinates":[23.45248,49.28207]}},
{"type":"Feature","properties":{"id":3078,"name":"Церква Успіння Пресвятої Богородиці","denomination":"ukrainian_greek_catholic","region":"Львівська область","image":"https://map.ugcc.ua/pub/base/6e034d4e561b5a0.jpg","website":"https://map.ugcc.ua/view/3078-"},"geometry":{"type":"Point","coordinates":[23.71559,50.24201]}},