{
"type": "FeatureCollection",
"errorDescr": "Church was not found",
"features": [
{"type":"Feature","properties":{"id":385,"name":"Храм священомученика Йосафата","denomination":"ukrainian_greek_catholic","region":"Автономна Республіка Крим","image":"https://map.ugcc.ua/pub/base/50c2f57e0d4489d.jpg","website":"https://map.ugcc.ua/view/385-"},"geometry":{"type":"Point","coordinates":[34.08818,44.97025]}},
{"type":"Feature","properties":{"id":530,"name":"Катедральний Собор Різдва Пресвятої Богородиці","denomination":"ukrainian_greek_catholic","region":"Волинська область","image":"https://map.ugcc.ua/pub/base/9ef726db93edbd8.jpg","website":"https://map.ugcc.ua/view/530-"},"geometry":{"type":"Point","coordinates":[25.29972,50.74309]}},
{"type":"Feature","properties":{"id":24,"name":"Церква Успіння Пресвятої Богородиці","denomination":"ukrainian_greek_catholic","region":"Івано-Франківська область","image":"https://map.ugcc.ua/pub/base/ce1a4b26e25f90e.jpg","website":"https://map.ugcc.ua/view/24-"},"geometry":{"type":"Point","coordinates":[24.69736,49.08548]}},
{"type":"Feature","properties":{"id":51,"name":"Церква Пресвятої Трійці","denomination":"ukrainian_greek_catholic","region":"Івано-Франківська область","image":"https://map.ugcc.ua/pub/base/97a0057eeb7fbdf.jpg","website":"https://map.ugcc.ua/view/51-"},"geometry":{"type":"Point","coordinates":[24.81342,48.32851]}},
{"type":"Feature","properties":{"id":851,"name":"Церква святого Івана Хрестителя","denomination":"ukrainian_greek_catholic","region":"Івано-Франківська область","image":"https://map.ugcc.ua/pub/base/454caf58d00cbf9.jpg","website":"https://map.ugcc.ua/view/851-"},"geometry":{"type":"Point","coordinates":[24.73281,48.90481]}},
{"type":"Feature","properties":{"id":1159,"name":"Церква Різдва Пречистої Діви Марії","denomination":"ukrainian_greek_catholic","region":"Івано-Франківська область","image":"https://map.ugcc.ua/pub/base/968cad417b934de.jpg","website":"https://map.ugcc.ua/view/1159-"},"geometry":{"type":"Point","coordinates":[24.53496,49.19191]}},
{"type":"Feature","properties":{"id":1748,"name":"Церква Святого Архистратига Михаїла","denomination":"ukrainian_greek_catholic","region":"Івано-Франківська область","image":"https://map.ugcc.ua/pub/base/6a25f489c9cd19e.jpg","website":"https://map.ugcc.ua/view/1748-"},"geometry":{"type":"Point","coordinates":[24.36983,49.02564]}},
{"type":"Feature","properties":{"id":1971,"name":"Церква Святого Архистратига Михаїла","denomination":"ukrainian_greek_catholic","region":"Івано-Франківська область","image":"https://map.ugcc.ua/pub/base/10b24242a5f8b17.jpg","website":"https://map.ugcc.ua/view/1971-"},"geometry":{"type":"Point","coordinates":[24.88059,48.51619]}},
{"type":"Feature","properties":{"id":2527,"name":"Церква святого великомученика Димитрія Мироточця","denomination":"ukrainian_greek_catholic","region":"Івано-Франківська область","image":"https://map.ugcc.ua/pub/base/d675e55e72b5b55.jpg","website":"https://map.ugcc.ua/view/2527-"},"geometry":{"type":"Point","coordinates":[24.6117,48.56542]}},
{"type":"Feature","properties":{"id":2633,"name":"Церква Пресвятої Трійці","denomination":"ukrainian_greek_catholic","region":"Івано-Франківська область","image":"https://map.ugcc.ua/pub/base/807d4a64b398840.jpg","website":"https://map.ugcc.ua/view/2633-"},"geometry":{"type":"Point","coordinates":[24.69129,48.90529]}},
{"type":"Feature","properties":{"id":3172,"name":"Церква Пресвятої Трійці","denomination":"ukrainian_greek_catholic","region":"Івано-Франківська область","image":"https://map.ugcc.ua/pub/base/1ef88563688bc5f.jpg","website":"https://map.ugcc.ua/view/3172-"},"geometry":{"type":"Point","coordinates":[24.47941,48.57664]}},
{"type":"Feature","properties":{"id":938,"name":"Каплиця Царя Христа","denomination":"ukrainian_greek_catholic","region":"Луганська область","image":"https://map.ugcc.ua/pub/base/.jpg","website":"https://map.ugcc.ua/view/938-"},"geometry":{"type":"Point","coordinates":[38.49174,48.93693]}},
{"type":"Feature","properties":{"id":65,"name":"Церква Святого Юрія Переможця","denomination":"ukrainian_greek_catholic","region":"Львівська область","image":"https://map.ugcc.ua/pub/base/573837834f74c0d.jpg","website":"https://map.ugcc.ua/view/65-"},"geometry":{"type":"Point","coordinates":[23.38897,49.94389]}},
{"type":"Feature","properties":{"id":89,"name":"Церква Успіння Пресвятої Богородиці","denomination":"ukrainian_greek_catholic","region":"Львівська область","image":"https://map.ugcc.ua/pub/base/3171eef6572f3fe.jpg","website":"https://map.ugcc.ua/view/89-"},"geometry":{"type":"Point","coordinates":[23.9406,49.52798]}},
{"type":"Feature","properties":{"id":180,"name":"Церква Святого Юра","denomination":"ukrainian_greek_catholic","region":"Львівська область","image":"https://map.ugcc.ua/pub/base/7ea1feabd60e1c8.jpg","website":"https://map.ugcc.ua/view/180-"},"geometry":{"type":"Point","coordinates":[25.14344,50.08558]}},
{"type":"Feature","properties":{"id":200,"name":"Церква Різдва Пресвятої Богородиці","denomination":"ukrainian_greek_catholic","region":"Львівська область","image":"https://map.ugcc.ua/pub/base/.jpg","website":"https://map.ugcc.ua/view/200-"},"geometry":{"type":"Point","coordinates":[24.94836,50.06356]}},
{"type":"Feature","properties":{"id":266,"name":"Церква Воздвиження Чесного Хреста","denomination":"ukrainian_greek_catholic","region":"Львівська область","image":"https://map.ugcc.ua/pub/base/55973a352ab7830.jpg","website":"https://map.ugcc.ua/view/266-"},"geometry":{"type":"Point","coordinates":[23.89206,49.83184]}},
{"type":"Feature","properties":{"id":266,"name":"Церква Воздвиження Чесного Хреста","denomination":"ukrainian_greek_catholic","region":"Львівська область","image":"https://map.ugcc.ua/pub/base/55973a352ab7830.jpg","website":"https://map.ugcc.ua/view/266-"},"geometry":{"type":"Point","coordinates":[23.89206,49.83184]}},
{"type":"Feature","properties":{"id":279,"name":"Церква Покрову Пресвятої Богородиці","denomination":"ukrainian_greek_catholic","region":"Львівська область","image":"https://map.ugcc.ua/pub/base/76ee4d8b749f6ca.jpg","website":"https://map.ugcc.ua/view/279-"},"geometry":{"type":"Point","coordinates":[24.06718,49.83636]}},
{"type":"Feature","properties":{"id":296,"name":"Церква Вознесіння ГНІХ","denomination":"ukrainian_greek_catholic","region":"Львівська область","image":"https://map.ugcc.ua/pub/base/752b560e4972538.jpg","website":"https://map.ugcc.ua/view/296-"},"geometry":{"type":"Point","coordinates":[24.00802,49.81042]}},
{"type":"Feature","properties":{"id":315,"name":"Церква Пресвятої Тройці","denomination":"ukrainian_greek_catholic","region":"Львівська область","image":"https://map.ugcc.ua/pub/base/5e34a01d63bda09.jpg","website":"https://map.ugcc.ua/view/315-"},"geometry":{"type":"Point","coordinates":[24.27742,49.86344]}},
{"type":"Feature","properties":{"id":503,"name":"Церква Введення в храм Пресвятої Богородиці","denomination":"ukrainian_greek_catholic","region":"Львівська область","image":"https://map.ugcc.ua/pub/base/.jpg","website":"https://map.ugcc.ua/view/503-"},"geometry":{"type":"Point","coordinates":[24.07272,49.71222]}},
{"type":"Feature","properties":{"id":504,"name":"Церква Покрову Пресвятої Богородиці","denomination":"ukrainian_greek_catholic","region":"Львівська область","image":"https://map.ugcc.ua/pub/base/df1b49f298d84db.jpg","website":"https://map.ugcc.ua/view/504-"},"geometry":{"type":"Point","coordinates":[24.48591,49.75055]}},
{"type":"Feature","properties":{"id":507,"name":"Церква апостолів Петра і Павла","denomination":"ukrainian_greek_catholic","region":"Львівська область","image":"https://map.ugcc.ua/pub/base/.jpg","website":"https://map.ugcc.ua/view/507-"},"geometry":{"type":"Point","coordinates":[24.47744,49.74101]}},
{"type":"Feature","properties":{"id":667,"name":"Церква Архистратига Михаїла","denomination":"ukrainian_greek_catholic","region":"Львівська область","image":"https://map.ugcc.ua/pub/base/0885200ed32d9a8.jpg","website":"https://map.ugcc.ua/view/667-"},"geometry":{"type":"Point","coordinates":[24.51203,49.72786]}},
{"type":"Feature","properties":{"id":827,"name":"Церква святого Архистратига Михаїла","denomination":"ukrainian_greek_catholic","region":"Львівська область","image":"https://map.ugcc.ua/pub/base/2f422f9e027878a.jpg","website":"https://map.ugcc.ua/view/827-"},"geometry":{"type":"Point","coordinates":[24.59787,49.53324]}},
{"type":"Feature","properties":{"id":1096,"name":"Церква святого Духа","denomination":"ukrainian_greek_catholic","region":"Львівська область","image":"https://map.ugcc.ua/pub/base/cc1a0065ee8a7e4.jpg","website":"https://map.ugcc.ua/view/1096-"},"geometry":{"type":"Point","coordinates":[24.26324,50.46276]}},
{"type":"Feature","properties":{"id":1145,"name":"Церква святих безсрібників Косми і Дам'яна","denomination":"ukrainian_greek_catholic","region":"Львівська область","image":"https://map.ugcc.ua/pub/base/bf58c2782c89e2f.jpg","website":"https://map.ugcc.ua/view/1145-"},"geometry":{"type":"Point","coordinates":[24.05753,50.42072]}},
{"type":"Feature","properties":{"id":1494,"name":"Церква Архангела Михаїла","denomination":"ukrainian_greek_catholic","region":"Львівська область","image":"https://map.ugcc.ua/pub/base/46c83d7f54f45bc.jpg","website":"https://map.ugcc.ua/view/1494-"},"geometry":{"type":"Point","coordinates":[23.65757,49.13557]}},
{"type":"Feature","properties":{"id":1496,"name":"Церква Св. вмуч. Євстахія","denomination":"ukrainian_greek_catholic","region":"Львівська область","image":"https://map.ugcc.ua/pub/base/8df96cdb809c324.jpg","website":"https://map.ugcc.ua/view/1496-"},"geometry":{"type":"Point","coordinates":[23.6869,49.1479]}},
{"type":"Feature","properties":{"id":1882,"name":"Церква святих Безсрібників Косми і Дам’яна","denomination":"ukrainian_greek_catholic","region":"Львівська область","image":"https://map.ugcc.ua/pub/base/c6693911bb35762.jpg","website":"https://map.ugcc.ua/view/1882-"},"geometry":{"type":"Point","coordinates":[24.43086,49.82075]}},
{"type":"Feature","properties":{"id":1904,"name":"Церква Успіння Пресвятої Богородиці","denomination":"ukrainian_greek_catholic","region":"Львівська область","image":"https://map.ugcc.ua/pub/base/b315c0e58810db0.jpg","website":"https://map.ugcc.ua/view/1904-"},"geometry":{"type":"Point","coordinates":[25.09656,49.87115]}},
{"type":"Feature","properties":{"id":1912,"name":"Церква Вознесіння ГНІХ","denomination":"ukrainian_greek_catholic","region":"Львівська область","image":"https://map.ugcc.ua/pub/base/bd1cfc456ef5b1c.jpg","website":"https://map.ugcc.ua/view/1912-"},"geometry":{"type":"Point","coordinates":[24.87507,49.80681]}},
{"type":"Feature","properties":{"id":1915,"name":"Церква Різдва Пресвятої Богородиці","denomination":"ukrainian_greek_catholic","region":"Львівська область","image":"https://map.ugcc.ua/pub/base/55c3c43c6227ef8.jpg","website":"https://map.ugcc.ua/view/1915-"},"geometry":{"type":"Point","coordinates":[24.91133,49.79727]}},
{"type":"Feature","properties":{"id":1922,"name":"Церква святих апостолів Петра і Павла","denomination":"ukrainian_greek_catholic","region":"Львівська область","image":"https://map.ugcc.ua/pub/base/.jpg","website":"https://map.ugcc.ua/view/1922-"},"geometry":{"type":"Point","coordinates":[25.01993,49.82914]}},
{"type":"Feature","properties":{"id":1926,"name":"Церква Різдва Пресвятої Богородиці","denomination":"ukrainian_greek_catholic","region":"Львівська область","image":"https://map.ugcc.ua/pub/base/.jpg","website":"https://map.ugcc.ua/view/1926-"},"geometry":{"type":"Point","coordinates":[24.83078,49.85067]}},
{"type":"Feature","properties":{"id":1934,"name":"Церква святої Параскевії","denomination":"ukrainian_greek_catholic","region":"Львівська область","image":"https://map.ugcc.ua/pub/base/a6f41a01cdc7f80.jpg","website":"https://map.ugcc.ua/view/1934-"},"geometry":{"type":"Point","coordinates":[23.26141,49.89252]}},
{"type":"Feature","properties":{"id":1937,"name":"Церква преподобного Онуфрія Великого","denomination":"ukrainian_greek_catholic","region":"Львівська область","image":"https://map.ugcc.ua/pub/base/18820b56773fde8.jpg","website":"https://map.ugcc.ua/view/1937-"},"geometry":{"type":"Point","coordinates":[23.12155,49.93992]}},
{"type":"Feature","properties":{"id":1945,"name":"Церква святого Миколая","denomination":"ukrainian_greek_catholic","region":"Львівська область","image":"https://map.ugcc.ua/pub/base/29cf1a7dd505cb9.jpg","website":"https://map.ugcc.ua/view/1945-"},"geometry":{"type":"Point","coordinates":[23.16077,49.96069]}},
{"type":"Feature","properties":{"id":1958,"name":"Церква Різдва св. Івана Хрестителя","denomination":"ukrainian_greek_catholic","region":"Львівська область","image":"https://map.ugcc.ua/pub/base/.jpg","website":"https://map.ugcc.ua/view/1958-"},"geometry":{"type":"Point","coordinates":[23.2843,49.87677]}},
{"type":"Feature","properties":{"id":2160,"name":"Церква Покрови Пресвятої Богородиці","denomination":"ukrainian_greek_catholic","region":"Львівська область","image":"https://map.ugcc.ua/pub/base/fa3de2a662e1677.jpg","website":"https://map.ugcc.ua/view/2160-"},"geometry":{"type":"Point","coordinates":[23.67508,49.7642]}},
{"type":"Feature","properties":{"id":2181,"name":"Церква святого апостола Филипа","denomination":"ukrainian_greek_catholic","region":"Львівська область","image":"https://map.ugcc.ua/pub/base/.jpg","website":"https://map.ugcc.ua/view/2181-"},"geometry":{"type":"Point","coordinates":[23.60185,49.67729]}},
{"type":"Feature","properties":{"id":2562,"name":"Церква Благовіщення Пресвятої Богородиці у Патріаршому Домі","denomination":"ukrainian_greek_catholic","region":"Львівська область","image":"https://map.ugcc.ua/pub/base/9d1a3707d665920.jpg","website":"https://map.ugcc.ua/view/2562-"},"geometry":{"type":"Point","coordinates":[24.03622,49.80372]}},
{"type":"Feature","properties":{"id":2580,"name":"Церква Покрови Пресвятої Богородиці","denomination":"ukrainian_greek_catholic","region":"Львівська область","image":"https://map.ugcc.ua/pub/base/9de56f3017fb706.jpg","website":"https://map.ugcc.ua/view/2580-"},"geometry":{"type":"Point","coordinates":[23.73312,49.84116]}},
{"type":"Feature","properties":{"id":2772,"name":"Церква Успіння Пресвятої Богородиці","denomination":"ukrainian_greek_catholic","region":"Львівська область","image":"https://map.ugcc.ua/pub/base/8572d8395b6b566.jpg","website":"https://map.ugcc.ua/view/2772-"},"geometry":{"type":"Point","coordinates":[24.35323,49.23219]}},
{"type":"Feature","properties":{"id":2896,"name":"Церква Покрови Пресвятої Богородиці","denomination":"ukrainian_greek_catholic","region":"Львівська область","image":"https://map.ugcc.ua/pub/base/.jpg","website":"https://map.ugcc.ua/view/2896-"},"geometry":{"type":"Point","coordinates":[24.51497,49.58828]}},
{"type":"Feature","properties":{"id":2932,"name":"Церква Успення Пресвятої Богородиці","denomination":"ukrainian_greek_catholic","region":"Львівська область","image":"https://map.ugcc.ua/pub/base/55a48cc21aa796f.jpg","website":"https://map.ugcc.ua/view/2932-"},"geometry":{"type":"Point","coordinates":[24.23363,49.52996]}},
{"type":"Feature","properties":{"id":2935,"name":"Церква Успіння Пресвятої Богородиці","denomination":"ukrainian_greek_catholic","region":"Львівська область","image":"https://map.ugcc.ua/pub/base/afd8422d740b553.jpg","website":"https://map.ugcc.ua/view/2935-"},"geometry":{"type":"Point","coordinates":[24.25668,49.45654]}},
{"type":"Feature","properties":{"id":2947,"name":"Церква Воздвиження Чесного Хреста","denomination":"ukrainian_greek_catholic","region":"Львівська область","image":"https://map.ugcc.ua/pub/base/.jpg","website":"https://map.ugcc.ua/view/2947-"},"geometry":{"type":"Point","coordinates":[24.31889,49.43916]}},
{"type":"Feature","properties":{"id":2984,"name":"Церква великомученика Пантелеймона","denomination":"ukrainian_greek_catholic","region":"Львівська область","image":"https://map.ugcc.ua/pub/base/702ab258220a1d4.jpg","website":"https://map.ugcc.ua/view/2984-"},"geometry":{"type":"Point","coordinates":[23.51167,49.03361]}},
{"type":"Feature","properties":{"id":2988,"name":"Церква Зіслання Святого Духа","denomination":"ukrainian_greek_catholic","region":"Львівська область","image":"https://map.ugcc.ua/pub/base/bd388da6a3228a6.jpg","website":"https://map.ugcc.ua/view/2988-"},"geometry":{"type":"Point","coordinates":[23.13694,49.5675]}},
{"type":"Feature","properties":{"id":3117,"name":"Церква святих апостолів Петра і Павла","denomination":"ukrainian_greek_catholic","region":"Львівська область","image":"https://map.ugcc.ua/pub/base/.jpg","website":"https://map.ugcc.ua/view/3117-"},"geometry":{"type":"Point","coordinates":[25.08024,49.78983]}},
{"type":"Feature","properties":{"id":3121,"name":"Церква святого архістратига Михаїла","denomination":"ukrainian_greek_catholic","region":"Львівська область","image":"https://map.ugcc.ua/pub/base/6fa87649c54eea6.jpg","website":"https://map.ugcc.ua/view/3121-"},"geometry":{"type":"Point","coordinates":[25.0551,49.76366]}},
{"type":"Feature","properties":{"id":3129,"name":"Церква Успіння Пресвятої Богородиці","denomination":"ukrainian_greek_catholic","region":"Львівська область","image":"https://map.ugcc.ua/pub/base/28ee3f4176471d3.jpg","website":"https://map.ugcc.ua/view/3129-"},"geometry":{"type":"Point","coordinates":[24.95923,49.68138]}},
{"type":"Feature","properties":{"id":3199,"name":"Церква святих безсрібників Косми і Дам’яна","denomination":"ukrainian_greek_catholic","region":"Львівська область","image":"https://map.ugcc.ua/pub/base/0c684d984e00567.jpg","website":"https://map.ugcc.ua/view/3199-"},"geometry":{"type":"Point","coordinates":[24.09746,49.70471]}},
{"type":"Feature","properties":{"id":3211,"name":"Церква Різдва Пресвятої Богородиці","denomination":"ukrainian_greek_catholic","region":"Львівська область","image":"https://map.ugcc.ua/pub/base/17f8f102eed5dc0.jpg","website":"https://map.ugcc.ua/view/3211-"},"geometry":{"type":"Point","coordinates":[23.81533,49.86586]}},
{"type":"Feature","properties":{"id":3222,"name":"Церква святого Юрія","denomination":"ukrainian_greek_catholic","region":"Львівська область","image":"https://map.ugcc.ua/pub/base/db415f0c444bd2e.jpg","website":"https://map.ugcc.ua/view/3222-"},"geometry":{"type":"Point","coordinates":[23.56516,49.92645]}},
{"type":"Feature","properties":{"id":3253,"name":"Церква Івана Богослова","denomination":"ukrainian_greek_catholic","region":"Львівська область","image":"https://map.ugcc.ua/pub/base/71b2e0e8f0844be.jpg","website":"https://map.ugcc.ua/view/3253-"},"geometry":{"type":"Point","coordinates":[23.39335,48.89081]}},
{"type":"Feature","properties":{"id":3254,"name":"Церква святого Василія Великого","denomination":"ukrainian_greek_catholic","region":"Львівська область","image":"https://map.ugcc.ua/pub/base/afd49a5ef0b1d7b.jpg","website":"https://map.ugcc.ua/view/3254-"},"geometry":{"type":"Point","coordinates":[23.35126,48.90588]}},
{"type":"Feature","properties":{"id":3274,"name":"Церква Собору Пресвятої Богородиці","denomination":"ukrainian_greek_catholic","region":"Львівська область","image":"https://map.ugcc.ua/pub/base/36b6c8054a565d3.jpg","website":"https://map.ugcc.ua/view/3274-"},"geometry":{"type":"Point","coordinates":[24.19806,50.29917]}},
{"type":"Feature","properties":{"id":25,"name":"Катедральний храм святого Апостола Андрія Первозванного","denomination":"ukrainian_greek_catholic","region":"Одеська область","image":"https://map.ugcc.ua/pub/base/2339a2a5e2785a4.jpg","website":"https://map.ugcc.ua/view/25-"},"geometry":{"type":"Point","coordinates":[30.74504,46.47012]}},
{"type":"Feature","properties":{"id":3164,"name":"Церква священомученика Миколая Чарнецького","denomination":"ukrainian_greek_catholic","region":"Одеська область","image":"https://map.ugcc.ua/pub/base/b0b93e585a47208.jpg","website":"https://map.ugcc.ua/view/3164-"},"geometry":{"type":"Point","coordinates":[30.89696,47.20556]}},
{"type":"Feature","properties":{"id":538,"name":"Церква Архистратига Михаїла","denomination":"ukrainian_greek_catholic","region":"Полтавська область","image":"https://map.ugcc.ua/pub/base/.jpg","website":"https://map.ugcc.ua/view/538-"},"geometry":{"type":"Point","coordinates":[33.90331,49.1534]}},
{"type":"Feature","properties":{"id":540,"name":"Церква Різдва Пресвятої Богородиці","denomination":"ukrainian_greek_catholic","region":"Полтавська область","image":"https://map.ugcc.ua/pub/base/9d2637a0b14c76a.jpg","website":"https://map.ugcc.ua/view/540-"},"geometry":{"type":"Point","coordinates":[34.18462,48.94588]}},
{"type":"Feature","properties":{"id":541,"name":"Церква Вознесіння Господнього","denomination":"ukrainian_greek_catholic","region":"Полтавська область","image":"https://map.ugcc.ua/pub/base/.jpg","website":"https://map.ugcc.ua/view/541-"},"geometry":{"type":"Point","coordinates":[34.21243,49.14697]}},
{"type":"Feature","properties":{"id":386,"name":"Храм Успіння Пресвятої Богородиці","denomination":"ukrainian_greek_catholic","region":"Севастополь","image":"https://map.ugcc.ua/pub/base/4a41323f4588812.jpg","website":"https://map.ugcc.ua/view/386-"},"geometry":{"type":"Point","coordinates":[33.46682,44.56773]}},
{"type":"Feature","properties":{"id":426,"name":"Церква Перенесення мощей Святого Миколая","denomination":"ukrainian_greek_catholic","region":"Тернопільська область","image":"https://map.ugcc.ua/pub/base/.jpg","website":"https://map.ugcc.ua/view/426-"},"geometry":{"type":"Point","coordinates":[24.93793,49.49869]}},
{"type":"Feature","properties":{"id":545,"name":"Церква Успіння Пресвятої Богородиці","denomination":"ukrainian_greek_catholic","region":"Тернопільська область","image":"https://map.ugcc.ua/pub/base/258c31caa7e7730.jpg","website":"https://map.ugcc.ua/view/545-"},"geometry":{"type":"Point","coordinates":[25.60341,49.54444]}},
{"type":"Feature","properties":{"id":552,"name":"Церква святих Володимира і Ольги","denomination":"ukrainian_greek_catholic","region":"Тернопільська область","image":"https://map.ugcc.ua/pub/base/36ddc0905eb6159.jpg","website":"https://map.ugcc.ua/view/552-"},"geometry":{"type":"Point","coordinates":[25.57645,49.54413]}},
{"type":"Feature","properties":{"id":557,"name":"Церква Святого Духа","denomination":"ukrainian_greek_catholic","region":"Тернопільська область","image":"https://map.ugcc.ua/pub/base/46e661821fc819f.jpg","website":"https://map.ugcc.ua/view/557-"},"geometry":{"type":"Point","coordinates":[25.63111,49.56451]}},
{"type":"Feature","properties":{"id":1009,"name":"Церква Благовіщення Пресвятої Богородиці","denomination":"ukrainian_greek_catholic","region":"Тернопільська область","image":"https://map.ugcc.ua/pub/base/21a033a75c5df30.jpg","website":"https://map.ugcc.ua/view/1009-"},"geometry":{"type":"Point","coordinates":[26.28286,48.55348]}},
{"type":"Feature","properties":{"id":1012,"name":"Церква Вознесіння Господнього","denomination":"ukrainian_greek_catholic","region":"Тернопільська область","image":"https://map.ugcc.ua/pub/base/63b35c18b7291ad.jpg","website":"https://map.ugcc.ua/view/1012-"},"geometry":{"type":"Point","coordinates":[25.59935,49.49474]}},
{"type":"Feature","properties":{"id":1016,"name":"Церква Різдва Пресвятої Богородиці","denomination":"ukrainian_greek_catholic","region":"Тернопільська область","image":"https://map.ugcc.ua/pub/base/ba363b70ea19468.jpg","website":"https://map.ugcc.ua/view/1016-"},"geometry":{"type":"Point","coordinates":[25.45312,49.44344]}},
{"type":"Feature","properties":{"id":1052,"name":"Церква Покрови Пресвятої Богородиці","denomination":"ukrainian_greek_catholic","region":"Тернопільська область","image":"https://map.ugcc.ua/pub/base/42cf451a7158843.jpg","website":"https://map.ugcc.ua/view/1052-"},"geometry":{"type":"Point","coordinates":[25.84046,49.63288]}},
{"type":"Feature","properties":{"id":1065,"name":"Церква Вознесіння Господнього","denomination":"ukrainian_greek_catholic","region":"Тернопільська область","image":"https://map.ugcc.ua/pub/base/d2eebee67720f63.jpg","website":"https://map.ugcc.ua/view/1065-"},"geometry":{"type":"Point","coordinates":[25.40101,49.81701]}},
{"type":"Feature","properties":{"id":1071,"name":"Церква Покрови Пресвятої Богородиці","denomination":"ukrainian_greek_catholic","region":"Тернопільська область","image":"https://map.ugcc.ua/pub/base/c91400cbf4c2883.jpg","website":"https://map.ugcc.ua/view/1071-"},"geometry":{"type":"Point","coordinates":[25.38774,49.80131]}},
{"type":"Feature","properties":{"id":1164,"name":"Церква Пресвятої Трійці","denomination":"ukrainian_greek_catholic","region":"Тернопільська область","image":"https://map.ugcc.ua/pub/base/c3672dc2ed8891b.jpg","website":"https://map.ugcc.ua/view/1164-"},"geometry":{"type":"Point","coordinates":[25.66755,49.55447]}},
{"type":"Feature","properties":{"id":1167,"name":"Церква Святої Параскеви П'ятниці","denomination":"ukrainian_greek_catholic","region":"Тернопільська область","image":"https://map.ugcc.ua/pub/base/5efc8a8d2325605.jpg","website":"https://map.ugcc.ua/view/1167-"},"geometry":{"type":"Point","coordinates":[25.75126,49.52348]}},
{"type":"Feature","properties":{"id":1183,"name":"Церква Різдва Пресвятої Богородиці","denomination":"ukrainian_greek_catholic","region":"Тернопільська область","image":"https://map.ugcc.ua/pub/base/3243dd2da7bc4df.jpg","website":"https://map.ugcc.ua/view/1183-"},"geometry":{"type":"Point","coordinates":[25.70904,49.53208]}},
{"type":"Feature","properties":{"id":1186,"name":"Церква Різдва Пресвятої Богородиці","denomination":"ukrainian_greek_catholic","region":"Тернопільська область","image":"https://map.ugcc.ua/pub/base/061e01e389030e2.jpg","website":"https://map.ugcc.ua/view/1186-"},"geometry":{"type":"Point","coordinates":[25.74933,49.53823]}},
{"type":"Feature","properties":{"id":1190,"name":"Церква Святого Миколая","denomination":"ukrainian_greek_catholic","region":"Тернопільська область","image":"https://map.ugcc.ua/pub/base/b15f22b7a350e96.jpg","website":"https://map.ugcc.ua/view/1190-"},"geometry":{"type":"Point","coordinates":[25.57419,49.57926]}},
{"type":"Feature","properties":{"id":1200,"name":"Церква Святої преподобної Параскеви Терновської","denomination":"ukrainian_greek_catholic","region":"Тернопільська область","image":"https://map.ugcc.ua/pub/base/9128536f8a19058.jpg","website":"https://map.ugcc.ua/view/1200-"},"geometry":{"type":"Point","coordinates":[25.54594,49.69226]}},
{"type":"Feature","properties":{"id":1265,"name":"Церква Перенесення мощей святого Миколая","denomination":"ukrainian_greek_catholic","region":"Тернопільська область","image":"https://map.ugcc.ua/pub/base/88adeb5cd35c99d.jpg","website":"https://map.ugcc.ua/view/1265-"},"geometry":{"type":"Point","coordinates":[25.03056,49.70186]}},
{"type":"Feature","properties":{"id":1272,"name":"Церква Різдва Пресвятої Богородиці","denomination":"ukrainian_greek_catholic","region":"Тернопільська область","image":"https://map.ugcc.ua/pub/base/9be804f3fedb993.jpg","website":"https://map.ugcc.ua/view/1272-"},"geometry":{"type":"Point","coordinates":[25.35343,49.2308]}},
{"type":"Feature","properties":{"id":1274,"name":"Церква святого Василія Великого","denomination":"ukrainian_greek_catholic","region":"Тернопільська область","image":"https://map.ugcc.ua/pub/base/f060681481d34a8.jpg","website":"https://map.ugcc.ua/view/1274-"},"geometry":{"type":"Point","coordinates":[25.16917,49.42813]}},
{"type":"Feature","properties":{"id":1276,"name":"Церква Воскресіння Господнього","denomination":"ukrainian_greek_catholic","region":"Тернопільська область","image":"https://map.ugcc.ua/pub/base/2c84b282765d50f.jpg","website":"https://map.ugcc.ua/view/1276-"},"geometry":{"type":"Point","coordinates":[25.02681,49.51779]}},
{"type":"Feature","properties":{"id":1308,"name":"Церква Святого Василія Великого","denomination":"ukrainian_greek_catholic","region":"Тернопільська область","image":"https://map.ugcc.ua/pub/base/245e31d8f90a085.jpg","website":"https://map.ugcc.ua/view/1308-"},"geometry":{"type":"Point","coordinates":[25.12504,49.59993]}},
{"type":"Feature","properties":{"id":1316,"name":"Церква Святої Параскеви П'ятниці","denomination":"ukrainian_greek_catholic","region":"Тернопільська область","image":"https://map.ugcc.ua/pub/base/cc512bb8f8b2f7d.jpg","website":"https://map.ugcc.ua/view/1316-"},"geometry":{"type":"Point","coordinates":[25.2432,49.52626]}},
{"type":"Feature","properties":{"id":1344,"name":"Церква Покрови Пресвятої Богородиці","denomination":"ukrainian_greek_catholic","region":"Тернопільська область","image":"https://map.ugcc.ua/pub/base/98d1ccba1fcf227.jpg","website":"https://map.ugcc.ua/view/1344-"},"geometry":{"type":"Point","coordinates":[25.56696,49.5621]}},
{"type":"Feature","properties":{"id":1383,"name":"Церква Введення у храм Пресвятої Богородиці","denomination":"ukrainian_greek_catholic","region":"Тернопільська область","image":"https://map.ugcc.ua/pub/base/b3c8d87f1b30c31.jpg","website":"https://map.ugcc.ua/view/1383-"},"geometry":{"type":"Point","coordinates":[25.32045,49.6569]}},
{"type":"Feature","properties":{"id":1392,"name":"Церква святого апостола Івана Богослова","denomination":"ukrainian_greek_catholic","region":"Тернопільська область","image":"https://map.ugcc.ua/pub/base/.jpg","website":"https://map.ugcc.ua/view/1392-"},"geometry":{"type":"Point","coordinates":[26.10874,49.66094]}},
{"type":"Feature","properties":{"id":1399,"name":"Церква Святого архістратига Михаїла","denomination":"ukrainian_greek_catholic","region":"Тернопільська область","image":"https://map.ugcc.ua/pub/base/ee278816393d14b.jpg","website":"https://map.ugcc.ua/view/1399-"},"geometry":{"type":"Point","coordinates":[26.02098,49.54462]}},
{"type":"Feature","properties":{"id":1401,"name":"Церква Покрови Пресвятої Богородиці","denomination":"ukrainian_greek_catholic","region":"Тернопільська область","image":"https://map.ugcc.ua/pub/base/088dc4c5915c9db.jpg","website":"https://map.ugcc.ua/view/1401-"},"geometry":{"type":"Point","coordinates":[26.02041,49.5857]}},
{"type":"Feature","properties":{"id":1404,"name":"Церква Вознесення Господнього","denomination":"ukrainian_greek_catholic","region":"Тернопільська область","image":"https://map.ugcc.ua/pub/base/e94b288df0085bf.jpg","website":"https://map.ugcc.ua/view/1404-"},"geometry":{"type":"Point","coordinates":[25.82607,49.43053]}},
{"type":"Feature","properties":{"id":1413,"name":"Церква Преображення Господнього","denomination":"ukrainian_greek_catholic","region":"Тернопільська область","image":"https://map.ugcc.ua/pub/base/92bf0b6c5a80fce.jpg","website":"https://map.ugcc.ua/view/1413-"},"geometry":{"type":"Point","coordinates":[25.97792,49.42515]}},
{"type":"Feature","properties":{"id":1422,"name":"Церква Святих верховних апостолів Петра і Павла","denomination":"ukrainian_greek_catholic","region":"Тернопільська область","image":"https://map.ugcc.ua/pub/base/60583bfcd3a4524.jpg","website":"https://map.ugcc.ua/view/1422-"},"geometry":{"type":"Point","coordinates":[25.9786,49.60134]}},
{"type":"Feature","properties":{"id":1424,"name":"Церква Святого Юрія","denomination":"ukrainian_greek_catholic","region":"Тернопільська область","image":"https://map.ugcc.ua/pub/base/20adf9135b10e5e.jpg","website":"https://map.ugcc.ua/view/1424-"},"geometry":{"type":"Point","coordinates":[25.70441,49.15924]}},
{"type":"Feature","properties":{"id":1490,"name":"Церква святого Юрія","denomination":"ukrainian_greek_catholic","region":"Тернопільська область","image":"https://map.ugcc.ua/pub/base/56cb37e9d03ecfa.jpg","website":"https://map.ugcc.ua/view/1490-"},"geometry":{"type":"Point","coordinates":[24.79612,49.46232]}},
{"type":"Feature","properties":{"id":1576,"name":"Церква Святих новомучеників і блаженних українського народу","denomination":"ukrainian_greek_catholic","region":"Тернопільська область","image":"https://map.ugcc.ua/pub/base/.jpg","website":"https://map.ugcc.ua/view/1576-"},"geometry":{"type":"Point","coordinates":[25.77187,49.0172]}},
{"type":"Feature","properties":{"id":1625,"name":"Церква Святого архістратига Михаїла","denomination":"ukrainian_greek_catholic","region":"Тернопільська область","image":"https://map.ugcc.ua/pub/base/5a3a314fe6c836f.jpg","website":"https://map.ugcc.ua/view/1625-"},"geometry":{"type":"Point","coordinates":[25.90958,48.93824]}},
{"type":"Feature","properties":{"id":1641,"name":"Церква святої Покрови","denomination":"ukrainian_greek_catholic","region":"Тернопільська область","image":"https://map.ugcc.ua/pub/base/b212c620cfa666d.jpg","website":"https://map.ugcc.ua/view/1641-"},"geometry":{"type":"Point","coordinates":[25.12073,49.27822]}},
{"type":"Feature","properties":{"id":1642,"name":"Церква Святого Юрія","denomination":"ukrainian_greek_catholic","region":"Тернопільська область","image":"https://map.ugcc.ua/pub/base/ceb33ef5642f897.jpg","website":"https://map.ugcc.ua/view/1642-"},"geometry":{"type":"Point","coordinates":[25.12216,49.28034]}},
{"type":"Feature","properties":{"id":2206,"name":"Церква Перенесення мощей Святого Миколая","denomination":"ukrainian_greek_catholic","region":"Тернопільська область","image":"https://map.ugcc.ua/pub/base/.jpg","website":"https://map.ugcc.ua/view/2206-"},"geometry":{"type":"Point","coordinates":[25.84356,48.80277]}},
{"type":"Feature","properties":{"id":2221,"name":"Церква святих Первоверховних апостолів Петра і Павла","denomination":"ukrainian_greek_catholic","region":"Тернопільська область","image":"https://map.ugcc.ua/pub/base/18246352007ca6b.jpg","website":"https://map.ugcc.ua/view/2221-"},"geometry":{"type":"Point","coordinates":[25.36393,49.06737]}},
{"type":"Feature","properties":{"id":2225,"name":"Церква Вознесіння Господнього","denomination":"ukrainian_greek_catholic","region":"Тернопільська область","image":"https://map.ugcc.ua/pub/base/.jpg","website":"https://map.ugcc.ua/view/2225-"},"geometry":{"type":"Point","coordinates":[25.38133,49.10522]}},
{"type":"Feature","properties":{"id":2242,"name":"Церква Різдва Пресвятої Богородиці","denomination":"ukrainian_greek_catholic","region":"Тернопільська область","image":"https://map.ugcc.ua/pub/base/.jpg","website":"https://map.ugcc.ua/view/2242-"},"geometry":{"type":"Point","coordinates":[25.4634,49.04346]}},
{"type":"Feature","properties":{"id":2243,"name":"Церква Собору Пресвятої Богородиці","denomination":"ukrainian_greek_catholic","region":"Тернопільська область","image":"https://map.ugcc.ua/pub/base/a13bb3afcf7c227.jpg","website":"https://map.ugcc.ua/view/2243-"},"geometry":{"type":"Point","coordinates":[26.02518,49.32223]}},
{"type":"Feature","properties":{"id":2255,"name":"Церква Покрови Пресвятої Богородиці","denomination":"ukrainian_greek_catholic","region":"Тернопільська область","image":"https://map.ugcc.ua/pub/base/.jpg","website":"https://map.ugcc.ua/view/2255-"},"geometry":{"type":"Point","coordinates":[26.22969,49.37009]}},
{"type":"Feature","properties":{"id":2256,"name":"Церква Собору Пресвятої Богородиці і Йосифа Обручника","denomination":"ukrainian_greek_catholic","region":"Тернопільська область","image":"https://map.ugcc.ua/pub/base/.jpg","website":"https://map.ugcc.ua/view/2256-"},"geometry":{"type":"Point","coordinates":[26.10305,49.24856]}},
{"type":"Feature","properties":{"id":2322,"name":"Церква Покрови Пресвятої Богородиці","denomination":"ukrainian_greek_catholic","region":"Тернопільська область","image":"https://map.ugcc.ua/pub/base/377cfda3bf80b8d.jpg","website":"https://map.ugcc.ua/view/2322-"},"geometry":{"type":"Point","coordinates":[25.28096,48.87455]}},
{"type":"Feature","properties":{"id":2325,"name":"Церква Різдва Пресвятої Богородиці","denomination":"ukrainian_greek_catholic","region":"Тернопільська область","image":"https://map.ugcc.ua/pub/base/630059376ae559c.jpg","website":"https://map.ugcc.ua/view/2325-"},"geometry":{"type":"Point","coordinates":[25.24401,48.91714]}},
{"type":"Feature","properties":{"id":2354,"name":"Церква Різдва Пресвятої Богородиці","denomination":"ukrainian_greek_catholic","region":"Тернопільська область","image":"https://map.ugcc.ua/pub/base/.jpg","website":"https://map.ugcc.ua/view/2354-"},"geometry":{"type":"Point","coordinates":[25.13564,48.98463]}},
{"type":"Feature","properties":{"id":2359,"name":"Церква святого Отця Миколая","denomination":"ukrainian_greek_catholic","region":"Тернопільська область","image":"https://map.ugcc.ua/pub/base/910b83f3c5d264b.jpg","website":"https://map.ugcc.ua/view/2359-"},"geometry":{"type":"Point","coordinates":[25.18213,48.93461]}},
{"type":"Feature","properties":{"id":2361,"name":"Церква Успення Пресвятої Богородиці","denomination":"ukrainian_greek_catholic","region":"Тернопільська область","image":"https://map.ugcc.ua/pub/base/3cd60d088009210.jpg","website":"https://map.ugcc.ua/view/2361-"},"geometry":{"type":"Point","coordinates":[25.18175,48.93398]}},
{"type":"Feature","properties":{"id":2394,"name":"Церква Різдва Пресвятої Богородиці","denomination":"ukrainian_greek_catholic","region":"Тернопільська область","image":"https://map.ugcc.ua/pub/base/.jpg","website":"https://map.ugcc.ua/view/2394-"},"geometry":{"type":"Point","coordinates":[25.18716,49.01918]}},
{"type":"Feature","properties":{"id":2400,"name":"Церква Введення в храм Пресвятої Богородиці","denomination":"ukrainian_greek_catholic","region":"Тернопільська область","image":"https://map.ugcc.ua/pub/base/b18deb3eb44304f.jpg","website":"https://map.ugcc.ua/view/2400-"},"geometry":{"type":"Point","coordinates":[25.18073,49.08745]}},
{"type":"Feature","properties":{"id":2406,"name":"Церква святого великомученика Димитрія","denomination":"ukrainian_greek_catholic","region":"Тернопільська область","image":"https://map.ugcc.ua/pub/base/.jpg","website":"https://map.ugcc.ua/view/2406-"},"geometry":{"type":"Point","coordinates":[25.15654,49.1511]}},
{"type":"Feature","properties":{"id":2411,"name":"Церква Різдва Пресвятої Богородиці","denomination":"ukrainian_greek_catholic","region":"Тернопільська область","image":"https://map.ugcc.ua/pub/base/b69dd7bdcd72364.jpg","website":"https://map.ugcc.ua/view/2411-"},"geometry":{"type":"Point","coordinates":[25.02979,49.28914]}},
{"type":"Feature","properties":{"id":2424,"name":"Церква святих верховних апостолів Петра і Павла","denomination":"ukrainian_greek_catholic","region":"Тернопільська область","image":"https://map.ugcc.ua/pub/base/.jpg","website":"https://map.ugcc.ua/view/2424-"},"geometry":{"type":"Point","coordinates":[25.15027,49.2589]}},
{"type":"Feature","properties":{"id":2427,"name":"Церква Покрови Пресвятої Богородиці","denomination":"ukrainian_greek_catholic","region":"Тернопільська область","image":"https://map.ugcc.ua/pub/base/.jpg","website":"https://map.ugcc.ua/view/2427-"},"geometry":{"type":"Point","coordinates":[24.95603,49.21686]}},
{"type":"Feature","properties":{"id":3074,"name":"Церква Благовіщення Пресвятої Богородиці","denomination":"ukrainian_greek_catholic","region":"Херсонська область","image":"https://map.ugcc.ua/pub/base/.jpg","website":"https://map.ugcc.ua/view/3074-"},"geometry":{"type":"Point","coordinates":[32.56676,46.75271]}},
{"type":"Feature","properties":{"id":141,"name":"Церква Преображення Господнього","denomination":"ukrainian_greek_catholic","region":"Хмельницька область","image":"https://map.ugcc.ua/pub/base/.jpg","website":"https://map.ugcc.ua/view/141-"},"geometry":{"type":"Point","coordinates":[26.43585,49.48686]}},
{"type":"Feature","properties":{"id":142,"name":"Церква Різдва Пресвятої Богородиці","denomination":"ukrainian_greek_catholic","region":"Хмельницька область","image":"https://map.ugcc.ua/pub/base/.jpg","website":"https://map.ugcc.ua/view/142-"},"geometry":{"type":"Point","coordinates":[26.22316,49.53757]}},
{"type":"Feature","properties":{"id":143,"name":"Церква святого рівноапостольного князя Володимира","denomination":"ukrainian_greek_catholic","region":"Хмельницька область","image":"https://map.ugcc.ua/pub/base/.jpg","website":"https://map.ugcc.ua/view/143-"},"geometry":{"type":"Point","coordinates":[26.97967,49.64629]}},
{"type":"Feature","properties":{"id":144,"name":"Церква Покрови Пресвятої Богородиці","denomination":"ukrainian_greek_catholic","region":"Хмельницька область","image":"https://map.ugcc.ua/pub/base/.jpg","website":"https://map.ugcc.ua/view/144-"},"geometry":{"type":"Point","coordinates":[27.61825,49.23687]}},
{"type":"Feature","properties":{"id":146,"name":"Церква святої рівноапостольної княгині Ольги","denomination":"ukrainian_greek_catholic","region":"Хмельницька область","image":"https://map.ugcc.ua/pub/base/.jpg","website":"https://map.ugcc.ua/view/146-"},"geometry":{"type":"Point","coordinates":[27.21862,49.74045]}},
{"type":"Feature","properties":{"id":147,"name":"Церква святих мучеників Бориса і Гліба","denomination":"ukrainian_greek_catholic","region":"Хмельницька область","image":"https://map.ugcc.ua/pub/base/.jpg","website":"https://map.ugcc.ua/view/147-"},"geometry":{"type":"Point","coordinates":[27.08095,50.18173]}},
{"type":"Feature","properties":{"id":148,"name":"Церква святих Володимира та Ольги","denomination":"ukrainian_greek_catholic","region":"Хмельницька область","image":"https://map.ugcc.ua/pub/base/.jpg","website":"https://map.ugcc.ua/view/148-"},"geometry":{"type":"Point","coordinates":[26.29749,49.51673]}},
{"type":"Feature","properties":{"id":149,"name":"Церква Успення Пресвятої Богородиці","denomination":"ukrainian_greek_catholic","region":"Хмельницька область","image":"https://map.ugcc.ua/pub/base/.jpg","website":"https://map.ugcc.ua/view/149-"},"geometry":{"type":"Point","coordinates":[26.35826,49.53857]}},
{"type":"Feature","properties":{"id":150,"name":"Церква Успення Пресвятої Богородиці","denomination":"ukrainian_greek_catholic","region":"Хмельницька область","image":"https://map.ugcc.ua/pub/base/.jpg","website":"https://map.ugcc.ua/view/150-"},"geometry":{"type":"Point","coordinates":[27.51525,50.11353]}},
{"type":"Feature","properties":{"id":151,"name":"Церква святого апостола Луки","denomination":"ukrainian_greek_catholic","region":"Хмельницька область","image":"https://map.ugcc.ua/pub/base/.jpg","website":"https://map.ugcc.ua/view/151-"},"geometry":{"type":"Point","coordinates":[26.7263,49.57821]}},
{"type":"Feature","properties":{"id":152,"name":"Церква Різдва Пресвятої Богородиці","denomination":"ukrainian_greek_catholic","region":"Хмельницька область","image":"https://map.ugcc.ua/pub/base/.jpg","website":"https://map.ugcc.ua/view/152-"},"geometry":{"type":"Point","coordinates":[26.72081,49.61071]}},
{"type":"Feature","properties":{"id":746,"name":"Церква Перенесеня мощей св. Миколая Чудотворця","denomination":"ukrainian_greek_catholic","region":"Хмельницька область","image":"https://map.ugcc.ua/pub/base/52044d3512a8854.jpg","website":"https://map.ugcc.ua/view/746-"},"geometry":{"type":"Point","coordinates":[26.4929,48.55018]}},
{"type":"Feature","properties":{"id":749,"name":"Церква Верховних апостолів Петра і Павла","denomination":"ukrainian_greek_catholic","region":"Хмельницька область","image":"https://map.ugcc.ua/pub/base/.jpg","website":"https://map.ugcc.ua/view/749-"},"geometry":{"type":"Point","coordinates":[27.04072,48.57501]}},
{"type":"Feature","properties":{"id":751,"name":"Церква Перенесення мощей святого Миколая Чудотворця","denomination":"ukrainian_greek_catholic","region":"Хмельницька область","image":"https://map.ugcc.ua/pub/base/d78c704ba4f2bad.jpg","website":"https://map.ugcc.ua/view/751-"},"geometry":{"type":"Point","coordinates":[27.08164,48.59554]}},
{"type":"Feature","properties":{"id":752,"name":"Церква святих великомучеників Бориса і Гліба","denomination":"ukrainian_greek_catholic","region":"Хмельницька область","image":"https://map.ugcc.ua/pub/base/.jpg","website":"https://map.ugcc.ua/view/752-"},"geometry":{"type":"Point","coordinates":[27.26308,48.82965]}},
{"type":"Feature","properties":{"id":2273,"name":"Церква Святих верховних апостолів Петра і Павла","denomination":"ukrainian_greek_catholic","region":"Хмельницька область","image":"https://map.ugcc.ua/pub/base/.jpg","website":"https://map.ugcc.ua/view/2273-"},"geometry":{"type":"Point","coordinates":[26.21346,49.0994]}},
{"type":"Feature","properties":{"id":3114,"name":"Церква святого великомученика Димитрія Солунського","denomination":"ukrainian_greek_catholic","region":"Хмельницька область","image":"https://map.ugcc.ua/pub/base/8cad5a150bf9897.jpg","website":"https://map.ugcc.ua/view/3114-"},"geometry":{"type":"Point","coordinates":[26.86344,49.81039]}},
{"type":"Feature"}
]}
