{
"type": "FeatureCollection",
"errorDescr": "Church was not found",
"features": [
{"type":"Feature","properties":{"id":389,"name":"Церква святих рівноапостольських князів Володимира і Ольги","denomination":"ukrainian_greek_catholic","region":"Автономна Республіка Крим","image":"https://map.ugcc.ua/pub/base/f812f39b228d855.jpg","website":"https://map.ugcc.ua/view/389-"},"geometry":{"type":"Point","coordinates":[36.44418,45.35883]}},
{"type":"Feature","properties":{"id":385,"name":"Храм священомученика Йосафата","denomination":"ukrainian_greek_catholic","region":"Автономна Республіка Крим","image":"https://map.ugcc.ua/pub/base/50c2f57e0d4489d.jpg","website":"https://map.ugcc.ua/view/385-"},"geometry":{"type":"Point","coordinates":[34.08818,44.97025]}},
{"type":"Feature","properties":{"id":383,"name":"Церква Пресвятої Трійці","denomination":"ukrainian_greek_catholic","region":"Автономна Республіка Крим","image":"https://map.ugcc.ua/pub/base/78421044d86a92d.jpg","website":"https://map.ugcc.ua/view/383-"},"geometry":{"type":"Point","coordinates":[34.21211,44.50729]}},
{"type":"Feature","properties":{"id":3009,"name":"Церква святого Івана Богослова","denomination":"ukrainian_greek_catholic","region":"Житомирська область","image":"https://map.ugcc.ua/pub/base/708560fdb0ee247.jpg","website":"https://map.ugcc.ua/view/3009-"},"geometry":{"type":"Point","coordinates":[28.17721,50.03372]}},
{"type":"Feature","properties":{"id":1159,"name":"Церква Різдва Пречистої Діви Марії","denomination":"ukrainian_greek_catholic","region":"Івано-Франківська область","image":"https://map.ugcc.ua/pub/base/968cad417b934de.jpg","website":"https://map.ugcc.ua/view/1159-"},"geometry":{"type":"Point","coordinates":[24.53496,49.19191]}},
{"type":"Feature","properties":{"id":2700,"name":"Церква Царя Христа","denomination":"ukrainian_greek_catholic","region":"Івано-Франківська область","image":"https://map.ugcc.ua/pub/base/59dc36353cab384.jpg","website":"https://map.ugcc.ua/view/2700-"},"geometry":{"type":"Point","coordinates":[25.0012,48.86292]}},
{"type":"Feature","properties":{"id":851,"name":"Церква святого Івана Хрестителя","denomination":"ukrainian_greek_catholic","region":"Івано-Франківська область","image":"https://map.ugcc.ua/pub/base/454caf58d00cbf9.jpg","website":"https://map.ugcc.ua/view/851-"},"geometry":{"type":"Point","coordinates":[24.73281,48.90481]}},
{"type":"Feature","properties":{"id":2633,"name":"Церква Пресвятої Трійці","denomination":"ukrainian_greek_catholic","region":"Івано-Франківська область","image":"https://map.ugcc.ua/pub/base/807d4a64b398840.jpg","website":"https://map.ugcc.ua/view/2633-"},"geometry":{"type":"Point","coordinates":[24.69129,48.90529]}},
{"type":"Feature","properties":{"id":2630,"name":"Церква Вознесіння Господнього","denomination":"ukrainian_greek_catholic","region":"Івано-Франківська область","image":"https://map.ugcc.ua/pub/base/4bcb3ad9b19c469.jpg","website":"https://map.ugcc.ua/view/2630-"},"geometry":{"type":"Point","coordinates":[24.69324,48.90117]}},
{"type":"Feature","properties":{"id":2702,"name":"Церква Святих Володимира і Ольги","denomination":"ukrainian_greek_catholic","region":"Івано-Франківська область","image":"https://map.ugcc.ua/pub/base/.jpg","website":"https://map.ugcc.ua/view/2702-"},"geometry":{"type":"Point","coordinates":[24.35812,49.03302]}},
{"type":"Feature","properties":{"id":3167,"name":"Церква святої великомучениці Варвари","denomination":"ukrainian_greek_catholic","region":"Івано-Франківська область","image":"https://map.ugcc.ua/pub/base/.jpg","website":"https://map.ugcc.ua/view/3167-"},"geometry":{"type":"Point","coordinates":[24.42919,48.6173]}},
{"type":"Feature","properties":{"id":3172,"name":"Церква Пресвятої Трійці","denomination":"ukrainian_greek_catholic","region":"Івано-Франківська область","image":"https://map.ugcc.ua/pub/base/1ef88563688bc5f.jpg","website":"https://map.ugcc.ua/view/3172-"},"geometry":{"type":"Point","coordinates":[24.47941,48.57664]}},
{"type":"Feature","properties":{"id":51,"name":"Церква Пресвятої Трійці","denomination":"ukrainian_greek_catholic","region":"Івано-Франківська область","image":"https://map.ugcc.ua/pub/base/97a0057eeb7fbdf.jpg","website":"https://map.ugcc.ua/view/51-"},"geometry":{"type":"Point","coordinates":[24.81342,48.32851]}},
{"type":"Feature","properties":{"id":938,"name":"Каплиця Царя Христа","denomination":"ukrainian_greek_catholic","region":"Луганська область","image":"https://map.ugcc.ua/pub/base/.jpg","website":"https://map.ugcc.ua/view/938-"},"geometry":{"type":"Point","coordinates":[38.49174,48.93693]}},
{"type":"Feature","properties":{"id":3274,"name":"Церква Собору Пресвятої Богородиці","denomination":"ukrainian_greek_catholic","region":"Львівська область","image":"https://map.ugcc.ua/pub/base/36b6c8054a565d3.jpg","website":"https://map.ugcc.ua/view/3274-"},"geometry":{"type":"Point","coordinates":[24.19806,50.29917]}},
{"type":"Feature","properties":{"id":2995,"name":"Церква Пресвятої Євхаристії","denomination":"ukrainian_greek_catholic","region":"Львівська область","image":"https://map.ugcc.ua/pub/base/e8b9bb545e1f68f.jpg","website":"https://map.ugcc.ua/view/2995-"},"geometry":{"type":"Point","coordinates":[24.79201,50.01396]}},
{"type":"Feature","properties":{"id":1904,"name":"Церква Успіння Пресвятої Богородиці","denomination":"ukrainian_greek_catholic","region":"Львівська область","image":"https://map.ugcc.ua/pub/base/b315c0e58810db0.jpg","website":"https://map.ugcc.ua/view/1904-"},"geometry":{"type":"Point","coordinates":[25.09656,49.87115]}},
{"type":"Feature","properties":{"id":1922,"name":"Церква святих апостолів Петра і Павла","denomination":"ukrainian_greek_catholic","region":"Львівська область","image":"https://map.ugcc.ua/pub/base/.jpg","website":"https://map.ugcc.ua/view/1922-"},"geometry":{"type":"Point","coordinates":[25.01993,49.82914]}},
{"type":"Feature","properties":{"id":3117,"name":"Церква святих апостолів Петра і Павла","denomination":"ukrainian_greek_catholic","region":"Львівська область","image":"https://map.ugcc.ua/pub/base/.jpg","website":"https://map.ugcc.ua/view/3117-"},"geometry":{"type":"Point","coordinates":[25.08024,49.78983]}},
{"type":"Feature","properties":{"id":1915,"name":"Церква Різдва Пресвятої Богородиці","denomination":"ukrainian_greek_catholic","region":"Львівська область","image":"https://map.ugcc.ua/pub/base/55c3c43c6227ef8.jpg","website":"https://map.ugcc.ua/view/1915-"},"geometry":{"type":"Point","coordinates":[24.91133,49.79727]}},
{"type":"Feature","properties":{"id":1912,"name":"Церква Вознесіння ГНІХ","denomination":"ukrainian_greek_catholic","region":"Львівська область","image":"https://map.ugcc.ua/pub/base/bd1cfc456ef5b1c.jpg","website":"https://map.ugcc.ua/view/1912-"},"geometry":{"type":"Point","coordinates":[24.87507,49.80681]}},
{"type":"Feature","properties":{"id":3024,"name":"Церква Преображення Господнього","denomination":"ukrainian_greek_catholic","region":"Львівська область","image":"https://map.ugcc.ua/pub/base/ce0545f6eb6c299.jpg","website":"https://map.ugcc.ua/view/3024-"},"geometry":{"type":"Point","coordinates":[24.55733,49.90905]}},
{"type":"Feature","properties":{"id":315,"name":"Церква Пресвятої Тройці","denomination":"ukrainian_greek_catholic","region":"Львівська область","image":"https://map.ugcc.ua/pub/base/5e34a01d63bda09.jpg","website":"https://map.ugcc.ua/view/315-"},"geometry":{"type":"Point","coordinates":[24.27742,49.86344]}},
{"type":"Feature","properties":{"id":279,"name":"Церква Покрову Пресвятої Богородиці","denomination":"ukrainian_greek_catholic","region":"Львівська область","image":"https://map.ugcc.ua/pub/base/76ee4d8b749f6ca.jpg","website":"https://map.ugcc.ua/view/279-"},"geometry":{"type":"Point","coordinates":[24.06718,49.83636]}},
{"type":"Feature","properties":{"id":2895,"name":"Церква Преображення Господнього","denomination":"ukrainian_greek_catholic","region":"Львівська область","image":"https://map.ugcc.ua/pub/base/a66ae717c75f8c8.jpg","website":"https://map.ugcc.ua/view/2895-"},"geometry":{"type":"Point","coordinates":[24.53476,49.59957]}},
{"type":"Feature","properties":{"id":2896,"name":"Церква Покрови Пресвятої Богородиці","denomination":"ukrainian_greek_catholic","region":"Львівська область","image":"https://map.ugcc.ua/pub/base/.jpg","website":"https://map.ugcc.ua/view/2896-"},"geometry":{"type":"Point","coordinates":[24.51497,49.58828]}},
{"type":"Feature","properties":{"id":2580,"name":"Церква Покрови Пресвятої Богородиці","denomination":"ukrainian_greek_catholic","region":"Львівська область","image":"https://map.ugcc.ua/pub/base/9de56f3017fb706.jpg","website":"https://map.ugcc.ua/view/2580-"},"geometry":{"type":"Point","coordinates":[23.73312,49.84116]}},
{"type":"Feature","properties":{"id":1945,"name":"Церква святого Миколая","denomination":"ukrainian_greek_catholic","region":"Львівська область","image":"https://map.ugcc.ua/pub/base/29cf1a7dd505cb9.jpg","website":"https://map.ugcc.ua/view/1945-"},"geometry":{"type":"Point","coordinates":[23.16077,49.96069]}},
{"type":"Feature","properties":{"id":2932,"name":"Церква Успення Пресвятої Богородиці","denomination":"ukrainian_greek_catholic","region":"Львівська область","image":"https://map.ugcc.ua/pub/base/55a48cc21aa796f.jpg","website":"https://map.ugcc.ua/view/2932-"},"geometry":{"type":"Point","coordinates":[24.23363,49.52996]}},
{"type":"Feature","properties":{"id":1934,"name":"Церква святої Параскевії","denomination":"ukrainian_greek_catholic","region":"Львівська область","image":"https://map.ugcc.ua/pub/base/a6f41a01cdc7f80.jpg","website":"https://map.ugcc.ua/view/1934-"},"geometry":{"type":"Point","coordinates":[23.26141,49.89252]}},
{"type":"Feature","properties":{"id":1937,"name":"Церква преподобного Онуфрія Великого","denomination":"ukrainian_greek_catholic","region":"Львівська область","image":"https://map.ugcc.ua/pub/base/18820b56773fde8.jpg","website":"https://map.ugcc.ua/view/1937-"},"geometry":{"type":"Point","coordinates":[23.12155,49.93992]}},
{"type":"Feature","properties":{"id":1958,"name":"Церква Різдва св. Івана Хрестителя","denomination":"ukrainian_greek_catholic","region":"Львівська область","image":"https://map.ugcc.ua/pub/base/.jpg","website":"https://map.ugcc.ua/view/1958-"},"geometry":{"type":"Point","coordinates":[23.2843,49.87677]}},
{"type":"Feature","properties":{"id":2935,"name":"Церква Успіння Пресвятої Богородиці","denomination":"ukrainian_greek_catholic","region":"Львівська область","image":"https://map.ugcc.ua/pub/base/afd8422d740b553.jpg","website":"https://map.ugcc.ua/view/2935-"},"geometry":{"type":"Point","coordinates":[24.25668,49.45654]}},
{"type":"Feature","properties":{"id":2930,"name":"Церква Різдва Пресвятої Діви Марії","denomination":"ukrainian_greek_catholic","region":"Львівська область","image":"https://map.ugcc.ua/pub/base/d8bfdc6ec7d0c1e.jpg","website":"https://map.ugcc.ua/view/2930-"},"geometry":{"type":"Point","coordinates":[24.31552,49.38337]}},
{"type":"Feature","properties":{"id":2776,"name":"Церква Покрови Пресвятої Богородиці","denomination":"ukrainian_greek_catholic","region":"Львівська область","image":"https://map.ugcc.ua/pub/base/.jpg","website":"https://map.ugcc.ua/view/2776-"},"geometry":{"type":"Point","coordinates":[24.169,49.35969]}},
{"type":"Feature","properties":{"id":2988,"name":"Церква Зіслання Святого Духа","denomination":"ukrainian_greek_catholic","region":"Львівська область","image":"https://map.ugcc.ua/pub/base/bd388da6a3228a6.jpg","website":"https://map.ugcc.ua/view/2988-"},"geometry":{"type":"Point","coordinates":[23.13694,49.5675]}},
{"type":"Feature","properties":{"id":738,"name":"Церква Миколая Чарнецького","denomination":"ukrainian_greek_catholic","region":"Львівська область","image":"https://map.ugcc.ua/pub/base/d3541d49d94c73a.jpg","website":"https://map.ugcc.ua/view/738-"},"geometry":{"type":"Point","coordinates":[23.84956,49.27354]}},
{"type":"Feature","properties":{"id":1494,"name":"Церква Архангела Михаїла","denomination":"ukrainian_greek_catholic","region":"Львівська область","image":"https://map.ugcc.ua/pub/base/46c83d7f54f45bc.jpg","website":"https://map.ugcc.ua/view/1494-"},"geometry":{"type":"Point","coordinates":[23.65757,49.13557]}},
{"type":"Feature","properties":{"id":2984,"name":"Церква великомученика Пантелеймона","denomination":"ukrainian_greek_catholic","region":"Львівська область","image":"https://map.ugcc.ua/pub/base/702ab258220a1d4.jpg","website":"https://map.ugcc.ua/view/2984-"},"geometry":{"type":"Point","coordinates":[23.51167,49.03361]}},
{"type":"Feature","properties":{"id":3253,"name":"Церква Івана Богослова","denomination":"ukrainian_greek_catholic","region":"Львівська область","image":"https://map.ugcc.ua/pub/base/71b2e0e8f0844be.jpg","website":"https://map.ugcc.ua/view/3253-"},"geometry":{"type":"Point","coordinates":[23.39335,48.89081]}},
{"type":"Feature","properties":{"id":3254,"name":"Церква святого Василія Великого","denomination":"ukrainian_greek_catholic","region":"Львівська область","image":"https://map.ugcc.ua/pub/base/afd49a5ef0b1d7b.jpg","website":"https://map.ugcc.ua/view/3254-"},"geometry":{"type":"Point","coordinates":[23.35126,48.90588]}},
{"type":"Feature","properties":{"id":3164,"name":"Церква священомученика Миколая Чарнецького","denomination":"ukrainian_greek_catholic","region":"Одеська область","image":"https://map.ugcc.ua/pub/base/b0b93e585a47208.jpg","website":"https://map.ugcc.ua/view/3164-"},"geometry":{"type":"Point","coordinates":[30.89696,47.20556]}},
{"type":"Feature","properties":{"id":541,"name":"Церква Вознесіння Господнього","denomination":"ukrainian_greek_catholic","region":"Полтавська область","image":"https://map.ugcc.ua/pub/base/.jpg","website":"https://map.ugcc.ua/view/541-"},"geometry":{"type":"Point","coordinates":[34.21243,49.14697]}},
{"type":"Feature","properties":{"id":538,"name":"Церква Архистратига Михаїла","denomination":"ukrainian_greek_catholic","region":"Полтавська область","image":"https://map.ugcc.ua/pub/base/.jpg","website":"https://map.ugcc.ua/view/538-"},"geometry":{"type":"Point","coordinates":[33.90331,49.1534]}},
{"type":"Feature","properties":{"id":540,"name":"Церква Різдва Пресвятої Богородиці","denomination":"ukrainian_greek_catholic","region":"Полтавська область","image":"https://map.ugcc.ua/pub/base/9d2637a0b14c76a.jpg","website":"https://map.ugcc.ua/view/540-"},"geometry":{"type":"Point","coordinates":[34.18462,48.94588]}},
{"type":"Feature","properties":{"id":386,"name":"Храм Успіння Пресвятої Богородиці","denomination":"ukrainian_greek_catholic","region":"Севастополь","image":"https://map.ugcc.ua/pub/base/4a41323f4588812.jpg","website":"https://map.ugcc.ua/view/386-"},"geometry":{"type":"Point","coordinates":[33.46682,44.56773]}},
{"type":"Feature","properties":{"id":1200,"name":"Церква Святої преподобної Параскеви Терновської","denomination":"ukrainian_greek_catholic","region":"Тернопільська область","image":"https://map.ugcc.ua/pub/base/9128536f8a19058.jpg","website":"https://map.ugcc.ua/view/1200-"},"geometry":{"type":"Point","coordinates":[25.54594,49.69226]}},
{"type":"Feature","properties":{"id":2255,"name":"Церква Покрови Пресвятої Богородиці","denomination":"ukrainian_greek_catholic","region":"Тернопільська область","image":"https://map.ugcc.ua/pub/base/.jpg","website":"https://map.ugcc.ua/view/2255-"},"geometry":{"type":"Point","coordinates":[26.22969,49.37009]}},
{"type":"Feature","properties":{"id":1190,"name":"Церква Святого Миколая","denomination":"ukrainian_greek_catholic","region":"Тернопільська область","image":"https://map.ugcc.ua/pub/base/b15f22b7a350e96.jpg","website":"https://map.ugcc.ua/view/1190-"},"geometry":{"type":"Point","coordinates":[25.57419,49.57926]}},
{"type":"Feature","properties":{"id":2444,"name":"Церква УГКЦ","denomination":"ukrainian_greek_catholic","region":"Тернопільська область","image":"https://map.ugcc.ua/pub/base/3d10ff0d325f04d.jpg","website":"https://map.ugcc.ua/view/2444-"},"geometry":{"type":"Point","coordinates":[25.56631,49.49464]}},
{"type":"Feature","properties":{"id":1642,"name":"Церква Святого Юрія","denomination":"ukrainian_greek_catholic","region":"Тернопільська область","image":"https://map.ugcc.ua/pub/base/ceb33ef5642f897.jpg","website":"https://map.ugcc.ua/view/1642-"},"geometry":{"type":"Point","coordinates":[25.12216,49.28034]}},
{"type":"Feature","properties":{"id":1641,"name":"Церква святої Покрови","denomination":"ukrainian_greek_catholic","region":"Тернопільська область","image":"https://map.ugcc.ua/pub/base/b212c620cfa666d.jpg","website":"https://map.ugcc.ua/view/1641-"},"geometry":{"type":"Point","coordinates":[25.12073,49.27822]}},
{"type":"Feature","properties":{"id":2411,"name":"Церква Різдва Пресвятої Богородиці","denomination":"ukrainian_greek_catholic","region":"Тернопільська область","image":"https://map.ugcc.ua/pub/base/b69dd7bdcd72364.jpg","website":"https://map.ugcc.ua/view/2411-"},"geometry":{"type":"Point","coordinates":[25.02979,49.28914]}},
{"type":"Feature","properties":{"id":430,"name":"Церква Успіння Пресвятої Богородиці","denomination":"ukrainian_greek_catholic","region":"Тернопільська область","image":"https://map.ugcc.ua/pub/base/.jpg","website":"https://map.ugcc.ua/view/430-"},"geometry":{"type":"Point","coordinates":[24.93785,49.31067]}},
{"type":"Feature","properties":{"id":2225,"name":"Церква Вознесіння Господнього","denomination":"ukrainian_greek_catholic","region":"Тернопільська область","image":"https://map.ugcc.ua/pub/base/.jpg","website":"https://map.ugcc.ua/view/2225-"},"geometry":{"type":"Point","coordinates":[25.38133,49.10522]}},
{"type":"Feature","properties":{"id":2242,"name":"Церква Різдва Пресвятої Богородиці","denomination":"ukrainian_greek_catholic","region":"Тернопільська область","image":"https://map.ugcc.ua/pub/base/.jpg","website":"https://map.ugcc.ua/view/2242-"},"geometry":{"type":"Point","coordinates":[25.4634,49.04346]}},
{"type":"Feature","properties":{"id":2427,"name":"Церква Покрови Пресвятої Богородиці","denomination":"ukrainian_greek_catholic","region":"Тернопільська область","image":"https://map.ugcc.ua/pub/base/.jpg","website":"https://map.ugcc.ua/view/2427-"},"geometry":{"type":"Point","coordinates":[24.95603,49.21686]}},
{"type":"Feature","properties":{"id":2400,"name":"Церква Введення в храм Пресвятої Богородиці","denomination":"ukrainian_greek_catholic","region":"Тернопільська область","image":"https://map.ugcc.ua/pub/base/b18deb3eb44304f.jpg","website":"https://map.ugcc.ua/view/2400-"},"geometry":{"type":"Point","coordinates":[25.18073,49.08745]}},
{"type":"Feature","properties":{"id":2394,"name":"Церква Різдва Пресвятої Богородиці","denomination":"ukrainian_greek_catholic","region":"Тернопільська область","image":"https://map.ugcc.ua/pub/base/.jpg","website":"https://map.ugcc.ua/view/2394-"},"geometry":{"type":"Point","coordinates":[25.18716,49.01918]}},
{"type":"Feature","properties":{"id":2354,"name":"Церква Різдва Пресвятої Богородиці","denomination":"ukrainian_greek_catholic","region":"Тернопільська область","image":"https://map.ugcc.ua/pub/base/.jpg","website":"https://map.ugcc.ua/view/2354-"},"geometry":{"type":"Point","coordinates":[25.13564,48.98463]}},
{"type":"Feature","properties":{"id":2322,"name":"Церква Покрови Пресвятої Богородиці","denomination":"ukrainian_greek_catholic","region":"Тернопільська область","image":"https://map.ugcc.ua/pub/base/377cfda3bf80b8d.jpg","website":"https://map.ugcc.ua/view/2322-"},"geometry":{"type":"Point","coordinates":[25.28096,48.87455]}},
{"type":"Feature","properties":{"id":3074,"name":"Церква Благовіщення Пресвятої Богородиці","denomination":"ukrainian_greek_catholic","region":"Херсонська область","image":"https://map.ugcc.ua/pub/base/.jpg","website":"https://map.ugcc.ua/view/3074-"},"geometry":{"type":"Point","coordinates":[32.56676,46.75271]}},
{"type":"Feature","properties":{"id":3073,"name":"Церква Різдва Христового","denomination":"ukrainian_greek_catholic","region":"Херсонська область","image":"https://map.ugcc.ua/pub/base/.jpg","website":"https://map.ugcc.ua/view/3073-"},"geometry":{"type":"Point","coordinates":[32.55456,46.69117]}},
{"type":"Feature","properties":{"id":150,"name":"Церква Успення Пресвятої Богородиці","denomination":"ukrainian_greek_catholic","region":"Хмельницька область","image":"https://map.ugcc.ua/pub/base/.jpg","website":"https://map.ugcc.ua/view/150-"},"geometry":{"type":"Point","coordinates":[27.51525,50.11353]}},
{"type":"Feature","properties":{"id":147,"name":"Церква святих мучеників Бориса і Гліба","denomination":"ukrainian_greek_catholic","region":"Хмельницька область","image":"https://map.ugcc.ua/pub/base/.jpg","website":"https://map.ugcc.ua/view/147-"},"geometry":{"type":"Point","coordinates":[27.08095,50.18173]}},
{"type":"Feature","properties":{"id":146,"name":"Церква святої рівноапостольної княгині Ольги","denomination":"ukrainian_greek_catholic","region":"Хмельницька область","image":"https://map.ugcc.ua/pub/base/.jpg","website":"https://map.ugcc.ua/view/146-"},"geometry":{"type":"Point","coordinates":[27.21862,49.74045]}},
{"type":"Feature","properties":{"id":3114,"name":"Церква святого великомученика Димитрія Солунського","denomination":"ukrainian_greek_catholic","region":"Хмельницька область","image":"https://map.ugcc.ua/pub/base/8cad5a150bf9897.jpg","website":"https://map.ugcc.ua/view/3114-"},"geometry":{"type":"Point","coordinates":[26.86344,49.81039]}},
{"type":"Feature","properties":{"id":143,"name":"Церква святого рівноапостольного князя Володимира","denomination":"ukrainian_greek_catholic","region":"Хмельницька область","image":"https://map.ugcc.ua/pub/base/.jpg","website":"https://map.ugcc.ua/view/143-"},"geometry":{"type":"Point","coordinates":[26.97967,49.64629]}},
{"type":"Feature","properties":{"id":144,"name":"Церква Покрови Пресвятої Богородиці","denomination":"ukrainian_greek_catholic","region":"Хмельницька область","image":"https://map.ugcc.ua/pub/base/.jpg","website":"https://map.ugcc.ua/view/144-"},"geometry":{"type":"Point","coordinates":[27.61825,49.23687]}},
{"type":"Feature","properties":{"id":152,"name":"Церква Різдва Пресвятої Богородиці","denomination":"ukrainian_greek_catholic","region":"Хмельницька область","image":"https://map.ugcc.ua/pub/base/.jpg","website":"https://map.ugcc.ua/view/152-"},"geometry":{"type":"Point","coordinates":[26.72081,49.61071]}},
{"type":"Feature","properties":{"id":151,"name":"Церква святого апостола Луки","denomination":"ukrainian_greek_catholic","region":"Хмельницька область","image":"https://map.ugcc.ua/pub/base/.jpg","website":"https://map.ugcc.ua/view/151-"},"geometry":{"type":"Point","coordinates":[26.7263,49.57821]}},
{"type":"Feature","properties":{"id":2521,"name":"Церква святого Миколая Чудотворця","denomination":"ukrainian_greek_catholic","region":"Хмельницька область","image":"https://map.ugcc.ua/pub/base/3a00762911bb534.jpg","website":"https://map.ugcc.ua/view/2521-"},"geometry":{"type":"Point","coordinates":[27.00019,49.41992]}},
{"type":"Feature","properties":{"id":149,"name":"Церква Успення Пресвятої Богородиці","denomination":"ukrainian_greek_catholic","region":"Хмельницька область","image":"https://map.ugcc.ua/pub/base/.jpg","website":"https://map.ugcc.ua/view/149-"},"geometry":{"type":"Point","coordinates":[26.35826,49.53857]}},
{"type":"Feature","properties":{"id":141,"name":"Церква Преображення Господнього","denomination":"ukrainian_greek_catholic","region":"Хмельницька область","image":"https://map.ugcc.ua/pub/base/.jpg","website":"https://map.ugcc.ua/view/141-"},"geometry":{"type":"Point","coordinates":[26.43585,49.48686]}},
{"type":"Feature","properties":{"id":148,"name":"Церква святих Володимира та Ольги","denomination":"ukrainian_greek_catholic","region":"Хмельницька область","image":"https://map.ugcc.ua/pub/base/.jpg","website":"https://map.ugcc.ua/view/148-"},"geometry":{"type":"Point","coordinates":[26.29749,49.51673]}},
{"type":"Feature","properties":{"id":142,"name":"Церква Різдва Пресвятої Богородиці","denomination":"ukrainian_greek_catholic","region":"Хмельницька область","image":"https://map.ugcc.ua/pub/base/.jpg","website":"https://map.ugcc.ua/view/142-"},"geometry":{"type":"Point","coordinates":[26.22316,49.53757]}},
{"type":"Feature","properties":{"id":752,"name":"Церква святих великомучеників Бориса і Гліба","denomination":"ukrainian_greek_catholic","region":"Хмельницька область","image":"https://map.ugcc.ua/pub/base/.jpg","website":"https://map.ugcc.ua/view/752-"},"geometry":{"type":"Point","coordinates":[27.26308,48.82965]}},
{"type":"Feature","properties":{"id":2273,"name":"Церква Святих верховних апостолів Петра і Павла","denomination":"ukrainian_greek_catholic","region":"Хмельницька область","image":"https://map.ugcc.ua/pub/base/.jpg","website":"https://map.ugcc.ua/view/2273-"},"geometry":{"type":"Point","coordinates":[26.21346,49.0994]}},
{"type":"Feature","properties":{"id":748,"name":"Церква Успіння Пресвятої Богородиці","denomination":"ukrainian_greek_catholic","region":"Хмельницька область","image":"https://map.ugcc.ua/pub/base/05b538877574c9d.jpg","website":"https://map.ugcc.ua/view/748-"},"geometry":{"type":"Point","coordinates":[27.0158,48.6339]}},
{"type":"Feature","properties":{"id":751,"name":"Церква Перенесення мощей святого Миколая Чудотворця","denomination":"ukrainian_greek_catholic","region":"Хмельницька область","image":"https://map.ugcc.ua/pub/base/d78c704ba4f2bad.jpg","website":"https://map.ugcc.ua/view/751-"},"geometry":{"type":"Point","coordinates":[27.08164,48.59554]}},
{"type":"Feature","properties":{"id":749,"name":"Церква Верховних апостолів Петра і Павла","denomination":"ukrainian_greek_catholic","region":"Хмельницька область","image":"https://map.ugcc.ua/pub/base/.jpg","website":"https://map.ugcc.ua/view/749-"},"geometry":{"type":"Point","coordinates":[27.04072,48.57501]}},
{"type":"Feature","properties":{"id":746,"name":"Церква Перенесеня мощей св. Миколая Чудотворця","denomination":"ukrainian_greek_catholic","region":"Хмельницька область","image":"https://map.ugcc.ua/pub/base/52044d3512a8854.jpg","website":"https://map.ugcc.ua/view/746-"},"geometry":{"type":"Point","coordinates":[26.4929,48.55018]}},
{"type":"Feature"}
]}
