{
"type": "FeatureCollection",
"errorDescr": "Church was not found",
"features": [
{"type":"Feature","properties":{"id":389,"name":"Церква святих рівноапостольських князів Володимира і Ольги","denomination":"ukrainian_greek_catholic","region":"Автономна Республіка Крим","image":"https://map.ugcc.ua/pub/base/f812f39b228d855.jpg","website":"https://map.ugcc.ua/view/389-"},"geometry":{"type":"Point","coordinates":[36.44418,45.35883]}},
{"type":"Feature","properties":{"id":385,"name":"Храм священомученика Йосафата","denomination":"ukrainian_greek_catholic","region":"Автономна Республіка Крим","image":"https://map.ugcc.ua/pub/base/50c2f57e0d4489d.jpg","website":"https://map.ugcc.ua/view/385-"},"geometry":{"type":"Point","coordinates":[34.08818,44.97025]}},
{"type":"Feature","properties":{"id":383,"name":"Церква Пресвятої Трійці","denomination":"ukrainian_greek_catholic","region":"Автономна Республіка Крим","image":"https://map.ugcc.ua/pub/base/78421044d86a92d.jpg","website":"https://map.ugcc.ua/view/383-"},"geometry":{"type":"Point","coordinates":[34.21211,44.50729]}},
{"type":"Feature","properties":{"id":3009,"name":"Церква святого Івана Богослова","denomination":"ukrainian_greek_catholic","region":"Житомирська область","image":"https://map.ugcc.ua/pub/base/708560fdb0ee247.jpg","website":"https://map.ugcc.ua/view/3009-"},"geometry":{"type":"Point","coordinates":[28.17721,50.03372]}},
{"type":"Feature","properties":{"id":2649,"name":"Церква Пресвятої Богородицi","denomination":"ukrainian_greek_catholic","region":"Івано-Франківська область","image":"https://map.ugcc.ua/pub/base/506c99ff1e430d4.jpg","website":"https://map.ugcc.ua/view/2649-"},"geometry":{"type":"Point","coordinates":[24.45687,49.35737]}},
{"type":"Feature","properties":{"id":3058,"name":"Церква верховних апостолів Петра і Павла","denomination":"ukrainian_greek_catholic","region":"Івано-Франківська область","image":"https://map.ugcc.ua/pub/base/7746bd26c5e8714.jpg","website":"https://map.ugcc.ua/view/3058-"},"geometry":{"type":"Point","coordinates":[24.58329,49.2439]}},
{"type":"Feature","properties":{"id":3266,"name":"Церква святої Параскеви","denomination":"ukrainian_greek_catholic","region":"Івано-Франківська область","image":"https://map.ugcc.ua/pub/base/c8e9625700f0a63.jpg","website":"https://map.ugcc.ua/view/3266-"},"geometry":{"type":"Point","coordinates":[24.45258,49.24984]}},
{"type":"Feature","properties":{"id":1159,"name":"Церква Різдва Пречистої Діви Марії","denomination":"ukrainian_greek_catholic","region":"Івано-Франківська область","image":"https://map.ugcc.ua/pub/base/968cad417b934de.jpg","website":"https://map.ugcc.ua/view/1159-"},"geometry":{"type":"Point","coordinates":[24.53496,49.19191]}},
{"type":"Feature","properties":{"id":406,"name":"Церква святого Миколая","denomination":"ukrainian_greek_catholic","region":"Івано-Франківська область","image":"https://map.ugcc.ua/pub/base/c2420fe3b7bee08.jpg","website":"https://map.ugcc.ua/view/406-"},"geometry":{"type":"Point","coordinates":[24.70765,48.99305]}},
{"type":"Feature","properties":{"id":2700,"name":"Церква Царя Христа","denomination":"ukrainian_greek_catholic","region":"Івано-Франківська область","image":"https://map.ugcc.ua/pub/base/59dc36353cab384.jpg","website":"https://map.ugcc.ua/view/2700-"},"geometry":{"type":"Point","coordinates":[25.0012,48.86292]}},
{"type":"Feature","properties":{"id":2124,"name":"Церква Покрови Пресвятої Богородиці","denomination":"ukrainian_greek_catholic","region":"Івано-Франківська область","image":"https://map.ugcc.ua/pub/base/260d43d3248c25d.jpg","website":"https://map.ugcc.ua/view/2124-"},"geometry":{"type":"Point","coordinates":[24.70853,48.93501]}},
{"type":"Feature","properties":{"id":2629,"name":"Церква Благовіщення Пресвятої Богородиці","denomination":"ukrainian_greek_catholic","region":"Івано-Франківська область","image":"https://map.ugcc.ua/pub/base/f0e99c4d4571398.jpg","website":"https://map.ugcc.ua/view/2629-"},"geometry":{"type":"Point","coordinates":[24.69503,48.93849]}},
{"type":"Feature","properties":{"id":851,"name":"Церква святого Івана Хрестителя","denomination":"ukrainian_greek_catholic","region":"Івано-Франківська область","image":"https://map.ugcc.ua/pub/base/454caf58d00cbf9.jpg","website":"https://map.ugcc.ua/view/851-"},"geometry":{"type":"Point","coordinates":[24.73281,48.90481]}},
{"type":"Feature","properties":{"id":176,"name":"Церква Різдва Пресвятої Богородиці","denomination":"ukrainian_greek_catholic","region":"Івано-Франківська область","image":"https://map.ugcc.ua/pub/base/6638801112cbf96.jpg","website":"https://map.ugcc.ua/view/176-"},"geometry":{"type":"Point","coordinates":[24.70409,48.91493]}},
{"type":"Feature","properties":{"id":2622,"name":"Церква святого Архистратига Михаїла","denomination":"ukrainian_greek_catholic","region":"Івано-Франківська область","image":"https://map.ugcc.ua/pub/base/58e6efd472b4319.jpg","website":"https://map.ugcc.ua/view/2622-"},"geometry":{"type":"Point","coordinates":[24.70522,48.90417]}},
{"type":"Feature","properties":{"id":2633,"name":"Церква Пресвятої Трійці","denomination":"ukrainian_greek_catholic","region":"Івано-Франківська область","image":"https://map.ugcc.ua/pub/base/807d4a64b398840.jpg","website":"https://map.ugcc.ua/view/2633-"},"geometry":{"type":"Point","coordinates":[24.69129,48.90529]}},
{"type":"Feature","properties":{"id":2630,"name":"Церква Вознесіння Господнього","denomination":"ukrainian_greek_catholic","region":"Івано-Франківська область","image":"https://map.ugcc.ua/pub/base/4bcb3ad9b19c469.jpg","website":"https://map.ugcc.ua/view/2630-"},"geometry":{"type":"Point","coordinates":[24.69324,48.90117]}},
{"type":"Feature","properties":{"id":2702,"name":"Церква Святих Володимира і Ольги","denomination":"ukrainian_greek_catholic","region":"Івано-Франківська область","image":"https://map.ugcc.ua/pub/base/.jpg","website":"https://map.ugcc.ua/view/2702-"},"geometry":{"type":"Point","coordinates":[24.35812,49.03302]}},
{"type":"Feature","properties":{"id":2060,"name":"Церква Покрову Пресвятої Богородиці","denomination":"ukrainian_greek_catholic","region":"Івано-Франківська область","image":"https://map.ugcc.ua/pub/base/e141ddc51d2ccaa.jpg","website":"https://map.ugcc.ua/view/2060-"},"geometry":{"type":"Point","coordinates":[25.09228,48.51512]}},
{"type":"Feature","properties":{"id":2125,"name":"Церква Успіння Пресвятої Богородиці","denomination":"ukrainian_greek_catholic","region":"Івано-Франківська область","image":"https://map.ugcc.ua/pub/base/.jpg","website":"https://map.ugcc.ua/view/2125-"},"geometry":{"type":"Point","coordinates":[24.30468,48.76876]}},
{"type":"Feature","properties":{"id":2523,"name":"Церква Володимира і Ольги","denomination":"ukrainian_greek_catholic","region":"Івано-Франківська область","image":"https://map.ugcc.ua/pub/base/05942c0c92000e1.jpg","website":"https://map.ugcc.ua/view/2523-"},"geometry":{"type":"Point","coordinates":[24.65689,48.6166]}},
{"type":"Feature","properties":{"id":2522,"name":"Церква Трьох Святителів","denomination":"ukrainian_greek_catholic","region":"Івано-Франківська область","image":"https://map.ugcc.ua/pub/base/.jpg","website":"https://map.ugcc.ua/view/2522-"},"geometry":{"type":"Point","coordinates":[24.58749,48.63658]}},
{"type":"Feature","properties":{"id":3176,"name":"Церква Вознесіння ГНІХ","denomination":"ukrainian_greek_catholic","region":"Івано-Франківська область","image":"https://map.ugcc.ua/pub/base/f8a3d0ffe5e2e55.jpg","website":"https://map.ugcc.ua/view/3176-"},"geometry":{"type":"Point","coordinates":[24.51611,48.59369]}},
{"type":"Feature","properties":{"id":3167,"name":"Церква святої великомучениці Варвари","denomination":"ukrainian_greek_catholic","region":"Івано-Франківська область","image":"https://map.ugcc.ua/pub/base/.jpg","website":"https://map.ugcc.ua/view/3167-"},"geometry":{"type":"Point","coordinates":[24.42919,48.6173]}},
{"type":"Feature","properties":{"id":3172,"name":"Церква Пресвятої Трійці","denomination":"ukrainian_greek_catholic","region":"Івано-Франківська область","image":"https://map.ugcc.ua/pub/base/1ef88563688bc5f.jpg","website":"https://map.ugcc.ua/view/3172-"},"geometry":{"type":"Point","coordinates":[24.47941,48.57664]}},
{"type":"Feature","properties":{"id":51,"name":"Церква Пресвятої Трійці","denomination":"ukrainian_greek_catholic","region":"Івано-Франківська область","image":"https://map.ugcc.ua/pub/base/97a0057eeb7fbdf.jpg","website":"https://map.ugcc.ua/view/51-"},"geometry":{"type":"Point","coordinates":[24.81342,48.32851]}},
{"type":"Feature","properties":{"id":938,"name":"Каплиця Царя Христа","denomination":"ukrainian_greek_catholic","region":"Луганська область","image":"https://map.ugcc.ua/pub/base/.jpg","website":"https://map.ugcc.ua/view/938-"},"geometry":{"type":"Point","coordinates":[38.49174,48.93693]}},
{"type":"Feature","properties":{"id":939,"name":"Церква Різдва Пресвятої Богородиці","denomination":"ukrainian_greek_catholic","region":"Луганська область","image":"https://map.ugcc.ua/pub/base/04b4c43557c72ee.jpg","website":"https://map.ugcc.ua/view/939-"},"geometry":{"type":"Point","coordinates":[38.1996,49.0395]}},
{"type":"Feature","properties":{"id":3274,"name":"Церква Собору Пресвятої Богородиці","denomination":"ukrainian_greek_catholic","region":"Львівська область","image":"https://map.ugcc.ua/pub/base/36b6c8054a565d3.jpg","website":"https://map.ugcc.ua/view/3274-"},"geometry":{"type":"Point","coordinates":[24.19806,50.29917]}},
{"type":"Feature","properties":{"id":2995,"name":"Церква Пресвятої Євхаристії","denomination":"ukrainian_greek_catholic","region":"Львівська область","image":"https://map.ugcc.ua/pub/base/e8b9bb545e1f68f.jpg","website":"https://map.ugcc.ua/view/2995-"},"geometry":{"type":"Point","coordinates":[24.79201,50.01396]}},
{"type":"Feature","properties":{"id":1904,"name":"Церква Успіння Пресвятої Богородиці","denomination":"ukrainian_greek_catholic","region":"Львівська область","image":"https://map.ugcc.ua/pub/base/b315c0e58810db0.jpg","website":"https://map.ugcc.ua/view/1904-"},"geometry":{"type":"Point","coordinates":[25.09656,49.87115]}},
{"type":"Feature","properties":{"id":1923,"name":"Церква святих апостолів Петра і Павла","denomination":"ukrainian_greek_catholic","region":"Львівська область","image":"https://map.ugcc.ua/pub/base/.jpg","website":"https://map.ugcc.ua/view/1923-"},"geometry":{"type":"Point","coordinates":[25.05368,49.87167]}},
{"type":"Feature","properties":{"id":1918,"name":"Церква святого Архистратига Михаїла","denomination":"ukrainian_greek_catholic","region":"Львівська область","image":"https://map.ugcc.ua/pub/base/40b936357e6d633.jpg","website":"https://map.ugcc.ua/view/1918-"},"geometry":{"type":"Point","coordinates":[25.05571,49.84454]}},
{"type":"Feature","properties":{"id":1901,"name":"Церква Пресвятої Тройці","denomination":"ukrainian_greek_catholic","region":"Львівська область","image":"https://map.ugcc.ua/pub/base/92261b3e13cc9a4.jpg","website":"https://map.ugcc.ua/view/1901-"},"geometry":{"type":"Point","coordinates":[24.85548,49.89688]}},
{"type":"Feature","properties":{"id":1922,"name":"Церква святих апостолів Петра і Павла","denomination":"ukrainian_greek_catholic","region":"Львівська область","image":"https://map.ugcc.ua/pub/base/.jpg","website":"https://map.ugcc.ua/view/1922-"},"geometry":{"type":"Point","coordinates":[25.01993,49.82914]}},
{"type":"Feature","properties":{"id":1927,"name":"Церква святого Архистратига Михаїла","denomination":"ukrainian_greek_catholic","region":"Львівська область","image":"https://map.ugcc.ua/pub/base/.jpg","website":"https://map.ugcc.ua/view/1927-"},"geometry":{"type":"Point","coordinates":[24.79831,49.91252]}},
{"type":"Feature","properties":{"id":3117,"name":"Церква святих апостолів Петра і Павла","denomination":"ukrainian_greek_catholic","region":"Львівська область","image":"https://map.ugcc.ua/pub/base/.jpg","website":"https://map.ugcc.ua/view/3117-"},"geometry":{"type":"Point","coordinates":[25.08024,49.78983]}},
{"type":"Feature","properties":{"id":3130,"name":"Церква Успення Пресвятої Богородиці","denomination":"ukrainian_greek_catholic","region":"Львівська область","image":"https://map.ugcc.ua/pub/base/d7e380b283ef250.jpg","website":"https://map.ugcc.ua/view/3130-"},"geometry":{"type":"Point","coordinates":[25.0395,49.80211]}},
{"type":"Feature","properties":{"id":1921,"name":"Церква Різдва Пресвятої Богородиці","denomination":"ukrainian_greek_catholic","region":"Львівська область","image":"https://map.ugcc.ua/pub/base/.jpg","website":"https://map.ugcc.ua/view/1921-"},"geometry":{"type":"Point","coordinates":[24.98838,49.8173]}},
{"type":"Feature","properties":{"id":1911,"name":"Церква свв. Володимира і Ольги","denomination":"ukrainian_greek_catholic","region":"Львівська область","image":"https://map.ugcc.ua/pub/base/f81e1391f1aa8c4.jpg","website":"https://map.ugcc.ua/view/1911-"},"geometry":{"type":"Point","coordinates":[24.94096,49.82194]}},
{"type":"Feature","properties":{"id":1917,"name":"Церква Покрови Пресвятої Богородиці","denomination":"ukrainian_greek_catholic","region":"Львівська область","image":"https://map.ugcc.ua/pub/base/613ca8ec9609feb.jpg","website":"https://map.ugcc.ua/view/1917-"},"geometry":{"type":"Point","coordinates":[24.98642,49.79765]}},
{"type":"Feature","properties":{"id":1906,"name":"Церква святого Миколая","denomination":"ukrainian_greek_catholic","region":"Львівська область","image":"https://map.ugcc.ua/pub/base/540706eaaf4e54e.jpg","website":"https://map.ugcc.ua/view/1906-"},"geometry":{"type":"Point","coordinates":[24.78294,49.87475]}},
{"type":"Feature","properties":{"id":1916,"name":"Церква Різдва Святого Івана Христителя","denomination":"ukrainian_greek_catholic","region":"Львівська область","image":"https://map.ugcc.ua/pub/base/500ffa062777317.jpg","website":"https://map.ugcc.ua/view/1916-"},"geometry":{"type":"Point","coordinates":[24.92303,49.80957]}},
{"type":"Feature","properties":{"id":1931,"name":"Церква Покрови Пресвятої Богородиці","denomination":"ukrainian_greek_catholic","region":"Львівська область","image":"https://map.ugcc.ua/pub/base/e13ae5be3212936.jpg","website":"https://map.ugcc.ua/view/1931-"},"geometry":{"type":"Point","coordinates":[24.85553,49.83383]}},
{"type":"Feature","properties":{"id":3128,"name":"Церква Успіння Пресвятої Богородиці","denomination":"ukrainian_greek_catholic","region":"Львівська область","image":"https://map.ugcc.ua/pub/base/5675d87e29a1e1d.jpg","website":"https://map.ugcc.ua/view/3128-"},"geometry":{"type":"Point","coordinates":[24.93996,49.78813]}},
{"type":"Feature","properties":{"id":1915,"name":"Церква Різдва Пресвятої Богородиці","denomination":"ukrainian_greek_catholic","region":"Львівська область","image":"https://map.ugcc.ua/pub/base/55c3c43c6227ef8.jpg","website":"https://map.ugcc.ua/view/1915-"},"geometry":{"type":"Point","coordinates":[24.91133,49.79727]}},
{"type":"Feature","properties":{"id":1459,"name":"Церква Перенесення Мощей Святого Миколая Чудотворця","denomination":"ukrainian_greek_catholic","region":"Львівська область","image":"https://map.ugcc.ua/pub/base/b404211c9d73514.jpg","website":"https://map.ugcc.ua/view/1459-"},"geometry":{"type":"Point","coordinates":[24.98125,49.76788]}},
{"type":"Feature","properties":{"id":1912,"name":"Церква Вознесіння ГНІХ","denomination":"ukrainian_greek_catholic","region":"Львівська область","image":"https://map.ugcc.ua/pub/base/bd1cfc456ef5b1c.jpg","website":"https://map.ugcc.ua/view/1912-"},"geometry":{"type":"Point","coordinates":[24.87507,49.80681]}},
{"type":"Feature","properties":{"id":1902,"name":"Церква Успення Пресвятої Богородиці","denomination":"ukrainian_greek_catholic","region":"Львівська область","image":"https://map.ugcc.ua/pub/base/.jpg","website":"https://map.ugcc.ua/view/1902-"},"geometry":{"type":"Point","coordinates":[24.83015,49.82283]}},
{"type":"Feature","properties":{"id":3137,"name":"Церква Преображення ГНІХ","denomination":"ukrainian_greek_catholic","region":"Львівська область","image":"https://map.ugcc.ua/pub/base/.jpg","website":"https://map.ugcc.ua/view/3137-"},"geometry":{"type":"Point","coordinates":[24.84479,49.80546]}},
{"type":"Feature","properties":{"id":3024,"name":"Церква Преображення Господнього","denomination":"ukrainian_greek_catholic","region":"Львівська область","image":"https://map.ugcc.ua/pub/base/ce0545f6eb6c299.jpg","website":"https://map.ugcc.ua/view/3024-"},"geometry":{"type":"Point","coordinates":[24.55733,49.90905]}},
{"type":"Feature","properties":{"id":2509,"name":"Церква святих жінок-мироносиць","denomination":"ukrainian_greek_catholic","region":"Львівська область","image":"https://map.ugcc.ua/pub/base/3d2fd75c9200850.jpg","website":"https://map.ugcc.ua/view/2509-"},"geometry":{"type":"Point","coordinates":[24.88249,49.77855]}},
{"type":"Feature","properties":{"id":1892,"name":"Церква святих апостолів Петра і Павла","denomination":"ukrainian_greek_catholic","region":"Львівська область","image":"https://map.ugcc.ua/pub/base/538984e94b3589d.jpg","website":"https://map.ugcc.ua/view/1892-"},"geometry":{"type":"Point","coordinates":[24.69041,49.77184]}},
{"type":"Feature","properties":{"id":1883,"name":"Церква Пресвятої Трійці","denomination":"ukrainian_greek_catholic","region":"Львівська область","image":"https://map.ugcc.ua/pub/base/5ef193b657e69c7.jpg","website":"https://map.ugcc.ua/view/1883-"},"geometry":{"type":"Point","coordinates":[24.72118,49.75052]}},
{"type":"Feature","properties":{"id":2917,"name":"Церква святого архістратига Михаїла","denomination":"ukrainian_greek_catholic","region":"Львівська область","image":"https://map.ugcc.ua/pub/base/.jpg","website":"https://map.ugcc.ua/view/2917-"},"geometry":{"type":"Point","coordinates":[24.75083,49.70083]}},
{"type":"Feature","properties":{"id":315,"name":"Церква Пресвятої Тройці","denomination":"ukrainian_greek_catholic","region":"Львівська область","image":"https://map.ugcc.ua/pub/base/5e34a01d63bda09.jpg","website":"https://map.ugcc.ua/view/315-"},"geometry":{"type":"Point","coordinates":[24.27742,49.86344]}},
{"type":"Feature","properties":{"id":2920,"name":"Церква Покрови Пресвятої Богородиці","denomination":"ukrainian_greek_catholic","region":"Львівська область","image":"https://map.ugcc.ua/pub/base/.jpg","website":"https://map.ugcc.ua/view/2920-"},"geometry":{"type":"Point","coordinates":[24.71816,49.67972]}},
{"type":"Feature","properties":{"id":328,"name":"Церква Собору Пресвятої Богородиці","denomination":"ukrainian_greek_catholic","region":"Львівська область","image":"https://map.ugcc.ua/pub/base/ade8eee154b4c1b.jpg","website":"https://map.ugcc.ua/view/328-"},"geometry":{"type":"Point","coordinates":[24.28331,49.84582]}},
{"type":"Feature","properties":{"id":2912,"name":"Церква Преподобного Симеона","denomination":"ukrainian_greek_catholic","region":"Львівська область","image":"https://map.ugcc.ua/pub/base/.jpg","website":"https://map.ugcc.ua/view/2912-"},"geometry":{"type":"Point","coordinates":[24.65054,49.69632]}},
{"type":"Feature","properties":{"id":344,"name":"Церква Покрову Пресвятої Богородиці","denomination":"ukrainian_greek_catholic","region":"Львівська область","image":"https://map.ugcc.ua/pub/base/72a26e1cc761cff.jpg","website":"https://map.ugcc.ua/view/344-"},"geometry":{"type":"Point","coordinates":[24.16958,49.87329]}},
{"type":"Feature","properties":{"id":2911,"name":"Церква Вознесіння Христового","denomination":"ukrainian_greek_catholic","region":"Львівська область","image":"https://map.ugcc.ua/pub/base/42abffbc1c8f604.jpg","website":"https://map.ugcc.ua/view/2911-"},"geometry":{"type":"Point","coordinates":[24.58566,49.71088]}},
{"type":"Feature","properties":{"id":324,"name":"Церква Усікновення Голови Івана Христителя","denomination":"ukrainian_greek_catholic","region":"Львівська область","image":"https://map.ugcc.ua/pub/base/9f3b48c71857adf.jpg","website":"https://map.ugcc.ua/view/324-"},"geometry":{"type":"Point","coordinates":[24.16239,49.86674]}},
{"type":"Feature","properties":{"id":332,"name":"Церква Богоявлення ГНІХ","denomination":"ukrainian_greek_catholic","region":"Львівська область","image":"https://map.ugcc.ua/pub/base/aa2b712050d704f.jpg","website":"https://map.ugcc.ua/view/332-"},"geometry":{"type":"Point","coordinates":[24.13011,49.8734]}},
{"type":"Feature","properties":{"id":326,"name":"Церква Різдва Пресвятої Богородиці","denomination":"ukrainian_greek_catholic","region":"Львівська область","image":"https://map.ugcc.ua/pub/base/.jpg","website":"https://map.ugcc.ua/view/326-"},"geometry":{"type":"Point","coordinates":[24.22359,49.83112]}},
{"type":"Feature","properties":{"id":327,"name":"Церква Введення в Храм Пресвятої Богородиці","denomination":"ukrainian_greek_catholic","region":"Львівська область","image":"https://map.ugcc.ua/pub/base/1835476f978ad6a.jpg","website":"https://map.ugcc.ua/view/327-"},"geometry":{"type":"Point","coordinates":[24.09621,49.87752]}},
{"type":"Feature","properties":{"id":382,"name":"Церква святого Івана Хрестителя","denomination":"ukrainian_greek_catholic","region":"Львівська область","image":"https://map.ugcc.ua/pub/base/c48caab430fadfc.jpg","website":"https://map.ugcc.ua/view/382-"},"geometry":{"type":"Point","coordinates":[24.52904,49.6823]}},
{"type":"Feature","properties":{"id":2910,"name":"Церква святої Параскеви","denomination":"ukrainian_greek_catholic","region":"Львівська область","image":"https://map.ugcc.ua/pub/base/.jpg","website":"https://map.ugcc.ua/view/2910-"},"geometry":{"type":"Point","coordinates":[24.68075,49.6154]}},
{"type":"Feature","properties":{"id":2890,"name":"Церква Перенесення мощей святого Миколая","denomination":"ukrainian_greek_catholic","region":"Львівська область","image":"https://map.ugcc.ua/pub/base/06d9012bc0dd14f.jpg","website":"https://map.ugcc.ua/view/2890-"},"geometry":{"type":"Point","coordinates":[24.65985,49.61898]}},
{"type":"Feature","properties":{"id":335,"name":"Церква святого Миколая","denomination":"ukrainian_greek_catholic","region":"Львівська область","image":"https://map.ugcc.ua/pub/base/b22bdf3b13c0923.jpg","website":"https://map.ugcc.ua/view/335-"},"geometry":{"type":"Point","coordinates":[24.1755,49.79783]}},
{"type":"Feature","properties":{"id":279,"name":"Церква Покрову Пресвятої Богородиці","denomination":"ukrainian_greek_catholic","region":"Львівська область","image":"https://map.ugcc.ua/pub/base/76ee4d8b749f6ca.jpg","website":"https://map.ugcc.ua/view/279-"},"geometry":{"type":"Point","coordinates":[24.06718,49.83636]}},
{"type":"Feature","properties":{"id":2549,"name":"Церква святого Миколая","denomination":"ukrainian_greek_catholic","region":"Львівська область","image":"https://map.ugcc.ua/pub/base/.jpg","website":"https://map.ugcc.ua/view/2549-"},"geometry":{"type":"Point","coordinates":[24.41145,49.70219]}},
{"type":"Feature","properties":{"id":2552,"name":"Церква святого Миколая","denomination":"ukrainian_greek_catholic","region":"Львівська область","image":"https://map.ugcc.ua/pub/base/.jpg","website":"https://map.ugcc.ua/view/2552-"},"geometry":{"type":"Point","coordinates":[24.3947,49.70615]}},
{"type":"Feature","properties":{"id":2556,"name":"Церква святого Андрія Первозванного","denomination":"ukrainian_greek_catholic","region":"Львівська область","image":"https://map.ugcc.ua/pub/base/.jpg","website":"https://map.ugcc.ua/view/2556-"},"geometry":{"type":"Point","coordinates":[24.43322,49.67552]}},
{"type":"Feature","properties":{"id":321,"name":"Церква святого Великомученика Димитрія","denomination":"ukrainian_greek_catholic","region":"Львівська область","image":"https://map.ugcc.ua/pub/base/.jpg","website":"https://map.ugcc.ua/view/321-"},"geometry":{"type":"Point","coordinates":[24.15938,49.77669]}},
{"type":"Feature","properties":{"id":2905,"name":"Церква Воскресіння Господнього","denomination":"ukrainian_greek_catholic","region":"Львівська область","image":"https://map.ugcc.ua/pub/base/.jpg","website":"https://map.ugcc.ua/view/2905-"},"geometry":{"type":"Point","coordinates":[24.61864,49.59896]}},
{"type":"Feature","properties":{"id":492,"name":"Церква святого Миколая","denomination":"ukrainian_greek_catholic","region":"Львівська область","image":"https://map.ugcc.ua/pub/base/3bf09e91cc2bed6.jpg","website":"https://map.ugcc.ua/view/492-"},"geometry":{"type":"Point","coordinates":[24.24413,49.74048]}},
{"type":"Feature","properties":{"id":2906,"name":"Церква Представлення святого Івана Богослова","denomination":"ukrainian_greek_catholic","region":"Львівська область","image":"https://map.ugcc.ua/pub/base/.jpg","website":"https://map.ugcc.ua/view/2906-"},"geometry":{"type":"Point","coordinates":[24.59692,49.59457]}},
{"type":"Feature","properties":{"id":2900,"name":"Церква Введення в Храм Пресвятої Богородиці","denomination":"ukrainian_greek_catholic","region":"Львівська область","image":"https://map.ugcc.ua/pub/base/.jpg","website":"https://map.ugcc.ua/view/2900-"},"geometry":{"type":"Point","coordinates":[24.49069,49.62866]}},
{"type":"Feature","properties":{"id":2895,"name":"Церква Преображення Господнього","denomination":"ukrainian_greek_catholic","region":"Львівська область","image":"https://map.ugcc.ua/pub/base/a66ae717c75f8c8.jpg","website":"https://map.ugcc.ua/view/2895-"},"geometry":{"type":"Point","coordinates":[24.53476,49.59957]}},
{"type":"Feature","properties":{"id":2904,"name":"Церква святої великомучениці Параскевії","denomination":"ukrainian_greek_catholic","region":"Львівська область","image":"https://map.ugcc.ua/pub/base/.jpg","website":"https://map.ugcc.ua/view/2904-"},"geometry":{"type":"Point","coordinates":[24.60572,49.56786]}},
{"type":"Feature","properties":{"id":500,"name":"Церква Різдва Пресвятої Богородиці","denomination":"ukrainian_greek_catholic","region":"Львівська область","image":"https://map.ugcc.ua/pub/base/.jpg","website":"https://map.ugcc.ua/view/500-"},"geometry":{"type":"Point","coordinates":[24.14191,49.74353]}},
{"type":"Feature","properties":{"id":967,"name":"Церква святого Івана Хрестителя","denomination":"ukrainian_greek_catholic","region":"Львівська область","image":"https://map.ugcc.ua/pub/base/92951480dceb4c9.jpg","website":"https://map.ugcc.ua/view/967-"},"geometry":{"type":"Point","coordinates":[24.6514,49.5423]}},
{"type":"Feature","properties":{"id":968,"name":"Церква Богоявлення Господнього","denomination":"ukrainian_greek_catholic","region":"Львівська область","image":"https://map.ugcc.ua/pub/base/1b5e852cd5b4187.jpg","website":"https://map.ugcc.ua/view/968-"},"geometry":{"type":"Point","coordinates":[24.65181,49.54199]}},
{"type":"Feature","properties":{"id":2557,"name":"Церква Покрови Пресвятої Богородиці","denomination":"ukrainian_greek_catholic","region":"Львівська область","image":"https://map.ugcc.ua/pub/base/be4b6d684944d03.jpg","website":"https://map.ugcc.ua/view/2557-"},"geometry":{"type":"Point","coordinates":[24.44489,49.62242]}},
{"type":"Feature","properties":{"id":2555,"name":"Церква святого Івана Хрестителя","denomination":"ukrainian_greek_catholic","region":"Львівська область","image":"https://map.ugcc.ua/pub/base/.jpg","website":"https://map.ugcc.ua/view/2555-"},"geometry":{"type":"Point","coordinates":[24.44486,49.62242]}},
{"type":"Feature","properties":{"id":2896,"name":"Церква Покрови Пресвятої Богородиці","denomination":"ukrainian_greek_catholic","region":"Львівська область","image":"https://map.ugcc.ua/pub/base/.jpg","website":"https://map.ugcc.ua/view/2896-"},"geometry":{"type":"Point","coordinates":[24.51497,49.58828]}},
{"type":"Feature","properties":{"id":2903,"name":"Церква святого архистратига Михаїла","denomination":"ukrainian_greek_catholic","region":"Львівська область","image":"https://map.ugcc.ua/pub/base/.jpg","website":"https://map.ugcc.ua/view/2903-"},"geometry":{"type":"Point","coordinates":[24.53091,49.5786]}},
{"type":"Feature","properties":{"id":494,"name":"Церква Собору Пресвятої Богородиці","denomination":"ukrainian_greek_catholic","region":"Львівська область","image":"https://map.ugcc.ua/pub/base/.jpg","website":"https://map.ugcc.ua/view/494-"},"geometry":{"type":"Point","coordinates":[24.19395,49.70614]}},
{"type":"Feature","properties":{"id":827,"name":"Церква святого Архистратига Михаїла","denomination":"ukrainian_greek_catholic","region":"Львівська область","image":"https://map.ugcc.ua/pub/base/2f422f9e027878a.jpg","website":"https://map.ugcc.ua/view/827-"},"geometry":{"type":"Point","coordinates":[24.59787,49.53324]}},
{"type":"Feature","properties":{"id":666,"name":"Церква Воздвиження Чесного та Животворящого Хреста Господнього","denomination":"ukrainian_greek_catholic","region":"Львівська область","image":"https://map.ugcc.ua/pub/base/.jpg","website":"https://map.ugcc.ua/view/666-"},"geometry":{"type":"Point","coordinates":[24.5212,49.56244]}},
{"type":"Feature","properties":{"id":91,"name":"Церква Благовіщення Пресвятої Богородиці","denomination":"ukrainian_greek_catholic","region":"Львівська область","image":"https://map.ugcc.ua/pub/base/73a44dfae98129f.jpg","website":"https://map.ugcc.ua/view/91-"},"geometry":{"type":"Point","coordinates":[24.47143,49.57507]}},
{"type":"Feature","properties":{"id":2580,"name":"Церква Покрови Пресвятої Богородиці","denomination":"ukrainian_greek_catholic","region":"Львівська область","image":"https://map.ugcc.ua/pub/base/9de56f3017fb706.jpg","website":"https://map.ugcc.ua/view/2580-"},"geometry":{"type":"Point","coordinates":[23.73312,49.84116]}},
{"type":"Feature","properties":{"id":665,"name":"Церква Різдва Пресвятої Богородиці","denomination":"ukrainian_greek_catholic","region":"Львівська область","image":"https://map.ugcc.ua/pub/base/1b568e152bb7941.jpg","website":"https://map.ugcc.ua/view/665-"},"geometry":{"type":"Point","coordinates":[24.46968,49.55769]}},
{"type":"Feature","properties":{"id":2877,"name":"Церква Різдва Пресвятої Богордиці","denomination":"ukrainian_greek_catholic","region":"Львівська область","image":"https://map.ugcc.ua/pub/base/.jpg","website":"https://map.ugcc.ua/view/2877-"},"geometry":{"type":"Point","coordinates":[24.3669,49.51169]}},
{"type":"Feature","properties":{"id":1945,"name":"Церква святого Миколая","denomination":"ukrainian_greek_catholic","region":"Львівська область","image":"https://map.ugcc.ua/pub/base/29cf1a7dd505cb9.jpg","website":"https://map.ugcc.ua/view/1945-"},"geometry":{"type":"Point","coordinates":[23.16077,49.96069]}},
{"type":"Feature","properties":{"id":2892,"name":"Церква Пресвятої Євхаристії","denomination":"ukrainian_greek_catholic","region":"Львівська область","image":"https://map.ugcc.ua/pub/base/.jpg","website":"https://map.ugcc.ua/view/2892-"},"geometry":{"type":"Point","coordinates":[24.3429,49.50028]}},
{"type":"Feature","properties":{"id":2932,"name":"Церква Успення Пресвятої Богородиці","denomination":"ukrainian_greek_catholic","region":"Львівська область","image":"https://map.ugcc.ua/pub/base/55a48cc21aa796f.jpg","website":"https://map.ugcc.ua/view/2932-"},"geometry":{"type":"Point","coordinates":[24.23363,49.52996]}},
{"type":"Feature","properties":{"id":1934,"name":"Церква святої Параскевії","denomination":"ukrainian_greek_catholic","region":"Львівська область","image":"https://map.ugcc.ua/pub/base/a6f41a01cdc7f80.jpg","website":"https://map.ugcc.ua/view/1934-"},"geometry":{"type":"Point","coordinates":[23.26141,49.89252]}},
{"type":"Feature","properties":{"id":2889,"name":"Церква святого Миколая","denomination":"ukrainian_greek_catholic","region":"Львівська область","image":"https://map.ugcc.ua/pub/base/.jpg","website":"https://map.ugcc.ua/view/2889-"},"geometry":{"type":"Point","coordinates":[24.38359,49.47164]}},
{"type":"Feature","properties":{"id":1937,"name":"Церква преподобного Онуфрія Великого","denomination":"ukrainian_greek_catholic","region":"Львівська область","image":"https://map.ugcc.ua/pub/base/18820b56773fde8.jpg","website":"https://map.ugcc.ua/view/1937-"},"geometry":{"type":"Point","coordinates":[23.12155,49.93992]}},
{"type":"Feature","properties":{"id":1958,"name":"Церква Різдва св. Івана Хрестителя","denomination":"ukrainian_greek_catholic","region":"Львівська область","image":"https://map.ugcc.ua/pub/base/.jpg","website":"https://map.ugcc.ua/view/1958-"},"geometry":{"type":"Point","coordinates":[23.2843,49.87677]}},
{"type":"Feature","properties":{"id":2893,"name":"Церква святого архістратига Михаїла","denomination":"ukrainian_greek_catholic","region":"Львівська область","image":"https://map.ugcc.ua/pub/base/f033dfb46ddf80b.jpg","website":"https://map.ugcc.ua/view/2893-"},"geometry":{"type":"Point","coordinates":[24.37455,49.45406]}},
{"type":"Feature","properties":{"id":2934,"name":"Церква святого архістратига Михаїла","denomination":"ukrainian_greek_catholic","region":"Львівська область","image":"https://map.ugcc.ua/pub/base/.jpg","website":"https://map.ugcc.ua/view/2934-"},"geometry":{"type":"Point","coordinates":[24.31501,49.45804]}},
{"type":"Feature","properties":{"id":2935,"name":"Церква Успіння Пресвятої Богородиці","denomination":"ukrainian_greek_catholic","region":"Львівська область","image":"https://map.ugcc.ua/pub/base/afd8422d740b553.jpg","website":"https://map.ugcc.ua/view/2935-"},"geometry":{"type":"Point","coordinates":[24.25668,49.45654]}},
{"type":"Feature","properties":{"id":2928,"name":"Церква святого Пророка Іллі","denomination":"ukrainian_greek_catholic","region":"Львівська область","image":"https://map.ugcc.ua/pub/base/.jpg","website":"https://map.ugcc.ua/view/2928-"},"geometry":{"type":"Point","coordinates":[24.36571,49.40003]}},
{"type":"Feature","properties":{"id":86,"name":"Церква Святого архистратига Михаїла","denomination":"ukrainian_greek_catholic","region":"Львівська область","image":"https://map.ugcc.ua/pub/base/76ad1dcc34a5367.jpg","website":"https://map.ugcc.ua/view/86-"},"geometry":{"type":"Point","coordinates":[24.40355,49.37661]}},
{"type":"Feature","properties":{"id":2940,"name":"Церква Воздвиження Чесного Хреста","denomination":"ukrainian_greek_catholic","region":"Львівська область","image":"https://map.ugcc.ua/pub/base/69ff58e387e201f.jpg","website":"https://map.ugcc.ua/view/2940-"},"geometry":{"type":"Point","coordinates":[24.36808,49.37274]}},
{"type":"Feature","properties":{"id":2930,"name":"Церква Різдва Пресвятої Діви Марії","denomination":"ukrainian_greek_catholic","region":"Львівська область","image":"https://map.ugcc.ua/pub/base/d8bfdc6ec7d0c1e.jpg","website":"https://map.ugcc.ua/view/2930-"},"geometry":{"type":"Point","coordinates":[24.31552,49.38337]}},
{"type":"Feature","properties":{"id":2939,"name":"Церква святої Параскевії","denomination":"ukrainian_greek_catholic","region":"Львівська область","image":"https://map.ugcc.ua/pub/base/b7345a7f4a3145d.jpg","website":"https://map.ugcc.ua/view/2939-"},"geometry":{"type":"Point","coordinates":[24.35952,49.36036]}},
{"type":"Feature","properties":{"id":2945,"name":"Церква святого Архистратига Михаїла","denomination":"ukrainian_greek_catholic","region":"Львівська область","image":"https://map.ugcc.ua/pub/base/21157d3ce993d25.jpg","website":"https://map.ugcc.ua/view/2945-"},"geometry":{"type":"Point","coordinates":[24.37799,49.34566]}},
{"type":"Feature","properties":{"id":2929,"name":"Церква Покрови Пресвятої Богородиці","denomination":"ukrainian_greek_catholic","region":"Львівська область","image":"https://map.ugcc.ua/pub/base/02bbf77c7cb2587.jpg","website":"https://map.ugcc.ua/view/2929-"},"geometry":{"type":"Point","coordinates":[24.29709,49.37249]}},
{"type":"Feature","properties":{"id":2936,"name":"Церква вуликомучениці Параскевії","denomination":"ukrainian_greek_catholic","region":"Львівська область","image":"https://map.ugcc.ua/pub/base/4f5c7c3eab76ebe.jpg","website":"https://map.ugcc.ua/view/2936-"},"geometry":{"type":"Point","coordinates":[24.33641,49.33256]}},
{"type":"Feature","properties":{"id":2776,"name":"Церква Покрови Пресвятої Богородиці","denomination":"ukrainian_greek_catholic","region":"Львівська область","image":"https://map.ugcc.ua/pub/base/.jpg","website":"https://map.ugcc.ua/view/2776-"},"geometry":{"type":"Point","coordinates":[24.169,49.35969]}},
{"type":"Feature","properties":{"id":2796,"name":"Церква Різдва Пресвятої Богородиці","denomination":"ukrainian_greek_catholic","region":"Львівська область","image":"https://map.ugcc.ua/pub/base/330ac0e4e1c2e12.jpg","website":"https://map.ugcc.ua/view/2796-"},"geometry":{"type":"Point","coordinates":[24.39012,49.21129]}},
{"type":"Feature","properties":{"id":2096,"name":"Церква святого Миколая","denomination":"ukrainian_greek_catholic","region":"Львівська область","image":"https://map.ugcc.ua/pub/base/d98a0f29f057b0e.jpg","website":"https://map.ugcc.ua/view/2096-"},"geometry":{"type":"Point","coordinates":[24.34011,49.2168]}},
{"type":"Feature","properties":{"id":887,"name":"Церква святого Миколи","denomination":"ukrainian_greek_catholic","region":"Львівська область","image":"https://map.ugcc.ua/pub/base/6cd378d2f8a1a7b.jpg","website":"https://map.ugcc.ua/view/887-"},"geometry":{"type":"Point","coordinates":[24.28913,49.23542]}},
{"type":"Feature","properties":{"id":829,"name":"Церква Івана Хрестителя","denomination":"ukrainian_greek_catholic","region":"Львівська область","image":"https://map.ugcc.ua/pub/base/ba9eb8e680a7442.jpg","website":"https://map.ugcc.ua/view/829-"},"geometry":{"type":"Point","coordinates":[24.24837,49.24036]}},
{"type":"Feature","properties":{"id":2788,"name":"Церква Різдва Христового","denomination":"ukrainian_greek_catholic","region":"Львівська область","image":"https://map.ugcc.ua/pub/base/8502e62717799f4.jpg","website":"https://map.ugcc.ua/view/2788-"},"geometry":{"type":"Point","coordinates":[24.30145,49.20513]}},
{"type":"Feature","properties":{"id":2789,"name":"Церква святого Миколая","denomination":"ukrainian_greek_catholic","region":"Львівська область","image":"https://map.ugcc.ua/pub/base/417d63c1544eabe.jpg","website":"https://map.ugcc.ua/view/2789-"},"geometry":{"type":"Point","coordinates":[24.2489,49.219]}},
{"type":"Feature","properties":{"id":2790,"name":"Церква Різдва Пресвятої Богородиці","denomination":"ukrainian_greek_catholic","region":"Львівська область","image":"https://map.ugcc.ua/pub/base/20b9e34a1c382cd.jpg","website":"https://map.ugcc.ua/view/2790-"},"geometry":{"type":"Point","coordinates":[24.26292,49.19759]}},
{"type":"Feature","properties":{"id":2988,"name":"Церква Зіслання Святого Духа","denomination":"ukrainian_greek_catholic","region":"Львівська область","image":"https://map.ugcc.ua/pub/base/bd388da6a3228a6.jpg","website":"https://map.ugcc.ua/view/2988-"},"geometry":{"type":"Point","coordinates":[23.13694,49.5675]}},
{"type":"Feature","properties":{"id":738,"name":"Церква Миколая Чарнецького","denomination":"ukrainian_greek_catholic","region":"Львівська область","image":"https://map.ugcc.ua/pub/base/d3541d49d94c73a.jpg","website":"https://map.ugcc.ua/view/738-"},"geometry":{"type":"Point","coordinates":[23.84956,49.27354]}},
{"type":"Feature","properties":{"id":3041,"name":"Церква Вознесіння Господнього","denomination":"ukrainian_greek_catholic","region":"Львівська область","image":"https://map.ugcc.ua/pub/base/7533351a9f44437.jpg","website":"https://map.ugcc.ua/view/3041-"},"geometry":{"type":"Point","coordinates":[23.40612,49.28025]}},
{"type":"Feature","properties":{"id":1494,"name":"Церква Архангела Михаїла","denomination":"ukrainian_greek_catholic","region":"Львівська область","image":"https://map.ugcc.ua/pub/base/46c83d7f54f45bc.jpg","website":"https://map.ugcc.ua/view/1494-"},"geometry":{"type":"Point","coordinates":[23.65757,49.13557]}},
{"type":"Feature","properties":{"id":3152,"name":"Церква Собору Івана Хрестителя","denomination":"ukrainian_greek_catholic","region":"Львівська область","image":"https://map.ugcc.ua/pub/base/623870e833d6dc9.jpg","website":"https://map.ugcc.ua/view/3152-"},"geometry":{"type":"Point","coordinates":[22.88037,49.30285]}},
{"type":"Feature","properties":{"id":2984,"name":"Церква великомученика Пантелеймона","denomination":"ukrainian_greek_catholic","region":"Львівська область","image":"https://map.ugcc.ua/pub/base/702ab258220a1d4.jpg","website":"https://map.ugcc.ua/view/2984-"},"geometry":{"type":"Point","coordinates":[23.51167,49.03361]}},
{"type":"Feature","properties":{"id":3253,"name":"Церква Івана Богослова","denomination":"ukrainian_greek_catholic","region":"Львівська область","image":"https://map.ugcc.ua/pub/base/71b2e0e8f0844be.jpg","website":"https://map.ugcc.ua/view/3253-"},"geometry":{"type":"Point","coordinates":[23.39335,48.89081]}},
{"type":"Feature","properties":{"id":3254,"name":"Церква святого Василія Великого","denomination":"ukrainian_greek_catholic","region":"Львівська область","image":"https://map.ugcc.ua/pub/base/afd49a5ef0b1d7b.jpg","website":"https://map.ugcc.ua/view/3254-"},"geometry":{"type":"Point","coordinates":[23.35126,48.90588]}},
{"type":"Feature","properties":{"id":3164,"name":"Церква священомученика Миколая Чарнецького","denomination":"ukrainian_greek_catholic","region":"Одеська область","image":"https://map.ugcc.ua/pub/base/b0b93e585a47208.jpg","website":"https://map.ugcc.ua/view/3164-"},"geometry":{"type":"Point","coordinates":[30.89696,47.20556]}},
{"type":"Feature","properties":{"id":541,"name":"Церква Вознесіння Господнього","denomination":"ukrainian_greek_catholic","region":"Полтавська область","image":"https://map.ugcc.ua/pub/base/.jpg","website":"https://map.ugcc.ua/view/541-"},"geometry":{"type":"Point","coordinates":[34.21243,49.14697]}},
{"type":"Feature","properties":{"id":538,"name":"Церква Архистратига Михаїла","denomination":"ukrainian_greek_catholic","region":"Полтавська область","image":"https://map.ugcc.ua/pub/base/.jpg","website":"https://map.ugcc.ua/view/538-"},"geometry":{"type":"Point","coordinates":[33.90331,49.1534]}},
{"type":"Feature","properties":{"id":540,"name":"Церква Різдва Пресвятої Богородиці","denomination":"ukrainian_greek_catholic","region":"Полтавська область","image":"https://map.ugcc.ua/pub/base/9d2637a0b14c76a.jpg","website":"https://map.ugcc.ua/view/540-"},"geometry":{"type":"Point","coordinates":[34.18462,48.94588]}},
{"type":"Feature","properties":{"id":1126,"name":"Церква святих і праведних богоотців Йоакима і Анни","denomination":"ukrainian_greek_catholic","region":"Рівненська область","image":"https://map.ugcc.ua/pub/base/.jpg","website":"https://map.ugcc.ua/view/1126-"},"geometry":{"type":"Point","coordinates":[26.51974,50.32438]}},
{"type":"Feature","properties":{"id":386,"name":"Храм Успіння Пресвятої Богородиці","denomination":"ukrainian_greek_catholic","region":"Севастополь","image":"https://map.ugcc.ua/pub/base/4a41323f4588812.jpg","website":"https://map.ugcc.ua/view/386-"},"geometry":{"type":"Point","coordinates":[33.46682,44.56773]}},
{"type":"Feature","properties":{"id":1200,"name":"Церква Святої преподобної Параскеви Терновської","denomination":"ukrainian_greek_catholic","region":"Тернопільська область","image":"https://map.ugcc.ua/pub/base/9128536f8a19058.jpg","website":"https://map.ugcc.ua/view/1200-"},"geometry":{"type":"Point","coordinates":[25.54594,49.69226]}},
{"type":"Feature","properties":{"id":2255,"name":"Церква Покрови Пресвятої Богородиці","denomination":"ukrainian_greek_catholic","region":"Тернопільська область","image":"https://map.ugcc.ua/pub/base/.jpg","website":"https://map.ugcc.ua/view/2255-"},"geometry":{"type":"Point","coordinates":[26.22969,49.37009]}},
{"type":"Feature","properties":{"id":1190,"name":"Церква Святого Миколая","denomination":"ukrainian_greek_catholic","region":"Тернопільська область","image":"https://map.ugcc.ua/pub/base/b15f22b7a350e96.jpg","website":"https://map.ugcc.ua/view/1190-"},"geometry":{"type":"Point","coordinates":[25.57419,49.57926]}},
{"type":"Feature","properties":{"id":2444,"name":"Церква УГКЦ","denomination":"ukrainian_greek_catholic","region":"Тернопільська область","image":"https://map.ugcc.ua/pub/base/3d10ff0d325f04d.jpg","website":"https://map.ugcc.ua/view/2444-"},"geometry":{"type":"Point","coordinates":[25.56631,49.49464]}},
{"type":"Feature","properties":{"id":1642,"name":"Церква Святого Юрія","denomination":"ukrainian_greek_catholic","region":"Тернопільська область","image":"https://map.ugcc.ua/pub/base/ceb33ef5642f897.jpg","website":"https://map.ugcc.ua/view/1642-"},"geometry":{"type":"Point","coordinates":[25.12216,49.28034]}},
{"type":"Feature","properties":{"id":1641,"name":"Церква святої Покрови","denomination":"ukrainian_greek_catholic","region":"Тернопільська область","image":"https://map.ugcc.ua/pub/base/b212c620cfa666d.jpg","website":"https://map.ugcc.ua/view/1641-"},"geometry":{"type":"Point","coordinates":[25.12073,49.27822]}},
{"type":"Feature","properties":{"id":2411,"name":"Церква Різдва Пресвятої Богородиці","denomination":"ukrainian_greek_catholic","region":"Тернопільська область","image":"https://map.ugcc.ua/pub/base/b69dd7bdcd72364.jpg","website":"https://map.ugcc.ua/view/2411-"},"geometry":{"type":"Point","coordinates":[25.02979,49.28914]}},
{"type":"Feature","properties":{"id":430,"name":"Церква Успіння Пресвятої Богородиці","denomination":"ukrainian_greek_catholic","region":"Тернопільська область","image":"https://map.ugcc.ua/pub/base/.jpg","website":"https://map.ugcc.ua/view/430-"},"geometry":{"type":"Point","coordinates":[24.93785,49.31067]}},
{"type":"Feature","properties":{"id":2225,"name":"Церква Вознесіння Господнього","denomination":"ukrainian_greek_catholic","region":"Тернопільська область","image":"https://map.ugcc.ua/pub/base/.jpg","website":"https://map.ugcc.ua/view/2225-"},"geometry":{"type":"Point","coordinates":[25.38133,49.10522]}},
{"type":"Feature","properties":{"id":2242,"name":"Церква Різдва Пресвятої Богородиці","denomination":"ukrainian_greek_catholic","region":"Тернопільська область","image":"https://map.ugcc.ua/pub/base/.jpg","website":"https://map.ugcc.ua/view/2242-"},"geometry":{"type":"Point","coordinates":[25.4634,49.04346]}},
{"type":"Feature","properties":{"id":2427,"name":"Церква Покрови Пресвятої Богородиці","denomination":"ukrainian_greek_catholic","region":"Тернопільська область","image":"https://map.ugcc.ua/pub/base/.jpg","website":"https://map.ugcc.ua/view/2427-"},"geometry":{"type":"Point","coordinates":[24.95603,49.21686]}},
{"type":"Feature","properties":{"id":2400,"name":"Церква Введення в храм Пресвятої Богородиці","denomination":"ukrainian_greek_catholic","region":"Тернопільська область","image":"https://map.ugcc.ua/pub/base/b18deb3eb44304f.jpg","website":"https://map.ugcc.ua/view/2400-"},"geometry":{"type":"Point","coordinates":[25.18073,49.08745]}},
{"type":"Feature","properties":{"id":2394,"name":"Церква Різдва Пресвятої Богородиці","denomination":"ukrainian_greek_catholic","region":"Тернопільська область","image":"https://map.ugcc.ua/pub/base/.jpg","website":"https://map.ugcc.ua/view/2394-"},"geometry":{"type":"Point","coordinates":[25.18716,49.01918]}},
{"type":"Feature","properties":{"id":2354,"name":"Церква Різдва Пресвятої Богородиці","denomination":"ukrainian_greek_catholic","region":"Тернопільська область","image":"https://map.ugcc.ua/pub/base/.jpg","website":"https://map.ugcc.ua/view/2354-"},"geometry":{"type":"Point","coordinates":[25.13564,48.98463]}},
{"type":"Feature","properties":{"id":2322,"name":"Церква Покрови Пресвятої Богородиці","denomination":"ukrainian_greek_catholic","region":"Тернопільська область","image":"https://map.ugcc.ua/pub/base/377cfda3bf80b8d.jpg","website":"https://map.ugcc.ua/view/2322-"},"geometry":{"type":"Point","coordinates":[25.28096,48.87455]}},
{"type":"Feature","properties":{"id":3074,"name":"Церква Благовіщення Пресвятої Богородиці","denomination":"ukrainian_greek_catholic","region":"Херсонська область","image":"https://map.ugcc.ua/pub/base/.jpg","website":"https://map.ugcc.ua/view/3074-"},"geometry":{"type":"Point","coordinates":[32.56676,46.75271]}},
{"type":"Feature","properties":{"id":3073,"name":"Церква Різдва Христового","denomination":"ukrainian_greek_catholic","region":"Херсонська область","image":"https://map.ugcc.ua/pub/base/.jpg","website":"https://map.ugcc.ua/view/3073-"},"geometry":{"type":"Point","coordinates":[32.55456,46.69117]}},
{"type":"Feature","properties":{"id":150,"name":"Церква Успення Пресвятої Богородиці","denomination":"ukrainian_greek_catholic","region":"Хмельницька область","image":"https://map.ugcc.ua/pub/base/.jpg","website":"https://map.ugcc.ua/view/150-"},"geometry":{"type":"Point","coordinates":[27.51525,50.11353]}},
{"type":"Feature","properties":{"id":147,"name":"Церква святих мучеників Бориса і Гліба","denomination":"ukrainian_greek_catholic","region":"Хмельницька область","image":"https://map.ugcc.ua/pub/base/.jpg","website":"https://map.ugcc.ua/view/147-"},"geometry":{"type":"Point","coordinates":[27.08095,50.18173]}},
{"type":"Feature","properties":{"id":146,"name":"Церква святої рівноапостольної княгині Ольги","denomination":"ukrainian_greek_catholic","region":"Хмельницька область","image":"https://map.ugcc.ua/pub/base/.jpg","website":"https://map.ugcc.ua/view/146-"},"geometry":{"type":"Point","coordinates":[27.21862,49.74045]}},
{"type":"Feature","properties":{"id":3114,"name":"Церква святого великомученика Димитрія Солунського","denomination":"ukrainian_greek_catholic","region":"Хмельницька область","image":"https://map.ugcc.ua/pub/base/8cad5a150bf9897.jpg","website":"https://map.ugcc.ua/view/3114-"},"geometry":{"type":"Point","coordinates":[26.86344,49.81039]}},
{"type":"Feature","properties":{"id":143,"name":"Церква святого рівноапостольного князя Володимира","denomination":"ukrainian_greek_catholic","region":"Хмельницька область","image":"https://map.ugcc.ua/pub/base/.jpg","website":"https://map.ugcc.ua/view/143-"},"geometry":{"type":"Point","coordinates":[26.97967,49.64629]}},
{"type":"Feature","properties":{"id":144,"name":"Церква Покрови Пресвятої Богородиці","denomination":"ukrainian_greek_catholic","region":"Хмельницька область","image":"https://map.ugcc.ua/pub/base/.jpg","website":"https://map.ugcc.ua/view/144-"},"geometry":{"type":"Point","coordinates":[27.61825,49.23687]}},
{"type":"Feature","properties":{"id":152,"name":"Церква Різдва Пресвятої Богородиці","denomination":"ukrainian_greek_catholic","region":"Хмельницька область","image":"https://map.ugcc.ua/pub/base/.jpg","website":"https://map.ugcc.ua/view/152-"},"geometry":{"type":"Point","coordinates":[26.72081,49.61071]}},
{"type":"Feature","properties":{"id":151,"name":"Церква святого апостола Луки","denomination":"ukrainian_greek_catholic","region":"Хмельницька область","image":"https://map.ugcc.ua/pub/base/.jpg","website":"https://map.ugcc.ua/view/151-"},"geometry":{"type":"Point","coordinates":[26.7263,49.57821]}},
{"type":"Feature","properties":{"id":2521,"name":"Церква святого Миколая Чудотворця","denomination":"ukrainian_greek_catholic","region":"Хмельницька область","image":"https://map.ugcc.ua/pub/base/3a00762911bb534.jpg","website":"https://map.ugcc.ua/view/2521-"},"geometry":{"type":"Point","coordinates":[27.00019,49.41992]}},
{"type":"Feature","properties":{"id":149,"name":"Церква Успення Пресвятої Богородиці","denomination":"ukrainian_greek_catholic","region":"Хмельницька область","image":"https://map.ugcc.ua/pub/base/.jpg","website":"https://map.ugcc.ua/view/149-"},"geometry":{"type":"Point","coordinates":[26.35826,49.53857]}},
{"type":"Feature","properties":{"id":141,"name":"Церква Преображення Господнього","denomination":"ukrainian_greek_catholic","region":"Хмельницька область","image":"https://map.ugcc.ua/pub/base/.jpg","website":"https://map.ugcc.ua/view/141-"},"geometry":{"type":"Point","coordinates":[26.43585,49.48686]}},
{"type":"Feature","properties":{"id":148,"name":"Церква святих Володимира та Ольги","denomination":"ukrainian_greek_catholic","region":"Хмельницька область","image":"https://map.ugcc.ua/pub/base/.jpg","website":"https://map.ugcc.ua/view/148-"},"geometry":{"type":"Point","coordinates":[26.29749,49.51673]}},
{"type":"Feature","properties":{"id":142,"name":"Церква Різдва Пресвятої Богородиці","denomination":"ukrainian_greek_catholic","region":"Хмельницька область","image":"https://map.ugcc.ua/pub/base/.jpg","website":"https://map.ugcc.ua/view/142-"},"geometry":{"type":"Point","coordinates":[26.22316,49.53757]}},
{"type":"Feature","properties":{"id":752,"name":"Церква святих великомучеників Бориса і Гліба","denomination":"ukrainian_greek_catholic","region":"Хмельницька область","image":"https://map.ugcc.ua/pub/base/.jpg","website":"https://map.ugcc.ua/view/752-"},"geometry":{"type":"Point","coordinates":[27.26308,48.82965]}},
{"type":"Feature","properties":{"id":2273,"name":"Церква Святих верховних апостолів Петра і Павла","denomination":"ukrainian_greek_catholic","region":"Хмельницька область","image":"https://map.ugcc.ua/pub/base/.jpg","website":"https://map.ugcc.ua/view/2273-"},"geometry":{"type":"Point","coordinates":[26.21346,49.0994]}},
{"type":"Feature","properties":{"id":748,"name":"Церква Успіння Пресвятої Богородиці","denomination":"ukrainian_greek_catholic","region":"Хмельницька область","image":"https://map.ugcc.ua/pub/base/05b538877574c9d.jpg","website":"https://map.ugcc.ua/view/748-"},"geometry":{"type":"Point","coordinates":[27.0158,48.6339]}},
{"type":"Feature","properties":{"id":751,"name":"Церква Перенесення мощей святого Миколая Чудотворця","denomination":"ukrainian_greek_catholic","region":"Хмельницька область","image":"https://map.ugcc.ua/pub/base/d78c704ba4f2bad.jpg","website":"https://map.ugcc.ua/view/751-"},"geometry":{"type":"Point","coordinates":[27.08164,48.59554]}},
{"type":"Feature","properties":{"id":749,"name":"Церква Верховних апостолів Петра і Павла","denomination":"ukrainian_greek_catholic","region":"Хмельницька область","image":"https://map.ugcc.ua/pub/base/.jpg","website":"https://map.ugcc.ua/view/749-"},"geometry":{"type":"Point","coordinates":[27.04072,48.57501]}},
{"type":"Feature","properties":{"id":746,"name":"Церква Перенесеня мощей св. Миколая Чудотворця","denomination":"ukrainian_greek_catholic","region":"Хмельницька область","image":"https://map.ugcc.ua/pub/base/52044d3512a8854.jpg","website":"https://map.ugcc.ua/view/746-"},"geometry":{"type":"Point","coordinates":[26.4929,48.55018]}},
{"type":"Feature"}
]}
