{
"type": "FeatureCollection",
"errorDescr": "Church was not found",
"features": [
{"type":"Feature","properties":{"id":389,"name":"Церква святих рівноапостольських князів Володимира і Ольги","denomination":"ukrainian_greek_catholic","region":"Автономна Республіка Крим","image":"https://map.ugcc.ua/pub/base/f812f39b228d855.jpg","website":"https://map.ugcc.ua/view/389-"},"geometry":{"type":"Point","coordinates":[36.44418,45.35883]}},
{"type":"Feature","properties":{"id":385,"name":"Храм священомученика Йосафата","denomination":"ukrainian_greek_catholic","region":"Автономна Республіка Крим","image":"https://map.ugcc.ua/pub/base/50c2f57e0d4489d.jpg","website":"https://map.ugcc.ua/view/385-"},"geometry":{"type":"Point","coordinates":[34.08818,44.97025]}},
{"type":"Feature","properties":{"id":383,"name":"Церква Пресвятої Трійці","denomination":"ukrainian_greek_catholic","region":"Автономна Республіка Крим","image":"https://map.ugcc.ua/pub/base/78421044d86a92d.jpg","website":"https://map.ugcc.ua/view/383-"},"geometry":{"type":"Point","coordinates":[34.21211,44.50729]}},
{"type":"Feature","properties":{"id":3009,"name":"Церква святого Івана Богослова","denomination":"ukrainian_greek_catholic","region":"Житомирська область","image":"https://map.ugcc.ua/pub/base/708560fdb0ee247.jpg","website":"https://map.ugcc.ua/view/3009-"},"geometry":{"type":"Point","coordinates":[28.17721,50.03372]}},
{"type":"Feature","properties":{"id":47,"name":"Церква Святого Миколая","denomination":"ukrainian_greek_catholic","region":"Івано-Франківська область","image":"https://map.ugcc.ua/pub/base/04fbc37ea83ac75.jpg","website":"https://map.ugcc.ua/view/47-"},"geometry":{"type":"Point","coordinates":[24.62609,49.34827]}},
{"type":"Feature","properties":{"id":862,"name":"Церква святого Миколая","denomination":"ukrainian_greek_catholic","region":"Івано-Франківська область","image":"https://map.ugcc.ua/pub/base/3fa6fcfe3e42592.jpg","website":"https://map.ugcc.ua/view/862-"},"geometry":{"type":"Point","coordinates":[24.6261,49.34826]}},
{"type":"Feature","properties":{"id":2649,"name":"Церква Пресвятої Богородицi","denomination":"ukrainian_greek_catholic","region":"Івано-Франківська область","image":"https://map.ugcc.ua/pub/base/506c99ff1e430d4.jpg","website":"https://map.ugcc.ua/view/2649-"},"geometry":{"type":"Point","coordinates":[24.45687,49.35737]}},
{"type":"Feature","properties":{"id":3058,"name":"Церква верховних апостолів Петра і Павла","denomination":"ukrainian_greek_catholic","region":"Івано-Франківська область","image":"https://map.ugcc.ua/pub/base/7746bd26c5e8714.jpg","website":"https://map.ugcc.ua/view/3058-"},"geometry":{"type":"Point","coordinates":[24.58329,49.2439]}},
{"type":"Feature","properties":{"id":3266,"name":"Церква святої Параскеви","denomination":"ukrainian_greek_catholic","region":"Івано-Франківська область","image":"https://map.ugcc.ua/pub/base/c8e9625700f0a63.jpg","website":"https://map.ugcc.ua/view/3266-"},"geometry":{"type":"Point","coordinates":[24.45258,49.24984]}},
{"type":"Feature","properties":{"id":1159,"name":"Церква Різдва Пречистої Діви Марії","denomination":"ukrainian_greek_catholic","region":"Івано-Франківська область","image":"https://map.ugcc.ua/pub/base/968cad417b934de.jpg","website":"https://map.ugcc.ua/view/1159-"},"geometry":{"type":"Point","coordinates":[24.53496,49.19191]}},
{"type":"Feature","properties":{"id":406,"name":"Церква святого Миколая","denomination":"ukrainian_greek_catholic","region":"Івано-Франківська область","image":"https://map.ugcc.ua/pub/base/c2420fe3b7bee08.jpg","website":"https://map.ugcc.ua/view/406-"},"geometry":{"type":"Point","coordinates":[24.70765,48.99305]}},
{"type":"Feature","properties":{"id":2700,"name":"Церква Царя Христа","denomination":"ukrainian_greek_catholic","region":"Івано-Франківська область","image":"https://map.ugcc.ua/pub/base/59dc36353cab384.jpg","website":"https://map.ugcc.ua/view/2700-"},"geometry":{"type":"Point","coordinates":[25.0012,48.86292]}},
{"type":"Feature","properties":{"id":1656,"name":"Церква святого Юрія","denomination":"ukrainian_greek_catholic","region":"Івано-Франківська область","image":"https://map.ugcc.ua/pub/base/f844fff327e4d73.jpg","website":"https://map.ugcc.ua/view/1656-"},"geometry":{"type":"Point","coordinates":[24.87923,48.87379]}},
{"type":"Feature","properties":{"id":2124,"name":"Церква Покрови Пресвятої Богородиці","denomination":"ukrainian_greek_catholic","region":"Івано-Франківська область","image":"https://map.ugcc.ua/pub/base/260d43d3248c25d.jpg","website":"https://map.ugcc.ua/view/2124-"},"geometry":{"type":"Point","coordinates":[24.70853,48.93501]}},
{"type":"Feature","properties":{"id":2629,"name":"Церква Благовіщення Пресвятої Богородиці","denomination":"ukrainian_greek_catholic","region":"Івано-Франківська область","image":"https://map.ugcc.ua/pub/base/f0e99c4d4571398.jpg","website":"https://map.ugcc.ua/view/2629-"},"geometry":{"type":"Point","coordinates":[24.69503,48.93849]}},
{"type":"Feature","properties":{"id":851,"name":"Церква святого Івана Хрестителя","denomination":"ukrainian_greek_catholic","region":"Івано-Франківська область","image":"https://map.ugcc.ua/pub/base/454caf58d00cbf9.jpg","website":"https://map.ugcc.ua/view/851-"},"geometry":{"type":"Point","coordinates":[24.73281,48.90481]}},
{"type":"Feature","properties":{"id":176,"name":"Церква Різдва Пресвятої Богородиці","denomination":"ukrainian_greek_catholic","region":"Івано-Франківська область","image":"https://map.ugcc.ua/pub/base/6638801112cbf96.jpg","website":"https://map.ugcc.ua/view/176-"},"geometry":{"type":"Point","coordinates":[24.70409,48.91493]}},
{"type":"Feature","properties":{"id":2622,"name":"Церква святого Архистратига Михаїла","denomination":"ukrainian_greek_catholic","region":"Івано-Франківська область","image":"https://map.ugcc.ua/pub/base/58e6efd472b4319.jpg","website":"https://map.ugcc.ua/view/2622-"},"geometry":{"type":"Point","coordinates":[24.70522,48.90417]}},
{"type":"Feature","properties":{"id":2633,"name":"Церква Пресвятої Трійці","denomination":"ukrainian_greek_catholic","region":"Івано-Франківська область","image":"https://map.ugcc.ua/pub/base/807d4a64b398840.jpg","website":"https://map.ugcc.ua/view/2633-"},"geometry":{"type":"Point","coordinates":[24.69129,48.90529]}},
{"type":"Feature","properties":{"id":2630,"name":"Церква Вознесіння Господнього","denomination":"ukrainian_greek_catholic","region":"Івано-Франківська область","image":"https://map.ugcc.ua/pub/base/4bcb3ad9b19c469.jpg","website":"https://map.ugcc.ua/view/2630-"},"geometry":{"type":"Point","coordinates":[24.69324,48.90117]}},
{"type":"Feature","properties":{"id":2702,"name":"Церква Святих Володимира і Ольги","denomination":"ukrainian_greek_catholic","region":"Івано-Франківська область","image":"https://map.ugcc.ua/pub/base/.jpg","website":"https://map.ugcc.ua/view/2702-"},"geometry":{"type":"Point","coordinates":[24.35812,49.03302]}},
{"type":"Feature","properties":{"id":2779,"name":"Церква Різдва Пресвятої Богородиці","denomination":"ukrainian_greek_catholic","region":"Івано-Франківська область","image":"https://map.ugcc.ua/pub/base/8c0a7f5d96d04aa.jpg","website":"https://map.ugcc.ua/view/2779-"},"geometry":{"type":"Point","coordinates":[24.80324,48.76263]}},
{"type":"Feature","properties":{"id":2781,"name":"Церква Успіння Пресвятої Богородиці","denomination":"ukrainian_greek_catholic","region":"Івано-Франківська область","image":"https://map.ugcc.ua/pub/base/ed472671eb9453a.jpg","website":"https://map.ugcc.ua/view/2781-"},"geometry":{"type":"Point","coordinates":[24.80251,48.76224]}},
{"type":"Feature","properties":{"id":2665,"name":"Церква святої Параскеви","denomination":"ukrainian_greek_catholic","region":"Івано-Франківська область","image":"https://map.ugcc.ua/pub/base/.jpg","website":"https://map.ugcc.ua/view/2665-"},"geometry":{"type":"Point","coordinates":[24.70853,48.75886]}},
{"type":"Feature","properties":{"id":2060,"name":"Церква Покрову Пресвятої Богородиці","denomination":"ukrainian_greek_catholic","region":"Івано-Франківська область","image":"https://map.ugcc.ua/pub/base/e141ddc51d2ccaa.jpg","website":"https://map.ugcc.ua/view/2060-"},"geometry":{"type":"Point","coordinates":[25.09228,48.51512]}},
{"type":"Feature","properties":{"id":2526,"name":"Церква Вознесіння Господа Нашого Ісуса Христа","denomination":"ukrainian_greek_catholic","region":"Івано-Франківська область","image":"https://map.ugcc.ua/pub/base/9a836338aea0ac2.jpg","website":"https://map.ugcc.ua/view/2526-"},"geometry":{"type":"Point","coordinates":[24.69606,48.66011]}},
{"type":"Feature","properties":{"id":2529,"name":"Церква Усікновення Чесної Голови Пророка Івана Хрестителя","denomination":"ukrainian_greek_catholic","region":"Івано-Франківська область","image":"https://map.ugcc.ua/pub/base/6c07fbc7ec2a8e7.jpg","website":"https://map.ugcc.ua/view/2529-"},"geometry":{"type":"Point","coordinates":[24.59919,48.66296]}},
{"type":"Feature","properties":{"id":2528,"name":"Церква Усікновення Чесної Голови Пророка Івана Хрестителя","denomination":"ukrainian_greek_catholic","region":"Івано-Франківська область","image":"https://map.ugcc.ua/pub/base/ccc3cb118eca0b2.jpg","website":"https://map.ugcc.ua/view/2528-"},"geometry":{"type":"Point","coordinates":[24.59719,48.66324]}},
{"type":"Feature","properties":{"id":2531,"name":"Церква Преображення Господа Нашого Ісуса Христа","denomination":"ukrainian_greek_catholic","region":"Івано-Франківська область","image":"https://map.ugcc.ua/pub/base/c159bd786e5fe76.jpg","website":"https://map.ugcc.ua/view/2531-"},"geometry":{"type":"Point","coordinates":[24.53634,48.67657]}},
{"type":"Feature","properties":{"id":2125,"name":"Церква Успіння Пресвятої Богородиці","denomination":"ukrainian_greek_catholic","region":"Івано-Франківська область","image":"https://map.ugcc.ua/pub/base/.jpg","website":"https://map.ugcc.ua/view/2125-"},"geometry":{"type":"Point","coordinates":[24.30468,48.76876]}},
{"type":"Feature","properties":{"id":2523,"name":"Церква Володимира і Ольги","denomination":"ukrainian_greek_catholic","region":"Івано-Франківська область","image":"https://map.ugcc.ua/pub/base/05942c0c92000e1.jpg","website":"https://map.ugcc.ua/view/2523-"},"geometry":{"type":"Point","coordinates":[24.65689,48.6166]}},
{"type":"Feature","properties":{"id":2522,"name":"Церква Трьох Святителів","denomination":"ukrainian_greek_catholic","region":"Івано-Франківська область","image":"https://map.ugcc.ua/pub/base/.jpg","website":"https://map.ugcc.ua/view/2522-"},"geometry":{"type":"Point","coordinates":[24.58749,48.63658]}},
{"type":"Feature","properties":{"id":2524,"name":"Церква святого Миколая Чудотворця","denomination":"ukrainian_greek_catholic","region":"Івано-Франківська область","image":"https://map.ugcc.ua/pub/base/fa4b78080fe8044.jpg","website":"https://map.ugcc.ua/view/2524-"},"geometry":{"type":"Point","coordinates":[24.57809,48.60366]}},
{"type":"Feature","properties":{"id":3176,"name":"Церква Вознесіння ГНІХ","denomination":"ukrainian_greek_catholic","region":"Івано-Франківська область","image":"https://map.ugcc.ua/pub/base/f8a3d0ffe5e2e55.jpg","website":"https://map.ugcc.ua/view/3176-"},"geometry":{"type":"Point","coordinates":[24.51611,48.59369]}},
{"type":"Feature","properties":{"id":3167,"name":"Церква святої великомучениці Варвари","denomination":"ukrainian_greek_catholic","region":"Івано-Франківська область","image":"https://map.ugcc.ua/pub/base/.jpg","website":"https://map.ugcc.ua/view/3167-"},"geometry":{"type":"Point","coordinates":[24.42919,48.6173]}},
{"type":"Feature","properties":{"id":3172,"name":"Церква Пресвятої Трійці","denomination":"ukrainian_greek_catholic","region":"Івано-Франківська область","image":"https://map.ugcc.ua/pub/base/1ef88563688bc5f.jpg","website":"https://map.ugcc.ua/view/3172-"},"geometry":{"type":"Point","coordinates":[24.47941,48.57664]}},
{"type":"Feature","properties":{"id":3169,"name":"Церква святих верховних апостолів Петра і Павла","denomination":"ukrainian_greek_catholic","region":"Івано-Франківська область","image":"https://map.ugcc.ua/pub/base/fa4ab655d001331.jpg","website":"https://map.ugcc.ua/view/3169-"},"geometry":{"type":"Point","coordinates":[24.43286,48.57219]}},
{"type":"Feature","properties":{"id":51,"name":"Церква Пресвятої Трійці","denomination":"ukrainian_greek_catholic","region":"Івано-Франківська область","image":"https://map.ugcc.ua/pub/base/97a0057eeb7fbdf.jpg","website":"https://map.ugcc.ua/view/51-"},"geometry":{"type":"Point","coordinates":[24.81342,48.32851]}},
{"type":"Feature","properties":{"id":938,"name":"Каплиця Царя Христа","denomination":"ukrainian_greek_catholic","region":"Луганська область","image":"https://map.ugcc.ua/pub/base/.jpg","website":"https://map.ugcc.ua/view/938-"},"geometry":{"type":"Point","coordinates":[38.49174,48.93693]}},
{"type":"Feature","properties":{"id":939,"name":"Церква Різдва Пресвятої Богородиці","denomination":"ukrainian_greek_catholic","region":"Луганська область","image":"https://map.ugcc.ua/pub/base/04b4c43557c72ee.jpg","website":"https://map.ugcc.ua/view/939-"},"geometry":{"type":"Point","coordinates":[38.1996,49.0395]}},
{"type":"Feature","properties":{"id":1113,"name":"Церква Успення Пресвятої Богородиці","denomination":"ukrainian_greek_catholic","region":"Львівська область","image":"https://map.ugcc.ua/pub/base/901e74fc46143ae.jpg","website":"https://map.ugcc.ua/view/1113-"},"geometry":{"type":"Point","coordinates":[24.17436,50.47394]}},
{"type":"Feature","properties":{"id":1115,"name":"Церква Введення в храм Пресвятої Богородиці","denomination":"ukrainian_greek_catholic","region":"Львівська область","image":"https://map.ugcc.ua/pub/base/28481d59f18dee3.jpg","website":"https://map.ugcc.ua/view/1115-"},"geometry":{"type":"Point","coordinates":[24.14697,50.47375]}},
{"type":"Feature","properties":{"id":1114,"name":"Церква Покрови Пресвятої Богородиці","denomination":"ukrainian_greek_catholic","region":"Львівська область","image":"https://map.ugcc.ua/pub/base/7431715fe160631.jpg","website":"https://map.ugcc.ua/view/1114-"},"geometry":{"type":"Point","coordinates":[24.15391,50.46582]}},
{"type":"Feature","properties":{"id":3238,"name":"Церква Воздвиження Чесного і Животворящого Хреста Господнього","denomination":"ukrainian_greek_catholic","region":"Львівська область","image":"https://map.ugcc.ua/pub/base/.jpg","website":"https://map.ugcc.ua/view/3238-"},"geometry":{"type":"Point","coordinates":[24.2829,50.3357]}},
{"type":"Feature","properties":{"id":853,"name":"Церква Всіх Святих Українського Народу","denomination":"ukrainian_greek_catholic","region":"Львівська область","image":"https://map.ugcc.ua/pub/base/8fa1300ce43049b.jpg","website":"https://map.ugcc.ua/view/853-"},"geometry":{"type":"Point","coordinates":[24.54385,50.22095]}},
{"type":"Feature","properties":{"id":3259,"name":"Церква святих Косми і Дам’яна (с. Тур'я, Львівська область) ","denomination":"ukrainian_greek_catholic","region":"Львівська область","image":"https://map.ugcc.ua/pub/base/b6721b715689308.jpg","website":"https://map.ugcc.ua/view/3259-"},"geometry":{"type":"Point","coordinates":[24.8486,50.08389]}},
{"type":"Feature","properties":{"id":2544,"name":"Церква Пресвятої Трійці","denomination":"ukrainian_greek_catholic","region":"Львівська область","image":"https://map.ugcc.ua/pub/base/cc8e0c82681046a.jpg","website":"https://map.ugcc.ua/view/2544-"},"geometry":{"type":"Point","coordinates":[24.51531,50.20678]}},
{"type":"Feature","properties":{"id":3283,"name":"Церква святих Петра і Павла","denomination":"ukrainian_greek_catholic","region":"Львівська область","image":"https://map.ugcc.ua/pub/base/0f58225bedabd5f.jpg","website":"https://map.ugcc.ua/view/3283-"},"geometry":{"type":"Point","coordinates":[24.25741,50.29247]}},
{"type":"Feature","properties":{"id":3274,"name":"Церква Собору Пресвятої Богородиці","denomination":"ukrainian_greek_catholic","region":"Львівська область","image":"https://map.ugcc.ua/pub/base/36b6c8054a565d3.jpg","website":"https://map.ugcc.ua/view/3274-"},"geometry":{"type":"Point","coordinates":[24.19806,50.29917]}},
{"type":"Feature","properties":{"id":3265,"name":"Церква Вознесіння Господнього","denomination":"ukrainian_greek_catholic","region":"Львівська область","image":"https://map.ugcc.ua/pub/base/.jpg","website":"https://map.ugcc.ua/view/3265-"},"geometry":{"type":"Point","coordinates":[24.8495,50.03295]}},
{"type":"Feature","properties":{"id":2437,"name":"Церква Успення Пресвятої Богородиці","denomination":"ukrainian_greek_catholic","region":"Львівська область","image":"https://map.ugcc.ua/pub/base/.jpg","website":"https://map.ugcc.ua/view/2437-"},"geometry":{"type":"Point","coordinates":[24.69123,50.08423]}},
{"type":"Feature","properties":{"id":2995,"name":"Церква Пресвятої Євхаристії","denomination":"ukrainian_greek_catholic","region":"Львівська область","image":"https://map.ugcc.ua/pub/base/e8b9bb545e1f68f.jpg","website":"https://map.ugcc.ua/view/2995-"},"geometry":{"type":"Point","coordinates":[24.79201,50.01396]}},
{"type":"Feature","properties":{"id":3275,"name":"Церква святих апостолів Петра та Павла","denomination":"ukrainian_greek_catholic","region":"Львівська область","image":"https://map.ugcc.ua/pub/base/.jpg","website":"https://map.ugcc.ua/view/3275-"},"geometry":{"type":"Point","coordinates":[24.73258,50.01495]}},
{"type":"Feature","properties":{"id":1904,"name":"Церква Успіння Пресвятої Богородиці","denomination":"ukrainian_greek_catholic","region":"Львівська область","image":"https://map.ugcc.ua/pub/base/b315c0e58810db0.jpg","website":"https://map.ugcc.ua/view/1904-"},"geometry":{"type":"Point","coordinates":[25.09656,49.87115]}},
{"type":"Feature","properties":{"id":1143,"name":"Церква Воздвиження Чесного Хреста","denomination":"ukrainian_greek_catholic","region":"Львівська область","image":"https://map.ugcc.ua/pub/base/d47eb68ddbc9a71.jpg","website":"https://map.ugcc.ua/view/1143-"},"geometry":{"type":"Point","coordinates":[23.8411,50.33867]}},
{"type":"Feature","properties":{"id":1923,"name":"Церква святих апостолів Петра і Павла","denomination":"ukrainian_greek_catholic","region":"Львівська область","image":"https://map.ugcc.ua/pub/base/.jpg","website":"https://map.ugcc.ua/view/1923-"},"geometry":{"type":"Point","coordinates":[25.05368,49.87167]}},
{"type":"Feature","properties":{"id":1142,"name":"Церква Успення Пресвятої Богородиці","denomination":"ukrainian_greek_catholic","region":"Львівська область","image":"https://map.ugcc.ua/pub/base/.jpg","website":"https://map.ugcc.ua/view/1142-"},"geometry":{"type":"Point","coordinates":[23.85102,50.30694]}},
{"type":"Feature","properties":{"id":1918,"name":"Церква святого Архистратига Михаїла","denomination":"ukrainian_greek_catholic","region":"Львівська область","image":"https://map.ugcc.ua/pub/base/40b936357e6d633.jpg","website":"https://map.ugcc.ua/view/1918-"},"geometry":{"type":"Point","coordinates":[25.05571,49.84454]}},
{"type":"Feature","properties":{"id":3264,"name":"Церква святого архистратига Михаїла","denomination":"ukrainian_greek_catholic","region":"Львівська область","image":"https://map.ugcc.ua/pub/base/f58c39900c60c59.jpg","website":"https://map.ugcc.ua/view/3264-"},"geometry":{"type":"Point","coordinates":[24.71342,49.97401]}},
{"type":"Feature","properties":{"id":1901,"name":"Церква Пресвятої Тройці","denomination":"ukrainian_greek_catholic","region":"Львівська область","image":"https://map.ugcc.ua/pub/base/92261b3e13cc9a4.jpg","website":"https://map.ugcc.ua/view/1901-"},"geometry":{"type":"Point","coordinates":[24.85548,49.89688]}},
{"type":"Feature","properties":{"id":1922,"name":"Церква святих апостолів Петра і Павла","denomination":"ukrainian_greek_catholic","region":"Львівська область","image":"https://map.ugcc.ua/pub/base/.jpg","website":"https://map.ugcc.ua/view/1922-"},"geometry":{"type":"Point","coordinates":[25.01993,49.82914]}},
{"type":"Feature","properties":{"id":1927,"name":"Церква святого Архистратига Михаїла","denomination":"ukrainian_greek_catholic","region":"Львівська область","image":"https://map.ugcc.ua/pub/base/.jpg","website":"https://map.ugcc.ua/view/1927-"},"geometry":{"type":"Point","coordinates":[24.79831,49.91252]}},
{"type":"Feature","properties":{"id":3117,"name":"Церква святих апостолів Петра і Павла","denomination":"ukrainian_greek_catholic","region":"Львівська область","image":"https://map.ugcc.ua/pub/base/.jpg","website":"https://map.ugcc.ua/view/3117-"},"geometry":{"type":"Point","coordinates":[25.08024,49.78983]}},
{"type":"Feature","properties":{"id":3130,"name":"Церква Успення Пресвятої Богородиці","denomination":"ukrainian_greek_catholic","region":"Львівська область","image":"https://map.ugcc.ua/pub/base/d7e380b283ef250.jpg","website":"https://map.ugcc.ua/view/3130-"},"geometry":{"type":"Point","coordinates":[25.0395,49.80211]}},
{"type":"Feature","properties":{"id":1921,"name":"Церква Різдва Пресвятої Богородиці","denomination":"ukrainian_greek_catholic","region":"Львівська область","image":"https://map.ugcc.ua/pub/base/.jpg","website":"https://map.ugcc.ua/view/1921-"},"geometry":{"type":"Point","coordinates":[24.98838,49.8173]}},
{"type":"Feature","properties":{"id":3012,"name":"Церква Різдва Пресвятої Богородиці","denomination":"ukrainian_greek_catholic","region":"Львівська область","image":"https://map.ugcc.ua/pub/base/a4048c4d3528c62.jpg","website":"https://map.ugcc.ua/view/3012-"},"geometry":{"type":"Point","coordinates":[24.55813,49.98268]}},
{"type":"Feature","properties":{"id":1911,"name":"Церква свв. Володимира і Ольги","denomination":"ukrainian_greek_catholic","region":"Львівська область","image":"https://map.ugcc.ua/pub/base/f81e1391f1aa8c4.jpg","website":"https://map.ugcc.ua/view/1911-"},"geometry":{"type":"Point","coordinates":[24.94096,49.82194]}},
{"type":"Feature","properties":{"id":1917,"name":"Церква Покрови Пресвятої Богородиці","denomination":"ukrainian_greek_catholic","region":"Львівська область","image":"https://map.ugcc.ua/pub/base/613ca8ec9609feb.jpg","website":"https://map.ugcc.ua/view/1917-"},"geometry":{"type":"Point","coordinates":[24.98642,49.79765]}},
{"type":"Feature","properties":{"id":1906,"name":"Церква святого Миколая","denomination":"ukrainian_greek_catholic","region":"Львівська область","image":"https://map.ugcc.ua/pub/base/540706eaaf4e54e.jpg","website":"https://map.ugcc.ua/view/1906-"},"geometry":{"type":"Point","coordinates":[24.78294,49.87475]}},
{"type":"Feature","properties":{"id":1926,"name":"Церква Різдва Пресвятої Богородиці","denomination":"ukrainian_greek_catholic","region":"Львівська область","image":"https://map.ugcc.ua/pub/base/.jpg","website":"https://map.ugcc.ua/view/1926-"},"geometry":{"type":"Point","coordinates":[24.83078,49.85067]}},
{"type":"Feature","properties":{"id":1916,"name":"Церква Різдва Святого Івана Христителя","denomination":"ukrainian_greek_catholic","region":"Львівська область","image":"https://map.ugcc.ua/pub/base/500ffa062777317.jpg","website":"https://map.ugcc.ua/view/1916-"},"geometry":{"type":"Point","coordinates":[24.92303,49.80957]}},
{"type":"Feature","properties":{"id":1931,"name":"Церква Покрови Пресвятої Богородиці","denomination":"ukrainian_greek_catholic","region":"Львівська область","image":"https://map.ugcc.ua/pub/base/e13ae5be3212936.jpg","website":"https://map.ugcc.ua/view/1931-"},"geometry":{"type":"Point","coordinates":[24.85553,49.83383]}},
{"type":"Feature","properties":{"id":109,"name":"Церква Святої священномучениці Параскеви","denomination":"ukrainian_greek_catholic","region":"Львівська область","image":"https://map.ugcc.ua/pub/base/2dd5ecdd7758fd1.jpg","website":"https://map.ugcc.ua/view/109-"},"geometry":{"type":"Point","coordinates":[24.04417,50.13784]}},
{"type":"Feature","properties":{"id":3128,"name":"Церква Успіння Пресвятої Богородиці","denomination":"ukrainian_greek_catholic","region":"Львівська область","image":"https://map.ugcc.ua/pub/base/5675d87e29a1e1d.jpg","website":"https://map.ugcc.ua/view/3128-"},"geometry":{"type":"Point","coordinates":[24.93996,49.78813]}},
{"type":"Feature","properties":{"id":1915,"name":"Церква Різдва Пресвятої Богородиці","denomination":"ukrainian_greek_catholic","region":"Львівська область","image":"https://map.ugcc.ua/pub/base/55c3c43c6227ef8.jpg","website":"https://map.ugcc.ua/view/1915-"},"geometry":{"type":"Point","coordinates":[24.91133,49.79727]}},
{"type":"Feature","properties":{"id":1459,"name":"Церква Перенесення Мощей Святого Миколая Чудотворця","denomination":"ukrainian_greek_catholic","region":"Львівська область","image":"https://map.ugcc.ua/pub/base/b404211c9d73514.jpg","website":"https://map.ugcc.ua/view/1459-"},"geometry":{"type":"Point","coordinates":[24.98125,49.76788]}},
{"type":"Feature","properties":{"id":1912,"name":"Церква Вознесіння ГНІХ","denomination":"ukrainian_greek_catholic","region":"Львівська область","image":"https://map.ugcc.ua/pub/base/bd1cfc456ef5b1c.jpg","website":"https://map.ugcc.ua/view/1912-"},"geometry":{"type":"Point","coordinates":[24.87507,49.80681]}},
{"type":"Feature","properties":{"id":1902,"name":"Церква Успення Пресвятої Богородиці","denomination":"ukrainian_greek_catholic","region":"Львівська область","image":"https://map.ugcc.ua/pub/base/.jpg","website":"https://map.ugcc.ua/view/1902-"},"geometry":{"type":"Point","coordinates":[24.83015,49.82283]}},
{"type":"Feature","properties":{"id":3137,"name":"Церква Преображення ГНІХ","denomination":"ukrainian_greek_catholic","region":"Львівська область","image":"https://map.ugcc.ua/pub/base/.jpg","website":"https://map.ugcc.ua/view/3137-"},"geometry":{"type":"Point","coordinates":[24.84479,49.80546]}},
{"type":"Feature","properties":{"id":3083,"name":"Церква Різдва Пресвятої Богородиці","denomination":"ukrainian_greek_catholic","region":"Львівська область","image":"https://map.ugcc.ua/pub/base/1e02b150e27d9c0.jpg","website":"https://map.ugcc.ua/view/3083-"},"geometry":{"type":"Point","coordinates":[23.85926,50.17896]}},
{"type":"Feature","properties":{"id":3048,"name":"Церква святого Архистратига Михаїла","denomination":"ukrainian_greek_catholic","region":"Львівська область","image":"https://map.ugcc.ua/pub/base/7542f7c581e17a1.jpg","website":"https://map.ugcc.ua/view/3048-"},"geometry":{"type":"Point","coordinates":[24.43082,49.96298]}},
{"type":"Feature","properties":{"id":3258,"name":"Церква святого великомученика Димитрія Солунського","denomination":"ukrainian_greek_catholic","region":"Львівська область","image":"https://map.ugcc.ua/pub/base/.jpg","website":"https://map.ugcc.ua/view/3258-"},"geometry":{"type":"Point","coordinates":[24.30282,50.00779]}},
{"type":"Feature","properties":{"id":3024,"name":"Церква Преображення Господнього","denomination":"ukrainian_greek_catholic","region":"Львівська область","image":"https://map.ugcc.ua/pub/base/ce0545f6eb6c299.jpg","website":"https://map.ugcc.ua/view/3024-"},"geometry":{"type":"Point","coordinates":[24.55733,49.90905]}},
{"type":"Feature","properties":{"id":3079,"name":"Церква Благовіщення Пресвятої Богородиці","denomination":"ukrainian_greek_catholic","region":"Львівська область","image":"https://map.ugcc.ua/pub/base/11f6ed59a305af6.jpg","website":"https://map.ugcc.ua/view/3079-"},"geometry":{"type":"Point","coordinates":[23.71279,50.22369]}},
{"type":"Feature","properties":{"id":1930,"name":"Церква Вознесіння Христового","denomination":"ukrainian_greek_catholic","region":"Львівська область","image":"https://map.ugcc.ua/pub/base/.jpg","website":"https://map.ugcc.ua/view/1930-"},"geometry":{"type":"Point","coordinates":[24.69328,49.85282]}},
{"type":"Feature","properties":{"id":2509,"name":"Церква святих жінок-мироносиць","denomination":"ukrainian_greek_catholic","region":"Львівська область","image":"https://map.ugcc.ua/pub/base/3d2fd75c9200850.jpg","website":"https://map.ugcc.ua/view/2509-"},"geometry":{"type":"Point","coordinates":[24.88249,49.77855]}},
{"type":"Feature","properties":{"id":2693,"name":"Церква святого великомучениці Параскевії П’ятниці","denomination":"ukrainian_greek_catholic","region":"Львівська область","image":"https://map.ugcc.ua/pub/base/.jpg","website":"https://map.ugcc.ua/view/2693-"},"geometry":{"type":"Point","coordinates":[24.8281,49.79343]}},
{"type":"Feature","properties":{"id":3015,"name":"Церква Преображення Господнього","denomination":"ukrainian_greek_catholic","region":"Львівська область","image":"https://map.ugcc.ua/pub/base/7ac13318056dd59.jpg","website":"https://map.ugcc.ua/view/3015-"},"geometry":{"type":"Point","coordinates":[23.61279,50.24049]}},
{"type":"Feature","properties":{"id":830,"name":"Церква Безсрібників і чудотворців Косми і Дам'яна","denomination":"ukrainian_greek_catholic","region":"Львівська область","image":"https://map.ugcc.ua/pub/base/5a5e6836acf0eb3.jpg","website":"https://map.ugcc.ua/view/830-"},"geometry":{"type":"Point","coordinates":[24.42405,49.92695]}},
{"type":"Feature","properties":{"id":3013,"name":"Церква Воскресіння Господнього","denomination":"ukrainian_greek_catholic","region":"Львівська область","image":"https://map.ugcc.ua/pub/base/cb95f22aca9e37c.jpg","website":"https://map.ugcc.ua/view/3013-"},"geometry":{"type":"Point","coordinates":[23.69563,50.1969]}},
{"type":"Feature","properties":{"id":3046,"name":"Церква Воскресіння Христового","denomination":"ukrainian_greek_catholic","region":"Львівська область","image":"https://map.ugcc.ua/pub/base/.jpg","website":"https://map.ugcc.ua/view/3046-"},"geometry":{"type":"Point","coordinates":[24.36897,49.93209]}},
{"type":"Feature","properties":{"id":61,"name":"Церква Святих безсрібників Косми і Дам’яна","denomination":"ukrainian_greek_catholic","region":"Львівська область","image":"https://map.ugcc.ua/pub/base/6f355ae11c9f689.jpg","website":"https://map.ugcc.ua/view/61-"},"geometry":{"type":"Point","coordinates":[24.97717,49.69283]}},
{"type":"Feature","properties":{"id":3018,"name":"Церква святої Покрови","denomination":"ukrainian_greek_catholic","region":"Львівська область","image":"https://map.ugcc.ua/pub/base/3ab035a8daae916.jpg","website":"https://map.ugcc.ua/view/3018-"},"geometry":{"type":"Point","coordinates":[23.66038,50.19141]}},
{"type":"Feature","properties":{"id":3126,"name":"Церква святого Дмитрія","denomination":"ukrainian_greek_catholic","region":"Львівська область","image":"https://map.ugcc.ua/pub/base/2147fa10b220226.jpg","website":"https://map.ugcc.ua/view/3126-"},"geometry":{"type":"Point","coordinates":[24.88416,49.7234]}},
{"type":"Feature","properties":{"id":3134,"name":"Церква Різдва Пресвятої Богородиці","denomination":"ukrainian_greek_catholic","region":"Львівська область","image":"https://map.ugcc.ua/pub/base/94f8475e03a383a.jpg","website":"https://map.ugcc.ua/view/3134-"},"geometry":{"type":"Point","coordinates":[24.9417,49.6977]}},
{"type":"Feature","properties":{"id":3129,"name":"Церква Успіння Пресвятої Богородиці","denomination":"ukrainian_greek_catholic","region":"Львівська область","image":"https://map.ugcc.ua/pub/base/28ee3f4176471d3.jpg","website":"https://map.ugcc.ua/view/3129-"},"geometry":{"type":"Point","coordinates":[24.95923,49.68138]}},
{"type":"Feature","properties":{"id":3023,"name":"Церква Успіння Пресвятої Богородиці","denomination":"ukrainian_greek_catholic","region":"Львівська область","image":"https://map.ugcc.ua/pub/base/ee729b13ef0afec.jpg","website":"https://map.ugcc.ua/view/3023-"},"geometry":{"type":"Point","coordinates":[23.76541,50.12696]}},
{"type":"Feature","properties":{"id":1892,"name":"Церква святих апостолів Петра і Павла","denomination":"ukrainian_greek_catholic","region":"Львівська область","image":"https://map.ugcc.ua/pub/base/538984e94b3589d.jpg","website":"https://map.ugcc.ua/view/1892-"},"geometry":{"type":"Point","coordinates":[24.69041,49.77184]}},
{"type":"Feature","properties":{"id":2690,"name":"Церква св. Івана Богослова","denomination":"ukrainian_greek_catholic","region":"Львівська область","image":"https://map.ugcc.ua/pub/base/bf4cd99f82bc05f.jpg","website":"https://map.ugcc.ua/view/2690-"},"geometry":{"type":"Point","coordinates":[24.93749,49.66823]}},
{"type":"Feature","properties":{"id":3087,"name":"Церква Воздвиження Чесного Хреста","denomination":"ukrainian_greek_catholic","region":"Львівська область","image":"https://map.ugcc.ua/pub/base/127b48f8ec5dad4.jpg","website":"https://map.ugcc.ua/view/3087-"},"geometry":{"type":"Point","coordinates":[23.49073,50.21525]}},
{"type":"Feature","properties":{"id":1883,"name":"Церква Пресвятої Трійці","denomination":"ukrainian_greek_catholic","region":"Львівська область","image":"https://map.ugcc.ua/pub/base/5ef193b657e69c7.jpg","website":"https://map.ugcc.ua/view/1883-"},"geometry":{"type":"Point","coordinates":[24.72118,49.75052]}},
{"type":"Feature","properties":{"id":3019,"name":"Церква святого Духа","denomination":"ukrainian_greek_catholic","region":"Львівська область","image":"https://map.ugcc.ua/pub/base/8b625e5ad432297.jpg","website":"https://map.ugcc.ua/view/3019-"},"geometry":{"type":"Point","coordinates":[23.71167,50.12926]}},
{"type":"Feature","properties":{"id":1885,"name":"Церква св. Архистратига Михаїла","denomination":"ukrainian_greek_catholic","region":"Львівська область","image":"https://map.ugcc.ua/pub/base/82699ae055d7b35.jpg","website":"https://map.ugcc.ua/view/1885-"},"geometry":{"type":"Point","coordinates":[24.59147,49.78667]}},
{"type":"Feature","properties":{"id":3021,"name":"Церква святого великомученика Юрія","denomination":"ukrainian_greek_catholic","region":"Львівська область","image":"https://map.ugcc.ua/pub/base/03a5e529669b0b1.jpg","website":"https://map.ugcc.ua/view/3021-"},"geometry":{"type":"Point","coordinates":[23.70205,50.10957]}},
{"type":"Feature","properties":{"id":2684,"name":"Церква Успення Пресвятої Богородиці","denomination":"ukrainian_greek_catholic","region":"Львівська область","image":"https://map.ugcc.ua/pub/base/85340e93d40e803.jpg","website":"https://map.ugcc.ua/view/2684-"},"geometry":{"type":"Point","coordinates":[23.56407,50.15547]}},
{"type":"Feature","properties":{"id":1890,"name":"Церква святого пророка Іллі","denomination":"ukrainian_greek_catholic","region":"Львівська область","image":"https://map.ugcc.ua/pub/base/9d811c36a9a5afa.jpg","website":"https://map.ugcc.ua/view/1890-"},"geometry":{"type":"Point","coordinates":[24.46902,49.81682]}},
{"type":"Feature","properties":{"id":2696,"name":"Церква Собору Пресвятої Богородиці","denomination":"ukrainian_greek_catholic","region":"Львівська область","image":"https://map.ugcc.ua/pub/base/.jpg","website":"https://map.ugcc.ua/view/2696-"},"geometry":{"type":"Point","coordinates":[24.80416,49.68584]}},
{"type":"Feature","properties":{"id":2917,"name":"Церква святого архістратига Михаїла","denomination":"ukrainian_greek_catholic","region":"Львівська область","image":"https://map.ugcc.ua/pub/base/.jpg","website":"https://map.ugcc.ua/view/2917-"},"geometry":{"type":"Point","coordinates":[24.75083,49.70083]}},
{"type":"Feature","properties":{"id":511,"name":"Церква Івана Богослова","denomination":"ukrainian_greek_catholic","region":"Львівська область","image":"https://map.ugcc.ua/pub/base/.jpg","website":"https://map.ugcc.ua/view/511-"},"geometry":{"type":"Point","coordinates":[24.59905,49.75948]}},
{"type":"Feature","properties":{"id":2913,"name":"Церква святої Ольги","denomination":"ukrainian_greek_catholic","region":"Львівська область","image":"https://map.ugcc.ua/pub/base/.jpg","website":"https://map.ugcc.ua/view/2913-"},"geometry":{"type":"Point","coordinates":[24.66895,49.73007]}},
{"type":"Feature","properties":{"id":2925,"name":"Церква Пресвятої Тройці","denomination":"ukrainian_greek_catholic","region":"Львівська область","image":"https://map.ugcc.ua/pub/base/.jpg","website":"https://map.ugcc.ua/view/2925-"},"geometry":{"type":"Point","coordinates":[24.8147,49.66208]}},
{"type":"Feature","properties":{"id":315,"name":"Церква Пресвятої Тройці","denomination":"ukrainian_greek_catholic","region":"Львівська область","image":"https://map.ugcc.ua/pub/base/5e34a01d63bda09.jpg","website":"https://map.ugcc.ua/view/315-"},"geometry":{"type":"Point","coordinates":[24.27742,49.86344]}},
{"type":"Feature","properties":{"id":333,"name":"Церква Собору Пресвятої Богородиці","denomination":"ukrainian_greek_catholic","region":"Львівська область","image":"https://map.ugcc.ua/pub/base/29da71ec9d4974a.jpg","website":"https://map.ugcc.ua/view/333-"},"geometry":{"type":"Point","coordinates":[24.33026,49.84166]}},
{"type":"Feature","properties":{"id":323,"name":"Церква Зіслання Святого Духа","denomination":"ukrainian_greek_catholic","region":"Львівська область","image":"https://map.ugcc.ua/pub/base/.jpg","website":"https://map.ugcc.ua/view/323-"},"geometry":{"type":"Point","coordinates":[24.3879,49.81369]}},
{"type":"Feature","properties":{"id":2686,"name":"Церква Преображення ГНІХ","denomination":"ukrainian_greek_catholic","region":"Львівська область","image":"https://map.ugcc.ua/pub/base/1943d8d063e080e.jpg","website":"https://map.ugcc.ua/view/2686-"},"geometry":{"type":"Point","coordinates":[23.46466,50.15637]}},
{"type":"Feature","properties":{"id":510,"name":"Церква святого Миколая","denomination":"ukrainian_greek_catholic","region":"Львівська область","image":"https://map.ugcc.ua/pub/base/.jpg","website":"https://map.ugcc.ua/view/510-"},"geometry":{"type":"Point","coordinates":[24.56002,49.74126]}},
{"type":"Feature","properties":{"id":2920,"name":"Церква Покрови Пресвятої Богородиці","denomination":"ukrainian_greek_catholic","region":"Львівська область","image":"https://map.ugcc.ua/pub/base/.jpg","website":"https://map.ugcc.ua/view/2920-"},"geometry":{"type":"Point","coordinates":[24.71816,49.67972]}},
{"type":"Feature","properties":{"id":328,"name":"Церква Собору Пресвятої Богородиці","denomination":"ukrainian_greek_catholic","region":"Львівська область","image":"https://map.ugcc.ua/pub/base/ade8eee154b4c1b.jpg","website":"https://map.ugcc.ua/view/328-"},"geometry":{"type":"Point","coordinates":[24.28331,49.84582]}},
{"type":"Feature","properties":{"id":2912,"name":"Церква Преподобного Симеона","denomination":"ukrainian_greek_catholic","region":"Львівська область","image":"https://map.ugcc.ua/pub/base/.jpg","website":"https://map.ugcc.ua/view/2912-"},"geometry":{"type":"Point","coordinates":[24.65054,49.69632]}},
{"type":"Feature","properties":{"id":344,"name":"Церква Покрову Пресвятої Богородиці","denomination":"ukrainian_greek_catholic","region":"Львівська область","image":"https://map.ugcc.ua/pub/base/72a26e1cc761cff.jpg","website":"https://map.ugcc.ua/view/344-"},"geometry":{"type":"Point","coordinates":[24.16958,49.87329]}},
{"type":"Feature","properties":{"id":505,"name":"Церква Покрови Пресвятої Богородиці","denomination":"ukrainian_greek_catholic","region":"Львівська область","image":"https://map.ugcc.ua/pub/base/.jpg","website":"https://map.ugcc.ua/view/505-"},"geometry":{"type":"Point","coordinates":[24.49269,49.74896]}},
{"type":"Feature","properties":{"id":1966,"name":"Церква Преображення Господнього","denomination":"ukrainian_greek_catholic","region":"Львівська область","image":"https://map.ugcc.ua/pub/base/6565a377b48229b.jpg","website":"https://map.ugcc.ua/view/1966-"},"geometry":{"type":"Point","coordinates":[23.46213,50.13343]}},
{"type":"Feature","properties":{"id":504,"name":"Церква Покрову Пресвятої Богородиці","denomination":"ukrainian_greek_catholic","region":"Львівська область","image":"https://map.ugcc.ua/pub/base/df1b49f298d84db.jpg","website":"https://map.ugcc.ua/view/504-"},"geometry":{"type":"Point","coordinates":[24.48591,49.75055]}},
{"type":"Feature","properties":{"id":2911,"name":"Церква Вознесіння Христового","denomination":"ukrainian_greek_catholic","region":"Львівська область","image":"https://map.ugcc.ua/pub/base/42abffbc1c8f604.jpg","website":"https://map.ugcc.ua/view/2911-"},"geometry":{"type":"Point","coordinates":[24.58566,49.71088]}},
{"type":"Feature","properties":{"id":509,"name":"Церква Благовіщення Пресвятої Богородиці","denomination":"ukrainian_greek_catholic","region":"Львівська область","image":"https://map.ugcc.ua/pub/base/fe0b974dc2f9bbe.jpg","website":"https://map.ugcc.ua/view/509-"},"geometry":{"type":"Point","coordinates":[24.42932,49.76935]}},
{"type":"Feature","properties":{"id":3240,"name":"Церква Різдва Івана Хрестителя (м. Дубляни, Львівська область) ","denomination":"ukrainian_greek_catholic","region":"Львівська область","image":"https://map.ugcc.ua/pub/base/052f3faa0adc658.jpg","website":"https://map.ugcc.ua/view/3240-"},"geometry":{"type":"Point","coordinates":[24.07378,49.90262]}},
{"type":"Feature","properties":{"id":324,"name":"Церква Усікновення Голови Івана Христителя","denomination":"ukrainian_greek_catholic","region":"Львівська область","image":"https://map.ugcc.ua/pub/base/9f3b48c71857adf.jpg","website":"https://map.ugcc.ua/view/324-"},"geometry":{"type":"Point","coordinates":[24.16239,49.86674]}},
{"type":"Feature","properties":{"id":332,"name":"Церква Богоявлення ГНІХ","denomination":"ukrainian_greek_catholic","region":"Львівська область","image":"https://map.ugcc.ua/pub/base/aa2b712050d704f.jpg","website":"https://map.ugcc.ua/view/332-"},"geometry":{"type":"Point","coordinates":[24.13011,49.8734]}},
{"type":"Feature","properties":{"id":326,"name":"Церква Різдва Пресвятої Богородиці","denomination":"ukrainian_greek_catholic","region":"Львівська область","image":"https://map.ugcc.ua/pub/base/.jpg","website":"https://map.ugcc.ua/view/326-"},"geometry":{"type":"Point","coordinates":[24.22359,49.83112]}},
{"type":"Feature","properties":{"id":327,"name":"Церква Введення в Храм Пресвятої Богородиці","denomination":"ukrainian_greek_catholic","region":"Львівська область","image":"https://map.ugcc.ua/pub/base/1835476f978ad6a.jpg","website":"https://map.ugcc.ua/view/327-"},"geometry":{"type":"Point","coordinates":[24.09621,49.87752]}},
{"type":"Feature","properties":{"id":2682,"name":"Церква Покрови Пресвятої Богородиці","denomination":"ukrainian_greek_catholic","region":"Львівська область","image":"https://map.ugcc.ua/pub/base/.jpg","website":"https://map.ugcc.ua/view/2682-"},"geometry":{"type":"Point","coordinates":[23.38525,50.13685]}},
{"type":"Feature","properties":{"id":3228,"name":"Церква Собору Пресвятої Богородиці","denomination":"ukrainian_greek_catholic","region":"Львівська область","image":"https://map.ugcc.ua/pub/base/dd54ea58caa174b.jpg","website":"https://map.ugcc.ua/view/3228-"},"geometry":{"type":"Point","coordinates":[23.90861,49.94103]}},
{"type":"Feature","properties":{"id":2922,"name":"Церква Святого Богоявлення Господнього","denomination":"ukrainian_greek_catholic","region":"Львівська область","image":"https://map.ugcc.ua/pub/base/b81bf68f5c035ee.jpg","website":"https://map.ugcc.ua/view/2922-"},"geometry":{"type":"Point","coordinates":[24.44279,49.73146]}},
{"type":"Feature","properties":{"id":2923,"name":"Церква святого Архистратига Михаїла","denomination":"ukrainian_greek_catholic","region":"Львівська область","image":"https://map.ugcc.ua/pub/base/.jpg","website":"https://map.ugcc.ua/view/2923-"},"geometry":{"type":"Point","coordinates":[24.48838,49.71043]}},
{"type":"Feature","properties":{"id":410,"name":"Церква Введення в храм Пресвятої Богородиці","denomination":"ukrainian_greek_catholic","region":"Львівська область","image":"https://map.ugcc.ua/pub/base/f0529656607afb4.jpg","website":"https://map.ugcc.ua/view/410-"},"geometry":{"type":"Point","coordinates":[24.25325,49.78923]}},
{"type":"Feature","properties":{"id":382,"name":"Церква святого Івана Хрестителя","denomination":"ukrainian_greek_catholic","region":"Львівська область","image":"https://map.ugcc.ua/pub/base/c48caab430fadfc.jpg","website":"https://map.ugcc.ua/view/382-"},"geometry":{"type":"Point","coordinates":[24.52904,49.6823]}},
{"type":"Feature","properties":{"id":2910,"name":"Церква святої Параскеви","denomination":"ukrainian_greek_catholic","region":"Львівська область","image":"https://map.ugcc.ua/pub/base/.jpg","website":"https://map.ugcc.ua/view/2910-"},"geometry":{"type":"Point","coordinates":[24.68075,49.6154]}},
{"type":"Feature","properties":{"id":278,"name":"Церква Вознесіння ГНІХ","denomination":"ukrainian_greek_catholic","region":"Львівська область","image":"https://map.ugcc.ua/pub/base/3918c43fbe84b4b.jpg","website":"https://map.ugcc.ua/view/278-"},"geometry":{"type":"Point","coordinates":[24.05852,49.85122]}},
{"type":"Feature","properties":{"id":2890,"name":"Церква Перенесення мощей святого Миколая","denomination":"ukrainian_greek_catholic","region":"Львівська область","image":"https://map.ugcc.ua/pub/base/06d9012bc0dd14f.jpg","website":"https://map.ugcc.ua/view/2890-"},"geometry":{"type":"Point","coordinates":[24.65985,49.61898]}},
{"type":"Feature","properties":{"id":2551,"name":"Церква святих великомучеників Бориса і Гліба","denomination":"ukrainian_greek_catholic","region":"Львівська область","image":"https://map.ugcc.ua/pub/base/.jpg","website":"https://map.ugcc.ua/view/2551-"},"geometry":{"type":"Point","coordinates":[24.3661,49.73265]}},
{"type":"Feature","properties":{"id":3234,"name":"Церква святого Миколая","denomination":"ukrainian_greek_catholic","region":"Львівська область","image":"https://map.ugcc.ua/pub/base/8c1535725027b6d.jpg","website":"https://map.ugcc.ua/view/3234-"},"geometry":{"type":"Point","coordinates":[23.76435,49.95332]}},
{"type":"Feature","properties":{"id":335,"name":"Церква святого Миколая","denomination":"ukrainian_greek_catholic","region":"Львівська область","image":"https://map.ugcc.ua/pub/base/b22bdf3b13c0923.jpg","website":"https://map.ugcc.ua/view/335-"},"geometry":{"type":"Point","coordinates":[24.1755,49.79783]}},
{"type":"Feature","properties":{"id":2918,"name":"Церква Покрови Пресвятої Богородиці","denomination":"ukrainian_greek_catholic","region":"Львівська область","image":"https://map.ugcc.ua/pub/base/3fb5d9a76cd4f6d.jpg","website":"https://map.ugcc.ua/view/2918-"},"geometry":{"type":"Point","coordinates":[24.73814,49.58036]}},
{"type":"Feature","properties":{"id":279,"name":"Церква Покрову Пресвятої Богородиці","denomination":"ukrainian_greek_catholic","region":"Львівська область","image":"https://map.ugcc.ua/pub/base/76ee4d8b749f6ca.jpg","website":"https://map.ugcc.ua/view/279-"},"geometry":{"type":"Point","coordinates":[24.06718,49.83636]}},
{"type":"Feature","properties":{"id":2549,"name":"Церква святого Миколая","denomination":"ukrainian_greek_catholic","region":"Львівська область","image":"https://map.ugcc.ua/pub/base/.jpg","website":"https://map.ugcc.ua/view/2549-"},"geometry":{"type":"Point","coordinates":[24.41145,49.70219]}},
{"type":"Feature","properties":{"id":2552,"name":"Церква святого Миколая","denomination":"ukrainian_greek_catholic","region":"Львівська область","image":"https://map.ugcc.ua/pub/base/.jpg","website":"https://map.ugcc.ua/view/2552-"},"geometry":{"type":"Point","coordinates":[24.3947,49.70615]}},
{"type":"Feature","properties":{"id":2899,"name":"Церква Преображення Господнього","denomination":"ukrainian_greek_catholic","region":"Львівська область","image":"https://map.ugcc.ua/pub/base/.jpg","website":"https://map.ugcc.ua/view/2899-"},"geometry":{"type":"Point","coordinates":[24.50275,49.65026]}},
{"type":"Feature","properties":{"id":502,"name":"Церква Зіслання Святого Духа","denomination":"ukrainian_greek_catholic","region":"Львівська область","image":"https://map.ugcc.ua/pub/base/.jpg","website":"https://map.ugcc.ua/view/502-"},"geometry":{"type":"Point","coordinates":[24.14196,49.78824]}},
{"type":"Feature","properties":{"id":2919,"name":"Церква святих Володимира і Ольги","denomination":"ukrainian_greek_catholic","region":"Львівська область","image":"https://map.ugcc.ua/pub/base/4352cd5e17c0c12.jpg","website":"https://map.ugcc.ua/view/2919-"},"geometry":{"type":"Point","coordinates":[24.68237,49.57919]}},
{"type":"Feature","properties":{"id":2556,"name":"Церква святого Андрія Первозванного","denomination":"ukrainian_greek_catholic","region":"Львівська область","image":"https://map.ugcc.ua/pub/base/.jpg","website":"https://map.ugcc.ua/view/2556-"},"geometry":{"type":"Point","coordinates":[24.43322,49.67552]}},
{"type":"Feature","properties":{"id":321,"name":"Церква святого Великомученика Димитрія","denomination":"ukrainian_greek_catholic","region":"Львівська область","image":"https://map.ugcc.ua/pub/base/.jpg","website":"https://map.ugcc.ua/view/321-"},"geometry":{"type":"Point","coordinates":[24.15938,49.77669]}},
{"type":"Feature","properties":{"id":2560,"name":"Церква святого архистратига Михайла","denomination":"ukrainian_greek_catholic","region":"Львівська область","image":"https://map.ugcc.ua/pub/base/.jpg","website":"https://map.ugcc.ua/view/2560-"},"geometry":{"type":"Point","coordinates":[24.34732,49.70484]}},
{"type":"Feature","properties":{"id":2905,"name":"Церква Воскресіння Господнього","denomination":"ukrainian_greek_catholic","region":"Львівська область","image":"https://map.ugcc.ua/pub/base/.jpg","website":"https://map.ugcc.ua/view/2905-"},"geometry":{"type":"Point","coordinates":[24.61864,49.59896]}},
{"type":"Feature","properties":{"id":1959,"name":"Церква Різдва Пресвятої Богородиці","denomination":"ukrainian_greek_catholic","region":"Львівська область","image":"https://map.ugcc.ua/pub/base/63b731e7b083c35.jpg","website":"https://map.ugcc.ua/view/1959-"},"geometry":{"type":"Point","coordinates":[23.42672,50.04669]}},
{"type":"Feature","properties":{"id":2673,"name":"Церква Різдва Пресвятої Богородиці","denomination":"ukrainian_greek_catholic","region":"Львівська область","image":"https://map.ugcc.ua/pub/base/a3c64818c9870e6.jpg","website":"https://map.ugcc.ua/view/2673-"},"geometry":{"type":"Point","coordinates":[23.38325,50.06215]}},
{"type":"Feature","properties":{"id":2689,"name":"Церква Непорочного Зачаття Пресвятої Богородиці","denomination":"ukrainian_greek_catholic","region":"Львівська область","image":"https://map.ugcc.ua/pub/base/.jpg","website":"https://map.ugcc.ua/view/2689-"},"geometry":{"type":"Point","coordinates":[23.35253,50.07208]}},
{"type":"Feature","properties":{"id":1967,"name":"Церква святого Архистратига Михаїла","denomination":"ukrainian_greek_catholic","region":"Львівська область","image":"https://map.ugcc.ua/pub/base/58601e593a2963f.jpg","website":"https://map.ugcc.ua/view/1967-"},"geometry":{"type":"Point","coordinates":[23.29391,50.09281]}},
{"type":"Feature","properties":{"id":492,"name":"Церква святого Миколая","denomination":"ukrainian_greek_catholic","region":"Львівська область","image":"https://map.ugcc.ua/pub/base/3bf09e91cc2bed6.jpg","website":"https://map.ugcc.ua/view/492-"},"geometry":{"type":"Point","coordinates":[24.24413,49.74048]}},
{"type":"Feature","properties":{"id":2906,"name":"Церква Представлення святого Івана Богослова","denomination":"ukrainian_greek_catholic","region":"Львівська область","image":"https://map.ugcc.ua/pub/base/.jpg","website":"https://map.ugcc.ua/view/2906-"},"geometry":{"type":"Point","coordinates":[24.59692,49.59457]}},
{"type":"Feature","properties":{"id":2559,"name":"Церква Воздвиження Чесного Хреста","denomination":"ukrainian_greek_catholic","region":"Львівська область","image":"https://map.ugcc.ua/pub/base/.jpg","website":"https://map.ugcc.ua/view/2559-"},"geometry":{"type":"Point","coordinates":[24.33036,49.69417]}},
{"type":"Feature","properties":{"id":2562,"name":"Церква Благовіщення Пресвятої Богородиці у Патріаршому Домі","denomination":"ukrainian_greek_catholic","region":"Львівська область","image":"https://map.ugcc.ua/pub/base/9d1a3707d665920.jpg","website":"https://map.ugcc.ua/view/2562-"},"geometry":{"type":"Point","coordinates":[24.03622,49.80372]}},
{"type":"Feature","properties":{"id":2900,"name":"Церква Введення в Храм Пресвятої Богородиці","denomination":"ukrainian_greek_catholic","region":"Львівська область","image":"https://map.ugcc.ua/pub/base/.jpg","website":"https://map.ugcc.ua/view/2900-"},"geometry":{"type":"Point","coordinates":[24.49069,49.62866]}},
{"type":"Feature","properties":{"id":2897,"name":"Церква Перенесення мощей Святого Миколая","denomination":"ukrainian_greek_catholic","region":"Львівська область","image":"https://map.ugcc.ua/pub/base/85eca6243e17e80.jpg","website":"https://map.ugcc.ua/view/2897-"},"geometry":{"type":"Point","coordinates":[24.67653,49.55516]}},
{"type":"Feature","properties":{"id":294,"name":"Храм Святого Духа","denomination":"ukrainian_greek_catholic","region":"Львівська область","image":"https://map.ugcc.ua/pub/base/db7b5bb4de10b59.jpg","website":"https://map.ugcc.ua/view/294-"},"geometry":{"type":"Point","coordinates":[24.03424,49.80181]}},
{"type":"Feature","properties":{"id":2908,"name":"Церква Різдва Пресвятої Богородиці","denomination":"ukrainian_greek_catholic","region":"Львівська область","image":"https://map.ugcc.ua/pub/base/82499e9e550c754.jpg","website":"https://map.ugcc.ua/view/2908-"},"geometry":{"type":"Point","coordinates":[24.58118,49.58379]}},
{"type":"Feature","properties":{"id":2951,"name":"Церква Собору святого Івана Христителя","denomination":"ukrainian_greek_catholic","region":"Львівська область","image":"https://map.ugcc.ua/pub/base/.jpg","website":"https://map.ugcc.ua/view/2951-"},"geometry":{"type":"Point","coordinates":[23.42736,50.01619]}},
{"type":"Feature","properties":{"id":2895,"name":"Церква Преображення Господнього","denomination":"ukrainian_greek_catholic","region":"Львівська область","image":"https://map.ugcc.ua/pub/base/a66ae717c75f8c8.jpg","website":"https://map.ugcc.ua/view/2895-"},"geometry":{"type":"Point","coordinates":[24.53476,49.59957]}},
{"type":"Feature","properties":{"id":2904,"name":"Церква святої великомучениці Параскевії","denomination":"ukrainian_greek_catholic","region":"Львівська область","image":"https://map.ugcc.ua/pub/base/.jpg","website":"https://map.ugcc.ua/view/2904-"},"geometry":{"type":"Point","coordinates":[24.60572,49.56786]}},
{"type":"Feature","properties":{"id":2681,"name":"Церква Різдва святого Івана Христителя","denomination":"ukrainian_greek_catholic","region":"Львівська область","image":"https://map.ugcc.ua/pub/base/f6a1996eb9d9a71.jpg","website":"https://map.ugcc.ua/view/2681-"},"geometry":{"type":"Point","coordinates":[23.35066,50.03877]}},
{"type":"Feature","properties":{"id":500,"name":"Церква Різдва Пресвятої Богородиці","denomination":"ukrainian_greek_catholic","region":"Львівська область","image":"https://map.ugcc.ua/pub/base/.jpg","website":"https://map.ugcc.ua/view/500-"},"geometry":{"type":"Point","coordinates":[24.14191,49.74353]}},
{"type":"Feature","properties":{"id":3211,"name":"Церква Різдва Пресвятої Богородиці","denomination":"ukrainian_greek_catholic","region":"Львівська область","image":"https://map.ugcc.ua/pub/base/17f8f102eed5dc0.jpg","website":"https://map.ugcc.ua/view/3211-"},"geometry":{"type":"Point","coordinates":[23.81533,49.86586]}},
{"type":"Feature","properties":{"id":967,"name":"Церква святого Івана Хрестителя","denomination":"ukrainian_greek_catholic","region":"Львівська область","image":"https://map.ugcc.ua/pub/base/92951480dceb4c9.jpg","website":"https://map.ugcc.ua/view/967-"},"geometry":{"type":"Point","coordinates":[24.6514,49.5423]}},
{"type":"Feature","properties":{"id":968,"name":"Церква Богоявлення Господнього","denomination":"ukrainian_greek_catholic","region":"Львівська область","image":"https://map.ugcc.ua/pub/base/1b5e852cd5b4187.jpg","website":"https://map.ugcc.ua/view/968-"},"geometry":{"type":"Point","coordinates":[24.65181,49.54199]}},
{"type":"Feature","properties":{"id":2557,"name":"Церква Покрови Пресвятої Богородиці","denomination":"ukrainian_greek_catholic","region":"Львівська область","image":"https://map.ugcc.ua/pub/base/be4b6d684944d03.jpg","website":"https://map.ugcc.ua/view/2557-"},"geometry":{"type":"Point","coordinates":[24.44489,49.62242]}},
{"type":"Feature","properties":{"id":2555,"name":"Церква святого Івана Хрестителя","denomination":"ukrainian_greek_catholic","region":"Львівська область","image":"https://map.ugcc.ua/pub/base/.jpg","website":"https://map.ugcc.ua/view/2555-"},"geometry":{"type":"Point","coordinates":[24.44486,49.62242]}},
{"type":"Feature","properties":{"id":3232,"name":"Церква святого Юрія","denomination":"ukrainian_greek_catholic","region":"Львівська область","image":"https://map.ugcc.ua/pub/base/e5a133296cd958a.jpg","website":"https://map.ugcc.ua/view/3232-"},"geometry":{"type":"Point","coordinates":[23.54035,49.95741]}},
{"type":"Feature","properties":{"id":2896,"name":"Церква Покрови Пресвятої Богородиці","denomination":"ukrainian_greek_catholic","region":"Львівська область","image":"https://map.ugcc.ua/pub/base/.jpg","website":"https://map.ugcc.ua/view/2896-"},"geometry":{"type":"Point","coordinates":[24.51497,49.58828]}},
{"type":"Feature","properties":{"id":495,"name":"Церква Усікновення голови Івана Хрестителя","denomination":"ukrainian_greek_catholic","region":"Львівська область","image":"https://map.ugcc.ua/pub/base/.jpg","website":"https://map.ugcc.ua/view/495-"},"geometry":{"type":"Point","coordinates":[24.17358,49.71921]}},
{"type":"Feature","properties":{"id":2671,"name":"Церква Покрови Пресвятої Богородицi","denomination":"ukrainian_greek_catholic","region":"Львівська область","image":"https://map.ugcc.ua/pub/base/d7ea4620cd2ec8d.jpg","website":"https://map.ugcc.ua/view/2671-"},"geometry":{"type":"Point","coordinates":[23.28145,50.04849]}},
{"type":"Feature","properties":{"id":2903,"name":"Церква святого архистратига Михаїла","denomination":"ukrainian_greek_catholic","region":"Львівська область","image":"https://map.ugcc.ua/pub/base/.jpg","website":"https://map.ugcc.ua/view/2903-"},"geometry":{"type":"Point","coordinates":[24.53091,49.5786]}},
{"type":"Feature","properties":{"id":494,"name":"Церква Собору Пресвятої Богородиці","denomination":"ukrainian_greek_catholic","region":"Львівська область","image":"https://map.ugcc.ua/pub/base/.jpg","website":"https://map.ugcc.ua/view/494-"},"geometry":{"type":"Point","coordinates":[24.19395,49.70614]}},
{"type":"Feature","properties":{"id":3231,"name":"Церква святого Миколая","denomination":"ukrainian_greek_catholic","region":"Львівська область","image":"https://map.ugcc.ua/pub/base/b0a9284d3160e12.jpg","website":"https://map.ugcc.ua/view/3231-"},"geometry":{"type":"Point","coordinates":[23.53978,49.95012]}},
{"type":"Feature","properties":{"id":2898,"name":"Церква Преподобної Параскевії","denomination":"ukrainian_greek_catholic","region":"Львівська область","image":"https://map.ugcc.ua/pub/base/.jpg","website":"https://map.ugcc.ua/view/2898-"},"geometry":{"type":"Point","coordinates":[24.69071,49.51353]}},
{"type":"Feature","properties":{"id":3230,"name":"Церква преподобної Параскевії","denomination":"ukrainian_greek_catholic","region":"Львівська область","image":"https://map.ugcc.ua/pub/base/2895d94e6f4a87b.jpg","website":"https://map.ugcc.ua/view/3230-"},"geometry":{"type":"Point","coordinates":[23.54139,49.94821]}},
{"type":"Feature","properties":{"id":1900,"name":"Церква Стрітення ГНІХ","denomination":"ukrainian_greek_catholic","region":"Львівська область","image":"https://map.ugcc.ua/pub/base/3a8297f32a97693.jpg","website":"https://map.ugcc.ua/view/1900-"},"geometry":{"type":"Point","coordinates":[24.15159,49.71847]}},
{"type":"Feature","properties":{"id":2963,"name":"Церква святого Миколая","denomination":"ukrainian_greek_catholic","region":"Львівська область","image":"https://map.ugcc.ua/pub/base/.jpg","website":"https://map.ugcc.ua/view/2963-"},"geometry":{"type":"Point","coordinates":[23.46428,49.96809]}},
{"type":"Feature","properties":{"id":2674,"name":"Церква Успення Пресвятої Богородиці","denomination":"ukrainian_greek_catholic","region":"Львівська область","image":"https://map.ugcc.ua/pub/base/.jpg","website":"https://map.ugcc.ua/view/2674-"},"geometry":{"type":"Point","coordinates":[23.23487,50.04486]}},
{"type":"Feature","properties":{"id":827,"name":"Церква святого Архистратига Михаїла","denomination":"ukrainian_greek_catholic","region":"Львівська область","image":"https://map.ugcc.ua/pub/base/2f422f9e027878a.jpg","website":"https://map.ugcc.ua/view/827-"},"geometry":{"type":"Point","coordinates":[24.59787,49.53324]}},
{"type":"Feature","properties":{"id":666,"name":"Церква Воздвиження Чесного та Животворящого Хреста Господнього","denomination":"ukrainian_greek_catholic","region":"Львівська область","image":"https://map.ugcc.ua/pub/base/.jpg","website":"https://map.ugcc.ua/view/666-"},"geometry":{"type":"Point","coordinates":[24.5212,49.56244]}},
{"type":"Feature","properties":{"id":2948,"name":"Церква преподобної Параскеви","denomination":"ukrainian_greek_catholic","region":"Львівська область","image":"https://map.ugcc.ua/pub/base/.jpg","website":"https://map.ugcc.ua/view/2948-"},"geometry":{"type":"Point","coordinates":[23.42537,49.96826]}},
{"type":"Feature","properties":{"id":91,"name":"Церква Благовіщення Пресвятої Богородиці","denomination":"ukrainian_greek_catholic","region":"Львівська область","image":"https://map.ugcc.ua/pub/base/73a44dfae98129f.jpg","website":"https://map.ugcc.ua/view/91-"},"geometry":{"type":"Point","coordinates":[24.47143,49.57507]}},
{"type":"Feature","properties":{"id":496,"name":"Церква апостолів Петра і Павла","denomination":"ukrainian_greek_catholic","region":"Львівська область","image":"https://map.ugcc.ua/pub/base/875cf1449d7ba15.jpg","website":"https://map.ugcc.ua/view/496-"},"geometry":{"type":"Point","coordinates":[24.18724,49.68034]}},
{"type":"Feature","properties":{"id":497,"name":"Церква Воздвиження Чесного Хреста","denomination":"ukrainian_greek_catholic","region":"Львівська область","image":"https://map.ugcc.ua/pub/base/5813e8178b3031c.jpg","website":"https://map.ugcc.ua/view/497-"},"geometry":{"type":"Point","coordinates":[24.18723,49.68016]}},
{"type":"Feature","properties":{"id":2902,"name":"Церква святого Миколая","denomination":"ukrainian_greek_catholic","region":"Львівська область","image":"https://map.ugcc.ua/pub/base/.jpg","website":"https://map.ugcc.ua/view/2902-"},"geometry":{"type":"Point","coordinates":[24.54139,49.54124]}},
{"type":"Feature","properties":{"id":2580,"name":"Церква Покрови Пресвятої Богородиці","denomination":"ukrainian_greek_catholic","region":"Львівська область","image":"https://map.ugcc.ua/pub/base/9de56f3017fb706.jpg","website":"https://map.ugcc.ua/view/2580-"},"geometry":{"type":"Point","coordinates":[23.73312,49.84116]}},
{"type":"Feature","properties":{"id":503,"name":"Церква Введення в храм Пресвятої Богородиці","denomination":"ukrainian_greek_catholic","region":"Львівська область","image":"https://map.ugcc.ua/pub/base/.jpg","website":"https://map.ugcc.ua/view/503-"},"geometry":{"type":"Point","coordinates":[24.07272,49.71222]}},
{"type":"Feature","properties":{"id":503,"name":"Церква Введення в храм Пресвятої Богородиці","denomination":"ukrainian_greek_catholic","region":"Львівська область","image":"https://map.ugcc.ua/pub/base/.jpg","website":"https://map.ugcc.ua/view/503-"},"geometry":{"type":"Point","coordinates":[24.07272,49.71222]}},
{"type":"Feature","properties":{"id":3208,"name":"Церква Успення Пресвятої Богородиці","denomination":"ukrainian_greek_catholic","region":"Львівська область","image":"https://map.ugcc.ua/pub/base/a6a98f87ef2bf42.jpg","website":"https://map.ugcc.ua/view/3208-"},"geometry":{"type":"Point","coordinates":[24.10886,49.69648]}},
{"type":"Feature","properties":{"id":665,"name":"Церква Різдва Пресвятої Богородиці","denomination":"ukrainian_greek_catholic","region":"Львівська область","image":"https://map.ugcc.ua/pub/base/1b568e152bb7941.jpg","website":"https://map.ugcc.ua/view/665-"},"geometry":{"type":"Point","coordinates":[24.46968,49.55769]}},
{"type":"Feature","properties":{"id":2965,"name":"Церква святого Миколая","denomination":"ukrainian_greek_catholic","region":"Львівська область","image":"https://map.ugcc.ua/pub/base/877417edbe3f854.jpg","website":"https://map.ugcc.ua/view/2965-"},"geometry":{"type":"Point","coordinates":[23.33985,49.97918]}},
{"type":"Feature","properties":{"id":2571,"name":"Церква святого Василія Великого","denomination":"ukrainian_greek_catholic","region":"Львівська область","image":"https://map.ugcc.ua/pub/base/7be6f912302d270.jpg","website":"https://map.ugcc.ua/view/2571-"},"geometry":{"type":"Point","coordinates":[23.81972,49.80051]}},
{"type":"Feature","properties":{"id":3215,"name":"Церква Успення Пресвятої Богородиці","denomination":"ukrainian_greek_catholic","region":"Львівська область","image":"https://map.ugcc.ua/pub/base/ddecef9a08df410.jpg","website":"https://map.ugcc.ua/view/3215-"},"geometry":{"type":"Point","coordinates":[23.674,49.85313]}},
{"type":"Feature","properties":{"id":3095,"name":"Церква Різдва Пресвятої Богородиці","denomination":"ukrainian_greek_catholic","region":"Львівська область","image":"https://map.ugcc.ua/pub/base/68d96f9e470a632.jpg","website":"https://map.ugcc.ua/view/3095-"},"geometry":{"type":"Point","coordinates":[23.39985,49.95129]}},
{"type":"Feature","properties":{"id":3200,"name":"Церква Зіслання Святого Духа","denomination":"ukrainian_greek_catholic","region":"Львівська область","image":"https://map.ugcc.ua/pub/base/ac4ed492ccd10c0.jpg","website":"https://map.ugcc.ua/view/3200-"},"geometry":{"type":"Point","coordinates":[23.93235,49.74961]}},
{"type":"Feature","properties":{"id":2545,"name":"Церква святого Андрія Первозванного","denomination":"ukrainian_greek_catholic","region":"Львівська область","image":"https://map.ugcc.ua/pub/base/0ae8756fb18a33f.jpg","website":"https://map.ugcc.ua/view/2545-"},"geometry":{"type":"Point","coordinates":[24.33934,49.5921]}},
{"type":"Feature","properties":{"id":2561,"name":"Церква Різдва Пресвятої Богородиці","denomination":"ukrainian_greek_catholic","region":"Львівська область","image":"https://map.ugcc.ua/pub/base/.jpg","website":"https://map.ugcc.ua/view/2561-"},"geometry":{"type":"Point","coordinates":[24.29208,49.60867]}},
{"type":"Feature","properties":{"id":1932,"name":"Церква Успіння Пресвятої Богородиці","denomination":"ukrainian_greek_catholic","region":"Львівська область","image":"https://map.ugcc.ua/pub/base/.jpg","website":"https://map.ugcc.ua/view/1932-"},"geometry":{"type":"Point","coordinates":[23.21001,50.01004]}},
{"type":"Feature","properties":{"id":2954,"name":"Церква Різдва Пресвятої Богородиці","denomination":"ukrainian_greek_catholic","region":"Львівська область","image":"https://map.ugcc.ua/pub/base/.jpg","website":"https://map.ugcc.ua/view/2954-"},"geometry":{"type":"Point","coordinates":[23.55392,49.8837]}},
{"type":"Feature","properties":{"id":1935,"name":"Церква Покрову Пресвятої Богородиці","denomination":"ukrainian_greek_catholic","region":"Львівська область","image":"https://map.ugcc.ua/pub/base/.jpg","website":"https://map.ugcc.ua/view/1935-"},"geometry":{"type":"Point","coordinates":[23.23578,49.99757]}},
{"type":"Feature","properties":{"id":1898,"name":"Церква святого Миколая","denomination":"ukrainian_greek_catholic","region":"Львівська область","image":"https://map.ugcc.ua/pub/base/.jpg","website":"https://map.ugcc.ua/view/1898-"},"geometry":{"type":"Point","coordinates":[24.12755,49.66666]}},
{"type":"Feature","properties":{"id":2839,"name":"Церква святих апостолів Петра і Павла","denomination":"ukrainian_greek_catholic","region":"Львівська область","image":"https://map.ugcc.ua/pub/base/8db535549ccbd96.jpg","website":"https://map.ugcc.ua/view/2839-"},"geometry":{"type":"Point","coordinates":[23.9987,49.71526]}},
{"type":"Feature","properties":{"id":2961,"name":"Церква Пресвятої Трійці","denomination":"ukrainian_greek_catholic","region":"Львівська область","image":"https://map.ugcc.ua/pub/base/f2121381323ca10.jpg","website":"https://map.ugcc.ua/view/2961-"},"geometry":{"type":"Point","coordinates":[23.48734,49.90442]}},
{"type":"Feature","properties":{"id":2547,"name":"Церква Пресвятої Трійці","denomination":"ukrainian_greek_catholic","region":"Львівська область","image":"https://map.ugcc.ua/pub/base/0e46ce9d2dab90f.jpg","website":"https://map.ugcc.ua/view/2547-"},"geometry":{"type":"Point","coordinates":[24.18138,49.63614]}},
{"type":"Feature","properties":{"id":3207,"name":"Церква святого Архистратига Михаїла","denomination":"ukrainian_greek_catholic","region":"Львівська область","image":"https://map.ugcc.ua/pub/base/97cd0dca4777942.jpg","website":"https://map.ugcc.ua/view/3207-"},"geometry":{"type":"Point","coordinates":[23.83993,49.7649]}},
{"type":"Feature","properties":{"id":2566,"name":"Церква Воскресіння Господнього","denomination":"ukrainian_greek_catholic","region":"Львівська область","image":"https://map.ugcc.ua/pub/base/.jpg","website":"https://map.ugcc.ua/view/2566-"},"geometry":{"type":"Point","coordinates":[24.14269,49.65065]}},
{"type":"Feature","properties":{"id":2575,"name":"Церква святого пророка Іллі","denomination":"ukrainian_greek_catholic","region":"Львівська область","image":"https://map.ugcc.ua/pub/base/.jpg","website":"https://map.ugcc.ua/view/2575-"},"geometry":{"type":"Point","coordinates":[23.5558,49.86851]}},
{"type":"Feature","properties":{"id":2565,"name":"Церква Успення Пресвятої Богородиці","denomination":"ukrainian_greek_catholic","region":"Львівська область","image":"https://map.ugcc.ua/pub/base/4425b99e8b994a2.jpg","website":"https://map.ugcc.ua/view/2565-"},"geometry":{"type":"Point","coordinates":[24.2319,49.61406]}},
{"type":"Feature","properties":{"id":1943,"name":"Церква спення Пресвятої Богородиці","denomination":"ukrainian_greek_catholic","region":"Львівська область","image":"https://map.ugcc.ua/pub/base/.jpg","website":"https://map.ugcc.ua/view/1943-"},"geometry":{"type":"Point","coordinates":[23.25902,49.97519]}},
{"type":"Feature","properties":{"id":3090,"name":"Церква Преображення ГНІХ","denomination":"ukrainian_greek_catholic","region":"Львівська область","image":"https://map.ugcc.ua/pub/base/.jpg","website":"https://map.ugcc.ua/view/3090-"},"geometry":{"type":"Point","coordinates":[23.37463,49.93321]}},
{"type":"Feature","properties":{"id":3093,"name":"Церква Покрови Пресвятої Богородиці","denomination":"ukrainian_greek_catholic","region":"Львівська область","image":"https://map.ugcc.ua/pub/base/.jpg","website":"https://map.ugcc.ua/view/3093-"},"geometry":{"type":"Point","coordinates":[23.38564,49.92847]}},
{"type":"Feature","properties":{"id":3089,"name":"Церква святого Євстахія Плачиди","denomination":"ukrainian_greek_catholic","region":"Львівська область","image":"https://map.ugcc.ua/pub/base/.jpg","website":"https://map.ugcc.ua/view/3089-"},"geometry":{"type":"Point","coordinates":[23.45321,49.90165]}},
{"type":"Feature","properties":{"id":1957,"name":"Церква Різдва Пресвятої Богородиці","denomination":"ukrainian_greek_catholic","region":"Львівська область","image":"https://map.ugcc.ua/pub/base/7ba6e71755e21bc.jpg","website":"https://map.ugcc.ua/view/1957-"},"geometry":{"type":"Point","coordinates":[23.19263,49.99302]}},
{"type":"Feature","properties":{"id":155,"name":"Церква Собору Пресвятої Богородиці","denomination":"ukrainian_greek_catholic","region":"Львівська область","image":"https://map.ugcc.ua/pub/base/d9146cfd621d778.jpg","website":"https://map.ugcc.ua/view/155-"},"geometry":{"type":"Point","coordinates":[23.47102,49.88753]}},
{"type":"Feature","properties":{"id":2881,"name":"Церква Архістратига Михаїла","denomination":"ukrainian_greek_catholic","region":"Львівська область","image":"https://map.ugcc.ua/pub/base/c57bb9ba0351639.jpg","website":"https://map.ugcc.ua/view/2881-"},"geometry":{"type":"Point","coordinates":[24.28132,49.5782]}},
{"type":"Feature","properties":{"id":1949,"name":"Церква Пресвятої Трійці","denomination":"ukrainian_greek_catholic","region":"Львівська область","image":"https://map.ugcc.ua/pub/base/.jpg","website":"https://map.ugcc.ua/view/1949-"},"geometry":{"type":"Point","coordinates":[23.3011,49.93704]}},
{"type":"Feature","properties":{"id":2158,"name":"Церква Успіння Пресвятої Богородиці","denomination":"ukrainian_greek_catholic","region":"Львівська область","image":"https://map.ugcc.ua/pub/base/.jpg","website":"https://map.ugcc.ua/view/2158-"},"geometry":{"type":"Point","coordinates":[23.59389,49.82955]}},
{"type":"Feature","properties":{"id":3202,"name":"Церква Різдва Пресвятої Богородиці","denomination":"ukrainian_greek_catholic","region":"Львівська область","image":"https://map.ugcc.ua/pub/base/9494148a71e3983.jpg","website":"https://map.ugcc.ua/view/3202-"},"geometry":{"type":"Point","coordinates":[23.835,49.73822]}},
{"type":"Feature","properties":{"id":2567,"name":"Церква Покрови Пресвятої Богородиці","denomination":"ukrainian_greek_catholic","region":"Львівська область","image":"https://map.ugcc.ua/pub/base/89a1ab00d89806e.jpg","website":"https://map.ugcc.ua/view/2567-"},"geometry":{"type":"Point","coordinates":[24.16698,49.6091]}},
{"type":"Feature","properties":{"id":1955,"name":"Церква Вознесіння ГНІХ","denomination":"ukrainian_greek_catholic","region":"Львівська область","image":"https://map.ugcc.ua/pub/base/0ad218cb0363cf5.jpg","website":"https://map.ugcc.ua/view/1955-"},"geometry":{"type":"Point","coordinates":[23.18633,49.97115]}},
{"type":"Feature","properties":{"id":2968,"name":"Церква Введення в Храм Пресвятої Богородиці","denomination":"ukrainian_greek_catholic","region":"Львівська область","image":"https://map.ugcc.ua/pub/base/.jpg","website":"https://map.ugcc.ua/view/2968-"},"geometry":{"type":"Point","coordinates":[23.38182,49.89971]}},
{"type":"Feature","properties":{"id":831,"name":"Церква Безсрібників і чудотворців Косми і Дам'яна","denomination":"ukrainian_greek_catholic","region":"Львівська область","image":"https://map.ugcc.ua/pub/base/73e33ab1894f962.jpg","website":"https://map.ugcc.ua/view/831-"},"geometry":{"type":"Point","coordinates":[23.59695,49.81375]}},
{"type":"Feature","properties":{"id":2887,"name":"Церква Різдва Христового","denomination":"ukrainian_greek_catholic","region":"Львівська область","image":"https://map.ugcc.ua/pub/base/4bb468f95a4ebe8.jpg","website":"https://map.ugcc.ua/view/2887-"},"geometry":{"type":"Point","coordinates":[24.32713,49.53521]}},
{"type":"Feature","properties":{"id":1933,"name":"Церква Покрови Пресвятої Богородиці","denomination":"ukrainian_greek_catholic","region":"Львівська область","image":"https://map.ugcc.ua/pub/base/.jpg","website":"https://map.ugcc.ua/view/1933-"},"geometry":{"type":"Point","coordinates":[23.20469,49.95112]}},
{"type":"Feature","properties":{"id":3143,"name":"Церква Покрови Пресвятої Богородиці","denomination":"ukrainian_greek_catholic","region":"Львівська область","image":"https://map.ugcc.ua/pub/base/.jpg","website":"https://map.ugcc.ua/view/3143-"},"geometry":{"type":"Point","coordinates":[23.84702,49.71287]}},
{"type":"Feature","properties":{"id":2162,"name":"Церква святих Бориса і Гліба","denomination":"ukrainian_greek_catholic","region":"Львівська область","image":"https://map.ugcc.ua/pub/base/.jpg","website":"https://map.ugcc.ua/view/2162-"},"geometry":{"type":"Point","coordinates":[23.52834,49.82905]}},
{"type":"Feature","properties":{"id":2877,"name":"Церква Різдва Пресвятої Богордиці","denomination":"ukrainian_greek_catholic","region":"Львівська область","image":"https://map.ugcc.ua/pub/base/.jpg","website":"https://map.ugcc.ua/view/2877-"},"geometry":{"type":"Point","coordinates":[24.3669,49.51169]}},
{"type":"Feature","properties":{"id":1945,"name":"Церква святого Миколая","denomination":"ukrainian_greek_catholic","region":"Львівська область","image":"https://map.ugcc.ua/pub/base/29cf1a7dd505cb9.jpg","website":"https://map.ugcc.ua/view/1945-"},"geometry":{"type":"Point","coordinates":[23.16077,49.96069]}},
{"type":"Feature","properties":{"id":1948,"name":"Церква Успення Пресвятої Богородиці","denomination":"ukrainian_greek_catholic","region":"Львівська область","image":"https://map.ugcc.ua/pub/base/3a0b43424cf3db2.jpg","website":"https://map.ugcc.ua/view/1948-"},"geometry":{"type":"Point","coordinates":[23.19784,49.93499]}},
{"type":"Feature","properties":{"id":2950,"name":"Церква Усікновення Голови Івана Христителя","denomination":"ukrainian_greek_catholic","region":"Львівська область","image":"https://map.ugcc.ua/pub/base/.jpg","website":"https://map.ugcc.ua/view/2950-"},"geometry":{"type":"Point","coordinates":[23.41693,49.85227]}},
{"type":"Feature","properties":{"id":1939,"name":"Церква святих апостолів Петра і Павла","denomination":"ukrainian_greek_catholic","region":"Львівська область","image":"https://map.ugcc.ua/pub/base/.jpg","website":"https://map.ugcc.ua/view/1939-"},"geometry":{"type":"Point","coordinates":[23.13088,49.9529]}},
{"type":"Feature","properties":{"id":1946,"name":"Церква святого пророка Іллі","denomination":"ukrainian_greek_catholic","region":"Львівська область","image":"https://map.ugcc.ua/pub/base/86f763ac8b4e4ff.jpg","website":"https://map.ugcc.ua/view/1946-"},"geometry":{"type":"Point","coordinates":[23.20596,49.92519]}},
{"type":"Feature","properties":{"id":2892,"name":"Церква Пресвятої Євхаристії","denomination":"ukrainian_greek_catholic","region":"Львівська область","image":"https://map.ugcc.ua/pub/base/.jpg","website":"https://map.ugcc.ua/view/2892-"},"geometry":{"type":"Point","coordinates":[24.3429,49.50028]}},
{"type":"Feature","properties":{"id":2164,"name":"Церква Воздвиження Чесного Хреста","denomination":"ukrainian_greek_catholic","region":"Львівська область","image":"https://map.ugcc.ua/pub/base/.jpg","website":"https://map.ugcc.ua/view/2164-"},"geometry":{"type":"Point","coordinates":[23.52454,49.80327]}},
{"type":"Feature","properties":{"id":2579,"name":"Церква Преображення Господнього","denomination":"ukrainian_greek_catholic","region":"Львівська область","image":"https://map.ugcc.ua/pub/base/.jpg","website":"https://map.ugcc.ua/view/2579-"},"geometry":{"type":"Point","coordinates":[23.68019,49.74572]}},
{"type":"Feature","properties":{"id":2726,"name":"Церква Успіння Пресвятої Богородиці","denomination":"ukrainian_greek_catholic","region":"Львівська область","image":"https://map.ugcc.ua/pub/base/20ab0e65008668d.jpg","website":"https://map.ugcc.ua/view/2726-"},"geometry":{"type":"Point","coordinates":[24.21894,49.54142]}},
{"type":"Feature","properties":{"id":2724,"name":"Церква Пресвятої Трійці","denomination":"ukrainian_greek_catholic","region":"Львівська область","image":"https://map.ugcc.ua/pub/base/.jpg","website":"https://map.ugcc.ua/view/2724-"},"geometry":{"type":"Point","coordinates":[24.1951,49.55017]}},
{"type":"Feature","properties":{"id":2875,"name":"Церква святого великомученика Димитрія Мироточця","denomination":"ukrainian_greek_catholic","region":"Львівська область","image":"https://map.ugcc.ua/pub/base/ea98c80029994df.jpg","website":"https://map.ugcc.ua/view/2875-"},"geometry":{"type":"Point","coordinates":[24.30777,49.50589]}},
{"type":"Feature","properties":{"id":2824,"name":"Церква Преподобної Параскевії","denomination":"ukrainian_greek_catholic","region":"Львівська область","image":"https://map.ugcc.ua/pub/base/18292737f150db2.jpg","website":"https://map.ugcc.ua/view/2824-"},"geometry":{"type":"Point","coordinates":[24.0042,49.61777]}},
{"type":"Feature","properties":{"id":2932,"name":"Церква Успення Пресвятої Богородиці","denomination":"ukrainian_greek_catholic","region":"Львівська область","image":"https://map.ugcc.ua/pub/base/55a48cc21aa796f.jpg","website":"https://map.ugcc.ua/view/2932-"},"geometry":{"type":"Point","coordinates":[24.23363,49.52996]}},
{"type":"Feature","properties":{"id":1934,"name":"Церква святої Параскевії","denomination":"ukrainian_greek_catholic","region":"Львівська область","image":"https://map.ugcc.ua/pub/base/a6f41a01cdc7f80.jpg","website":"https://map.ugcc.ua/view/1934-"},"geometry":{"type":"Point","coordinates":[23.26141,49.89252]}},
{"type":"Feature","properties":{"id":2889,"name":"Церква святого Миколая","denomination":"ukrainian_greek_catholic","region":"Львівська область","image":"https://map.ugcc.ua/pub/base/.jpg","website":"https://map.ugcc.ua/view/2889-"},"geometry":{"type":"Point","coordinates":[24.38359,49.47164]}},
{"type":"Feature","properties":{"id":1937,"name":"Церква преподобного Онуфрія Великого","denomination":"ukrainian_greek_catholic","region":"Львівська область","image":"https://map.ugcc.ua/pub/base/18820b56773fde8.jpg","website":"https://map.ugcc.ua/view/1937-"},"geometry":{"type":"Point","coordinates":[23.12155,49.93992]}},
{"type":"Feature","properties":{"id":2883,"name":"Церква святого Івана Богослова","denomination":"ukrainian_greek_catholic","region":"Львівська область","image":"https://map.ugcc.ua/pub/base/.jpg","website":"https://map.ugcc.ua/view/2883-"},"geometry":{"type":"Point","coordinates":[24.26869,49.51325]}},
{"type":"Feature","properties":{"id":2891,"name":"Церква святого Миколая Чудотворця","denomination":"ukrainian_greek_catholic","region":"Львівська область","image":"https://map.ugcc.ua/pub/base/cc05b29932f3ae0.jpg","website":"https://map.ugcc.ua/view/2891-"},"geometry":{"type":"Point","coordinates":[24.35291,49.47922]}},
{"type":"Feature","properties":{"id":1956,"name":"Церква святого пророка Іллі","denomination":"ukrainian_greek_catholic","region":"Львівська область","image":"https://map.ugcc.ua/pub/base/5ba1bcbe40671e9.jpg","website":"https://map.ugcc.ua/view/1956-"},"geometry":{"type":"Point","coordinates":[23.17863,49.91694]}},
{"type":"Feature","properties":{"id":1958,"name":"Церква Різдва св. Івана Хрестителя","denomination":"ukrainian_greek_catholic","region":"Львівська область","image":"https://map.ugcc.ua/pub/base/.jpg","website":"https://map.ugcc.ua/view/1958-"},"geometry":{"type":"Point","coordinates":[23.2843,49.87677]}},
{"type":"Feature","properties":{"id":3184,"name":"Церква святого священомученика Йосафата","denomination":"ukrainian_greek_catholic","region":"Львівська область","image":"https://map.ugcc.ua/pub/base/0560ea4c69bdebf.jpg","website":"https://map.ugcc.ua/view/3184-"},"geometry":{"type":"Point","coordinates":[23.81055,49.67717]}},
{"type":"Feature","properties":{"id":2941,"name":"Церква Різдва Пресвятої Богородиці","denomination":"ukrainian_greek_catholic","region":"Львівська область","image":"https://map.ugcc.ua/pub/base/.jpg","website":"https://map.ugcc.ua/view/2941-"},"geometry":{"type":"Point","coordinates":[24.29864,49.4908]}},
{"type":"Feature","properties":{"id":2163,"name":"Церква святих апостолів Петра і Павла","denomination":"ukrainian_greek_catholic","region":"Львівська область","image":"https://map.ugcc.ua/pub/base/.jpg","website":"https://map.ugcc.ua/view/2163-"},"geometry":{"type":"Point","coordinates":[23.57391,49.76363]}},
{"type":"Feature","properties":{"id":2171,"name":"Церква святої великомучениці Параскевії","denomination":"ukrainian_greek_catholic","region":"Львівська область","image":"https://map.ugcc.ua/pub/base/.jpg","website":"https://map.ugcc.ua/view/2171-"},"geometry":{"type":"Point","coordinates":[23.63117,49.7378]}},
{"type":"Feature","properties":{"id":2893,"name":"Церква святого архістратига Михаїла","denomination":"ukrainian_greek_catholic","region":"Львівська область","image":"https://map.ugcc.ua/pub/base/f033dfb46ddf80b.jpg","website":"https://map.ugcc.ua/view/2893-"},"geometry":{"type":"Point","coordinates":[24.37455,49.45406]}},
{"type":"Feature","properties":{"id":1940,"name":"Церква святих апостолів Петра і Павла","denomination":"ukrainian_greek_catholic","region":"Львівська область","image":"https://map.ugcc.ua/pub/base/.jpg","website":"https://map.ugcc.ua/view/1940-"},"geometry":{"type":"Point","coordinates":[23.25686,49.862]}},
{"type":"Feature","properties":{"id":2170,"name":"Церква Вознесіння Господнього","denomination":"ukrainian_greek_catholic","region":"Львівська область","image":"https://map.ugcc.ua/pub/base/c02fea58406f11e.jpg","website":"https://map.ugcc.ua/view/2170-"},"geometry":{"type":"Point","coordinates":[23.56769,49.74243]}},
{"type":"Feature","properties":{"id":2934,"name":"Церква святого архістратига Михаїла","denomination":"ukrainian_greek_catholic","region":"Львівська область","image":"https://map.ugcc.ua/pub/base/.jpg","website":"https://map.ugcc.ua/view/2934-"},"geometry":{"type":"Point","coordinates":[24.31501,49.45804]}},
{"type":"Feature","properties":{"id":2705,"name":"Церква Пресвятої Трійці","denomination":"ukrainian_greek_catholic","region":"Львівська область","image":"https://map.ugcc.ua/pub/base/e6f3d28f4ec50e3.jpg","website":"https://map.ugcc.ua/view/2705-"},"geometry":{"type":"Point","coordinates":[24.23396,49.47899]}},
{"type":"Feature","properties":{"id":2166,"name":"Церква святого великомученика Димитрія","denomination":"ukrainian_greek_catholic","region":"Львівська область","image":"https://map.ugcc.ua/pub/base/.jpg","website":"https://map.ugcc.ua/view/2166-"},"geometry":{"type":"Point","coordinates":[23.47495,49.76358]}},
{"type":"Feature","properties":{"id":2168,"name":"Церква святого апостола Івана","denomination":"ukrainian_greek_catholic","region":"Львівська область","image":"https://map.ugcc.ua/pub/base/.jpg","website":"https://map.ugcc.ua/view/2168-"},"geometry":{"type":"Point","coordinates":[23.50668,49.74896]}},
{"type":"Feature","properties":{"id":3185,"name":"Церква святих Бориса і Гліба","denomination":"ukrainian_greek_catholic","region":"Львівська область","image":"https://map.ugcc.ua/pub/base/.jpg","website":"https://map.ugcc.ua/view/3185-"},"geometry":{"type":"Point","coordinates":[23.79557,49.64131]}},
{"type":"Feature","properties":{"id":3153,"name":"Церква Чуда святого Архистратига Михаїла","denomination":"ukrainian_greek_catholic","region":"Львівська область","image":"https://map.ugcc.ua/pub/base/.jpg","website":"https://map.ugcc.ua/view/3153-"},"geometry":{"type":"Point","coordinates":[23.7956,49.6413]}},
{"type":"Feature","properties":{"id":2880,"name":"Церква святого Миколая","denomination":"ukrainian_greek_catholic","region":"Львівська область","image":"https://map.ugcc.ua/pub/base/953cd615b646460.jpg","website":"https://map.ugcc.ua/view/2880-"},"geometry":{"type":"Point","coordinates":[23.79554,49.64131]}},
{"type":"Feature","properties":{"id":2179,"name":"Церква архістратига Михаїла","denomination":"ukrainian_greek_catholic","region":"Львівська область","image":"https://map.ugcc.ua/pub/base/7892058d429158b.jpg","website":"https://map.ugcc.ua/view/2179-"},"geometry":{"type":"Point","coordinates":[23.63426,49.69853]}},
{"type":"Feature","properties":{"id":2180,"name":"Церква святого пророка Іллі","denomination":"ukrainian_greek_catholic","region":"Львівська область","image":"https://map.ugcc.ua/pub/base/.jpg","website":"https://map.ugcc.ua/view/2180-"},"geometry":{"type":"Point","coordinates":[23.66255,49.68404]}},
{"type":"Feature","properties":{"id":2935,"name":"Церква Успіння Пресвятої Богородиці","denomination":"ukrainian_greek_catholic","region":"Львівська область","image":"https://map.ugcc.ua/pub/base/afd8422d740b553.jpg","website":"https://map.ugcc.ua/view/2935-"},"geometry":{"type":"Point","coordinates":[24.25668,49.45654]}},
{"type":"Feature","properties":{"id":3186,"name":"Церква святих Косми і Дем'яна","denomination":"ukrainian_greek_catholic","region":"Львівська область","image":"https://map.ugcc.ua/pub/base/5e091c97a17753e.jpg","website":"https://map.ugcc.ua/view/3186-"},"geometry":{"type":"Point","coordinates":[23.78509,49.63454]}},
{"type":"Feature","properties":{"id":2169,"name":"Церква Різдва Пресвятої Богородиці","denomination":"ukrainian_greek_catholic","region":"Львівська область","image":"https://map.ugcc.ua/pub/base/e049f8801b071c4.jpg","website":"https://map.ugcc.ua/view/2169-"},"geometry":{"type":"Point","coordinates":[23.53074,49.72665]}},
{"type":"Feature","properties":{"id":3139,"name":"Церква Успення Пресвятої Богородиці","denomination":"ukrainian_greek_catholic","region":"Львівська область","image":"https://map.ugcc.ua/pub/base/e1b66cadea3a2d0.jpg","website":"https://map.ugcc.ua/view/3139-"},"geometry":{"type":"Point","coordinates":[23.80908,49.61661]}},
{"type":"Feature","properties":{"id":2928,"name":"Церква святого Пророка Іллі","denomination":"ukrainian_greek_catholic","region":"Львівська область","image":"https://map.ugcc.ua/pub/base/.jpg","website":"https://map.ugcc.ua/view/2928-"},"geometry":{"type":"Point","coordinates":[24.36571,49.40003]}},
{"type":"Feature","properties":{"id":2707,"name":"Церква усікновення голови святого Івана Хрестителя","denomination":"ukrainian_greek_catholic","region":"Львівська область","image":"https://map.ugcc.ua/pub/base/.jpg","website":"https://map.ugcc.ua/view/2707-"},"geometry":{"type":"Point","coordinates":[24.2275,49.45283]}},
{"type":"Feature","properties":{"id":86,"name":"Церква Святого архистратига Михаїла","denomination":"ukrainian_greek_catholic","region":"Львівська область","image":"https://map.ugcc.ua/pub/base/76ad1dcc34a5367.jpg","website":"https://map.ugcc.ua/view/86-"},"geometry":{"type":"Point","coordinates":[24.40355,49.37661]}},
{"type":"Feature","properties":{"id":2186,"name":"Церква Успення Пресвятої Богородиці","denomination":"ukrainian_greek_catholic","region":"Львівська область","image":"https://map.ugcc.ua/pub/base/0fa5851610779e8.jpg","website":"https://map.ugcc.ua/view/2186-"},"geometry":{"type":"Point","coordinates":[23.72194,49.63485]}},
{"type":"Feature","properties":{"id":2177,"name":"Церква Преображення Господнього","denomination":"ukrainian_greek_catholic","region":"Львівська область","image":"https://map.ugcc.ua/pub/base/.jpg","website":"https://map.ugcc.ua/view/2177-"},"geometry":{"type":"Point","coordinates":[23.54466,49.69666]}},
{"type":"Feature","properties":{"id":2940,"name":"Церква Воздвиження Чесного Хреста","denomination":"ukrainian_greek_catholic","region":"Львівська область","image":"https://map.ugcc.ua/pub/base/69ff58e387e201f.jpg","website":"https://map.ugcc.ua/view/2940-"},"geometry":{"type":"Point","coordinates":[24.36808,49.37274]}},
{"type":"Feature","properties":{"id":2173,"name":"Церква Перенесення мощей святого Миколая (с. Побережне, Львівська область) ","denomination":"ukrainian_greek_catholic","region":"Львівська область","image":"https://map.ugcc.ua/pub/base/.jpg","website":"https://map.ugcc.ua/view/2173-"},"geometry":{"type":"Point","coordinates":[23.47695,49.70908]}},
{"type":"Feature","properties":{"id":878,"name":"Церква святого Йосафата","denomination":"ukrainian_greek_catholic","region":"Львівська область","image":"https://map.ugcc.ua/pub/base/e472fc159022c1b.jpg","website":"https://map.ugcc.ua/view/878-"},"geometry":{"type":"Point","coordinates":[24.25372,49.41398]}},
{"type":"Feature","properties":{"id":2810,"name":"Церква Преображення Господа Нашого Ісуса Христа","denomination":"ukrainian_greek_catholic","region":"Львівська область","image":"https://map.ugcc.ua/pub/base/3fb2f8aa9e40c8b.jpg","website":"https://map.ugcc.ua/view/2810-"},"geometry":{"type":"Point","coordinates":[23.76829,49.59806]}},
{"type":"Feature","properties":{"id":1658,"name":"Церква святих Петра і Павла","denomination":"ukrainian_greek_catholic","region":"Львівська область","image":"https://map.ugcc.ua/pub/base/.jpg","website":"https://map.ugcc.ua/view/1658-"},"geometry":{"type":"Point","coordinates":[23.23693,49.79033]}},
{"type":"Feature","properties":{"id":2184,"name":"Церква Покрови Пресвятої Богородиці","denomination":"ukrainian_greek_catholic","region":"Львівська область","image":"https://map.ugcc.ua/pub/base/.jpg","website":"https://map.ugcc.ua/view/2184-"},"geometry":{"type":"Point","coordinates":[23.64693,49.63952]}},
{"type":"Feature","properties":{"id":2930,"name":"Церква Різдва Пресвятої Діви Марії","denomination":"ukrainian_greek_catholic","region":"Львівська область","image":"https://map.ugcc.ua/pub/base/d8bfdc6ec7d0c1e.jpg","website":"https://map.ugcc.ua/view/2930-"},"geometry":{"type":"Point","coordinates":[24.31552,49.38337]}},
{"type":"Feature","properties":{"id":2706,"name":"Церква Воздвиження Чесного Хреста","denomination":"ukrainian_greek_catholic","region":"Львівська область","image":"https://map.ugcc.ua/pub/base/5c9cc8e2857927a.jpg","website":"https://map.ugcc.ua/view/2706-"},"geometry":{"type":"Point","coordinates":[24.21554,49.41705]}},
{"type":"Feature","properties":{"id":877,"name":"Церква Воздвиження Чесного Хреста","denomination":"ukrainian_greek_catholic","region":"Львівська область","image":"https://map.ugcc.ua/pub/base/7c2aa5a54a568c1.jpg","website":"https://map.ugcc.ua/view/877-"},"geometry":{"type":"Point","coordinates":[24.21545,49.41704]}},
{"type":"Feature","properties":{"id":2939,"name":"Церква святої Параскевії","denomination":"ukrainian_greek_catholic","region":"Львівська область","image":"https://map.ugcc.ua/pub/base/b7345a7f4a3145d.jpg","website":"https://map.ugcc.ua/view/2939-"},"geometry":{"type":"Point","coordinates":[24.35952,49.36036]}},
{"type":"Feature","properties":{"id":2172,"name":"Церква Вознесіння Господнього","denomination":"ukrainian_greek_catholic","region":"Львівська область","image":"https://map.ugcc.ua/pub/base/.jpg","website":"https://map.ugcc.ua/view/2172-"},"geometry":{"type":"Point","coordinates":[23.44333,49.69964]}},
{"type":"Feature","properties":{"id":2945,"name":"Церква святого Архистратига Михаїла","denomination":"ukrainian_greek_catholic","region":"Львівська область","image":"https://map.ugcc.ua/pub/base/21157d3ce993d25.jpg","website":"https://map.ugcc.ua/view/2945-"},"geometry":{"type":"Point","coordinates":[24.37799,49.34566]}},
{"type":"Feature","properties":{"id":2929,"name":"Церква Покрови Пресвятої Богородиці","denomination":"ukrainian_greek_catholic","region":"Львівська область","image":"https://map.ugcc.ua/pub/base/02bbf77c7cb2587.jpg","website":"https://map.ugcc.ua/view/2929-"},"geometry":{"type":"Point","coordinates":[24.29709,49.37249]}},
{"type":"Feature","properties":{"id":2832,"name":"Церква Воскресіння Христового","denomination":"ukrainian_greek_catholic","region":"Львівська область","image":"https://map.ugcc.ua/pub/base/bc2a162e9fef172.jpg","website":"https://map.ugcc.ua/view/2832-"},"geometry":{"type":"Point","coordinates":[23.96215,49.50061]}},
{"type":"Feature","properties":{"id":2809,"name":"Церква Покрови Пресвятої Богородиці","denomination":"ukrainian_greek_catholic","region":"Львівська область","image":"https://map.ugcc.ua/pub/base/.jpg","website":"https://map.ugcc.ua/view/2809-"},"geometry":{"type":"Point","coordinates":[23.75368,49.57045]}},
{"type":"Feature","properties":{"id":2764,"name":"Церква святого Миколая","denomination":"ukrainian_greek_catholic","region":"Львівська область","image":"https://map.ugcc.ua/pub/base/82fb83f9d73df94.jpg","website":"https://map.ugcc.ua/view/2764-"},"geometry":{"type":"Point","coordinates":[24.22967,49.38552]}},
{"type":"Feature","properties":{"id":2808,"name":"Церква Собору Пресвятої Богородиці","denomination":"ukrainian_greek_catholic","region":"Львівська область","image":"https://map.ugcc.ua/pub/base/db8f786f2cdeee8.jpg","website":"https://map.ugcc.ua/view/2808-"},"geometry":{"type":"Point","coordinates":[23.71888,49.57269]}},
{"type":"Feature","properties":{"id":2933,"name":"Церква Собору Пресвятої Богородиці","denomination":"ukrainian_greek_catholic","region":"Львівська область","image":"https://map.ugcc.ua/pub/base/ee182685a431bcb.jpg","website":"https://map.ugcc.ua/view/2933-"},"geometry":{"type":"Point","coordinates":[24.29236,49.35341]}},
{"type":"Feature","properties":{"id":2936,"name":"Церква вуликомучениці Параскевії","denomination":"ukrainian_greek_catholic","region":"Львівська область","image":"https://map.ugcc.ua/pub/base/4f5c7c3eab76ebe.jpg","website":"https://map.ugcc.ua/view/2936-"},"geometry":{"type":"Point","coordinates":[24.33641,49.33256]}},
{"type":"Feature","properties":{"id":2946,"name":"Церква Преображення Господнього","denomination":"ukrainian_greek_catholic","region":"Львівська область","image":"https://map.ugcc.ua/pub/base/f15a69c250acd57.jpg","website":"https://map.ugcc.ua/view/2946-"},"geometry":{"type":"Point","coordinates":[24.25849,49.35947]}},
{"type":"Feature","properties":{"id":2770,"name":"Церква Успення Пресвятої Богородиці","denomination":"ukrainian_greek_catholic","region":"Львівська область","image":"https://map.ugcc.ua/pub/base/.jpg","website":"https://map.ugcc.ua/view/2770-"},"geometry":{"type":"Point","coordinates":[24.19984,49.3663]}},
{"type":"Feature","properties":{"id":2763,"name":"Церква Різдва Пресвятої Богородиці","denomination":"ukrainian_greek_catholic","region":"Львівська область","image":"https://map.ugcc.ua/pub/base/.jpg","website":"https://map.ugcc.ua/view/2763-"},"geometry":{"type":"Point","coordinates":[24.22923,49.33727]}},
{"type":"Feature","properties":{"id":2776,"name":"Церква Покрови Пресвятої Богородиці","denomination":"ukrainian_greek_catholic","region":"Львівська область","image":"https://map.ugcc.ua/pub/base/.jpg","website":"https://map.ugcc.ua/view/2776-"},"geometry":{"type":"Point","coordinates":[24.169,49.35969]}},
{"type":"Feature","properties":{"id":2769,"name":"Церква святих апостолів Петра і Павла","denomination":"ukrainian_greek_catholic","region":"Львівська область","image":"https://map.ugcc.ua/pub/base/0f9aa13009b79a4.jpg","website":"https://map.ugcc.ua/view/2769-"},"geometry":{"type":"Point","coordinates":[24.19432,49.33698]}},
{"type":"Feature","properties":{"id":2804,"name":"Церква святого Архангела Михаїла","denomination":"ukrainian_greek_catholic","region":"Львівська область","image":"https://map.ugcc.ua/pub/base/a5f3e30cb31072a.jpg","website":"https://map.ugcc.ua/view/2804-"},"geometry":{"type":"Point","coordinates":[23.65306,49.54026]}},
{"type":"Feature","properties":{"id":2797,"name":"Церква святого Миколая Чудотворця","denomination":"ukrainian_greek_catholic","region":"Львівська область","image":"https://map.ugcc.ua/pub/base/.jpg","website":"https://map.ugcc.ua/view/2797-"},"geometry":{"type":"Point","coordinates":[24.22554,49.31786]}},
{"type":"Feature","properties":{"id":2772,"name":"Церква Успіння Пресвятої Богородиці","denomination":"ukrainian_greek_catholic","region":"Львівська область","image":"https://map.ugcc.ua/pub/base/8572d8395b6b566.jpg","website":"https://map.ugcc.ua/view/2772-"},"geometry":{"type":"Point","coordinates":[24.35323,49.23219]}},
{"type":"Feature","properties":{"id":2796,"name":"Церква Різдва Пресвятої Богородиці","denomination":"ukrainian_greek_catholic","region":"Львівська область","image":"https://map.ugcc.ua/pub/base/330ac0e4e1c2e12.jpg","website":"https://map.ugcc.ua/view/2796-"},"geometry":{"type":"Point","coordinates":[24.39012,49.21129]}},
{"type":"Feature","properties":{"id":2096,"name":"Церква святого Миколая","denomination":"ukrainian_greek_catholic","region":"Львівська область","image":"https://map.ugcc.ua/pub/base/d98a0f29f057b0e.jpg","website":"https://map.ugcc.ua/view/2096-"},"geometry":{"type":"Point","coordinates":[24.34011,49.2168]}},
{"type":"Feature","properties":{"id":887,"name":"Церква святого Миколи","denomination":"ukrainian_greek_catholic","region":"Львівська область","image":"https://map.ugcc.ua/pub/base/6cd378d2f8a1a7b.jpg","website":"https://map.ugcc.ua/view/887-"},"geometry":{"type":"Point","coordinates":[24.28913,49.23542]}},
{"type":"Feature","properties":{"id":829,"name":"Церква Івана Хрестителя","denomination":"ukrainian_greek_catholic","region":"Львівська область","image":"https://map.ugcc.ua/pub/base/ba9eb8e680a7442.jpg","website":"https://map.ugcc.ua/view/829-"},"geometry":{"type":"Point","coordinates":[24.24837,49.24036]}},
{"type":"Feature","properties":{"id":2788,"name":"Церква Різдва Христового","denomination":"ukrainian_greek_catholic","region":"Львівська область","image":"https://map.ugcc.ua/pub/base/8502e62717799f4.jpg","website":"https://map.ugcc.ua/view/2788-"},"geometry":{"type":"Point","coordinates":[24.30145,49.20513]}},
{"type":"Feature","properties":{"id":2789,"name":"Церква святого Миколая","denomination":"ukrainian_greek_catholic","region":"Львівська область","image":"https://map.ugcc.ua/pub/base/417d63c1544eabe.jpg","website":"https://map.ugcc.ua/view/2789-"},"geometry":{"type":"Point","coordinates":[24.2489,49.219]}},