{
"type": "FeatureCollection",
"errorDescr": "Border not found",
"features": [
{"type":"Feature","id":"261704180","properties":{"josm":"n261704180","name":"Сокаль","population":"25145","region":"Львівська область","koatuu":"4624810100"},"geometry":{"type":"Point","coordinates":[24.28553,50.48153]}},
{"type":"Feature","id":"337593968","properties":{"josm":"n337593968","name":"Юбілейне","population":"16723","region":"Луганська область","koatuu":"4410165900"},"geometry":{"type":"Point","coordinates":[39.1786,48.55389]}},
{"type":"Feature","id":"256613870","properties":{"josm":"n256613870","name":"Бунге","population":"14570","region":"Донецька область","koatuu":"1412070700"},"geometry":{"type":"Point","coordinates":[38.28753,48.22136]}},
{"type":"Feature","id":"337590198","properties":{"josm":"n337590198","name":"Станиця Луганська","population":"13744","region":"Луганська область","koatuu":"4424855100"},"geometry":{"type":"Point","coordinates":[39.49331,48.64513]}},
{"type":"Feature","id":"337592920","properties":{"josm":"n337592920","name":"Зимогір’я","population":"10148","region":"Луганська область","koatuu":"4424510300"},"geometry":{"type":"Point","coordinates":[38.92731,48.58566]}},
{"type":"Feature","id":"337588316","properties":{"josm":"n337588316","name":"Слов’яносербськ","population":"8065","region":"Луганська область","koatuu":"4424555100"},"geometry":{"type":"Point","coordinates":[38.98626,48.69466]}},
{"type":"Feature","id":"337537581","properties":{"josm":"n337537581","name":"Білогір’я","population":"5483","region":"Хмельницька область","koatuu":"6820355100"},"geometry":{"type":"Point","coordinates":[26.4198,50.00126]}},
{"type":"Feature","id":"337584961","properties":{"josm":"n337584961","name":"Петропавлівка","population":"4981","region":"Луганська область","koatuu":"4424855400"},"geometry":{"type":"Point","coordinates":[39.26685,48.80813]}},
{"type":"Feature","id":"337671712","properties":{"josm":"n337671712","name":"Єланець","population":"4969","region":"Миколаївська область","koatuu":"4823055100"},"geometry":{"type":"Point","coordinates":[31.84892,47.69638]}},
{"type":"Feature","id":"337690697","properties":{"josm":"n337690697","name":"Рикове","population":"3604","region":"Херсонська область","koatuu":"6522155700"},"geometry":{"type":"Point","coordinates":[34.74895,46.33179]}},
{"type":"Feature","id":"337598517","properties":{"josm":"n337598517","name":"Южна Ломуватка","population":"3408","region":"Луганська область","koatuu":"4410546500"},"geometry":{"type":"Point","coordinates":[38.53206,48.43785]}},
{"type":"Feature","id":"337590283","properties":{"josm":"n337590283","name":"Сентянівка","population":"3321","region":"Луганська область","koatuu":"4424556200"},"geometry":{"type":"Point","coordinates":[38.76016,48.6694]}},
{"type":"Feature","id":"337596730","properties":{"josm":"n337596730","name":"Михайлівка","population":"2467","region":"Луганська область","koatuu":"4423656400"},"geometry":{"type":"Point","coordinates":[38.90671,48.49228]}},
{"type":"Feature","id":"313245896","properties":{"josm":"n313245896","name":"Белз","population":"2359","region":"Львівська область","koatuu":"4624810300"},"geometry":{"type":"Point","coordinates":[24.01276,50.38239]}},
{"type":"Feature","id":"337587920","properties":{"josm":"n337587920","name":"Новотошківське","population":"2349","region":"Луганська область","koatuu":"4423857900"},"geometry":{"type":"Point","coordinates":[38.63157,48.7226]}},
{"type":"Feature","id":"337600321","properties":{"josm":"n337600321","name":"Комісарівка","population":"1785","region":"Луганська область","koatuu":"4423656100"},"geometry":{"type":"Point","coordinates":[38.53398,48.39074]}},
{"type":"Feature"}
]}
