{
"type": "FeatureCollection",
"errorDescr": "Border not found",
"features": [
{"type":"Feature","id":"1685829423","properties":{"josm":"n1685829423","name":"Харків","population":"1447652","region":"Харківська область","koatuu":"6310100000"},"geometry":{"type":"Point","coordinates":[36.23039,49.99028]}},
{"type":"Feature","id":"337590198","properties":{"josm":"n337590198","name":"Станиця Луганська","population":"13744","region":"Луганська область","koatuu":"4424855100"},"geometry":{"type":"Point","coordinates":[39.49331,48.64513]}},
{"type":"Feature","id":"256613801","properties":{"josm":"n256613801","name":"Північне","population":"10330","region":"Донецька область","koatuu":"1411245300"},"geometry":{"type":"Point","coordinates":[37.91612,48.39648]}},
{"type":"Feature","id":"337592920","properties":{"josm":"n337592920","name":"Зимогір’я","population":"10148","region":"Луганська область","koatuu":"4424510300"},"geometry":{"type":"Point","coordinates":[38.92731,48.58566]}},
{"type":"Feature","id":"337588316","properties":{"josm":"n337588316","name":"Слов’яносербськ","population":"8065","region":"Луганська область","koatuu":"4424555100"},"geometry":{"type":"Point","coordinates":[38.98626,48.69466]}},
{"type":"Feature","id":"337537581","properties":{"josm":"n337537581","name":"Білогір’я","population":"5483","region":"Хмельницька область","koatuu":"6820355100"},"geometry":{"type":"Point","coordinates":[26.4198,50.00126]}},
{"type":"Feature","id":"337521296","properties":{"josm":"n337521296","name":"Пулини","population":"5472","region":"Житомирська область","koatuu":"1825455100"},"geometry":{"type":"Point","coordinates":[28.27538,50.46776]}},
{"type":"Feature","id":"337678487","properties":{"josm":"n337678487","name":"Захарівка","population":"5174","region":"Одеська область","koatuu":"5125255100"},"geometry":{"type":"Point","coordinates":[29.74092,47.34259]}},
{"type":"Feature","id":"337584961","properties":{"josm":"n337584961","name":"Петропавлівка","population":"4981","region":"Луганська область","koatuu":"4424855400"},"geometry":{"type":"Point","coordinates":[39.26685,48.80813]}},
{"type":"Feature","id":"337589041","properties":{"josm":"n337589041","name":"Донецький","population":"3783","region":"Луганська область","koatuu":"4411045300"},"geometry":{"type":"Point","coordinates":[38.65446,48.70301]}},
{"type":"Feature","id":"337598517","properties":{"josm":"n337598517","name":"Южна Ломуватка","population":"3408","region":"Луганська область","koatuu":"4410546500"},"geometry":{"type":"Point","coordinates":[38.53206,48.43785]}},
{"type":"Feature","id":"337590283","properties":{"josm":"n337590283","name":"Фрунзе","population":"3321","region":"Луганська область","koatuu":"4424556200"},"geometry":{"type":"Point","coordinates":[38.76016,48.6694]}},
{"type":"Feature","id":"337587920","properties":{"josm":"n337587920","name":"Новотошківське","population":"2349","region":"Луганська область","koatuu":"4423857900"},"geometry":{"type":"Point","coordinates":[38.63157,48.7226]}},
{"type":"Feature","id":"337679085","properties":{"josm":"n337679085","name":"Токарівка","population":"2077","region":"Миколаївська область","koatuu":"4821755500"},"geometry":{"type":"Point","coordinates":[31.01941,47.30515]}},
{"type":"Feature","id":"337600321","properties":{"josm":"n337600321","name":"Комісарівка","population":"1785","region":"Луганська область","koatuu":"4423656100"},"geometry":{"type":"Point","coordinates":[38.53398,48.39074]}},
{"type":"Feature","id":"337592700","properties":{"josm":"n337592700","name":"Червоногвардійське","population":"1444","region":"Луганська область","koatuu":"4411045700"},"geometry":{"type":"Point","coordinates":[38.75303,48.59451]}},
{"type":"Feature","id":"337599976","properties":{"josm":"n337599976","name":"Вергулівка","population":"1321","region":"Луганська область","koatuu":"4410545300"},"geometry":{"type":"Point","coordinates":[38.52878,48.4008]}},
{"type":"Feature","id":"337587221","properties":{"josm":"n337587221","name":"Врубівка","population":"1030","region":"Луганська область","koatuu":"4423856200"},"geometry":{"type":"Point","coordinates":[38.38655,48.73887]}},
{"type":"Feature","id":"256615151","properties":{"josm":"n256615151","name":"Графське","population":"416","region":"Донецька область","koatuu":"1421556500"},"geometry":{"type":"Point","coordinates":[37.40982,47.6762]}},
{"type":"Feature","id":"337597216","properties":{"josm":"n337597216","name":"Глибокий","population":"221","region":"Луганська область","koatuu":"4410545900"},"geometry":{"type":"Point","coordinates":[38.5857,48.4734]}},
{"type":"Feature"}
]}
