{
"type": "FeatureCollection",
"errorDescr": "Border not found",
"features": [
{"type":"Feature","id":"60410873","properties":{"josm":"n60410873","name":"Миколаїв","population":"496689","region":"Миколаївська область","koatuu":"4810100000"},"geometry":{"type":"Point","coordinates":[32.00424,46.97134]}},
{"type":"Feature","id":"337588299","properties":{"josm":"n337588299","name":"Солотвин","population":"3916","region":"Івано-Франківська область","koatuu":"2620455500"},"geometry":{"type":"Point","coordinates":[24.41849,48.71132]}},
{"type":"Feature","id":"337566899","properties":{"josm":"n337566899","name":"Вовковинці","population":"2898","region":"Хмельницька область","koatuu":"6821555400"},"geometry":{"type":"Point","coordinates":[27.65597,49.20736]}},
{"type":"Feature","id":"337599757","properties":{"josm":"n337599757","name":"Яблунів","population":"2032","region":"Івано-Франківська область","koatuu":"2623655800"},"geometry":{"type":"Point","coordinates":[24.95163,48.40476]}},
{"type":"Feature","id":"337538490","properties":{"josm":"n337538490","name":"Старий Мерчик","population":"1779","region":"Харківська область","koatuu":"6321256000"},"geometry":{"type":"Point","coordinates":[35.77354,49.97681]}},
{"type":"Feature"}
]}
