{
"type": "FeatureCollection",
"errorDescr": "Border not found",
"features": [
{"type":"Feature","id":"1830695013","properties":{"josm":"n1830695013","name":"Ялта","population":"78032","region":"Автономна Республіка Крим","koatuu":"0111900000"},"geometry":{"type":"Point","coordinates":[34.15869,44.49707]}},
{"type":"Feature","id":"337556659","properties":{"josm":"n337556659","name":"Самбір","population":"35054","region":"Львівська область","koatuu":"4610900000"},"geometry":{"type":"Point","coordinates":[23.1975,49.51833]}},
{"type":"Feature","id":"337514561","properties":{"josm":"n337514561","name":"Костопіль","population":"31159","region":"Рівненська область","koatuu":"5623410100"},"geometry":{"type":"Point","coordinates":[26.4513,50.88283]}},
{"type":"Feature","id":"337567918","properties":{"josm":"n337567918","name":"Ярмолинці","population":"7954","region":"Хмельницька область","koatuu":"6825855100"},"geometry":{"type":"Point","coordinates":[26.8372,49.19266]}},
{"type":"Feature","id":"337544240","properties":{"josm":"n337544240","name":"Малинівка","population":"7725","region":"Харківська область","koatuu":"6325455900"},"geometry":{"type":"Point","coordinates":[36.74103,49.80823]}},
{"type":"Feature","id":"337691696","properties":{"josm":"n337691696","name":"Тарутине","population":"6055","region":"Одеська область","koatuu":"5124755100"},"geometry":{"type":"Point","coordinates":[29.15008,46.18528]}},
{"type":"Feature","id":"337582691","properties":{"josm":"n337582691","name":"Борівське","population":"5949","region":"Луганська область","koatuu":"4412945200"},"geometry":{"type":"Point","coordinates":[38.56093,48.87045]}},
{"type":"Feature","id":"337683193","properties":{"josm":"n337683193","name":"Велика Михайлівка","population":"5753","region":"Одеська область","koatuu":"5121655100"},"geometry":{"type":"Point","coordinates":[29.84755,47.07537]}},
{"type":"Feature","id":"337543316","properties":{"josm":"n337543316","name":"Новопокровка","population":"5027","region":"Харківська область","koatuu":"6325456200"},"geometry":{"type":"Point","coordinates":[36.55647,49.83898]}},
{"type":"Feature","id":"337509600","properties":{"josm":"n337509600","name":"Клесів","population":"4543","region":"Рівненська область","koatuu":"5625455400"},"geometry":{"type":"Point","coordinates":[26.88835,51.31233]}},
{"type":"Feature","id":"337537037","properties":{"josm":"n337537037","name":"Шарівка","population":"4100","region":"Харківська область","koatuu":"6320855700"},"geometry":{"type":"Point","coordinates":[35.44052,50.01869]}},
{"type":"Feature","id":"337554746","properties":{"josm":"n337554746","name":"Новий Калинів","population":"4070","region":"Львівська область","koatuu":"4624210300"},"geometry":{"type":"Point","coordinates":[23.30224,49.55829]}},
{"type":"Feature","id":"337588299","properties":{"josm":"n337588299","name":"Солотвин","population":"3916","region":"Івано-Франківська область","koatuu":"2620455500"},"geometry":{"type":"Point","coordinates":[24.41849,48.71132]}},
{"type":"Feature","id":"337594685","properties":{"josm":"n337594685","name":"Середнє","population":"3733","region":"Закарпатська область","koatuu":"2124855500"},"geometry":{"type":"Point","coordinates":[22.50438,48.54139]}},
{"type":"Feature","id":"317747079","properties":{"josm":"n317747079","name":"Кочеток","population":"3633","region":"Харківська область","koatuu":"6325455600"},"geometry":{"type":"Point","coordinates":[36.72902,49.87269]}},
{"type":"Feature","id":"337540724","properties":{"josm":"n337540724","name":"Ков’яги","population":"3559","region":"Харківська область","koatuu":"6321255400"},"geometry":{"type":"Point","coordinates":[35.55004,49.91569]}},
{"type":"Feature","id":"337663428","properties":{"josm":"n337663428","name":"Путила","population":"3335","region":"Чернівецька область","koatuu":"7323555100"},"geometry":{"type":"Point","coordinates":[25.08453,47.99515]}},
{"type":"Feature","id":"337566899","properties":{"josm":"n337566899","name":"Вовковинці","population":"2898","region":"Хмельницька область","koatuu":"6821555400"},"geometry":{"type":"Point","coordinates":[27.65597,49.20736]}},
{"type":"Feature","id":"337681855","properties":{"josm":"n337681855","name":"Цебрикове","population":"2754","region":"Одеська область","koatuu":"5121655500"},"geometry":{"type":"Point","coordinates":[30.10546,47.14704]}},
{"type":"Feature","id":"337543657","properties":{"josm":"n337543657","name":"Введенка","population":"2710","region":"Харківська область","koatuu":"6325455300"},"geometry":{"type":"Point","coordinates":[36.50001,49.82815]}},
{"type":"Feature","id":"337575718","properties":{"josm":"n337575718","name":"Дунаївці","population":"2602","region":"Хмельницька область","koatuu":"6821855300"},"geometry":{"type":"Point","coordinates":[26.84338,49.02305]}},
{"type":"Feature","id":"337514893","properties":{"josm":"n337514893","name":"Угроїди","population":"2360","region":"Сумська область","koatuu":"5922355600"},"geometry":{"type":"Point","coordinates":[35.2703,50.85977]}},
{"type":"Feature","id":"337533389","properties":{"josm":"n337533389","name":"Гути","population":"2043","region":"Харківська область","koatuu":"6320855300"},"geometry":{"type":"Point","coordinates":[35.34988,50.12924]}},
{"type":"Feature","id":"337599757","properties":{"josm":"n337599757","name":"Яблунів","population":"2032","region":"Івано-Франківська область","koatuu":"2623655800"},"geometry":{"type":"Point","coordinates":[24.95163,48.40476]}},
{"type":"Feature","id":"337539427","properties":{"josm":"n337539427","name":"Костянтинівка","population":"2011","region":"Харківська область","koatuu":"6323555400"},"geometry":{"type":"Point","coordinates":[35.11368,49.95071]}},
{"type":"Feature","id":"337690835","properties":{"josm":"n337690835","name":"Серпневе","population":"1786","region":"Одеська область","koatuu":"5124755900"},"geometry":{"type":"Point","coordinates":[29.01838,46.30402]}},
{"type":"Feature","id":"337538490","properties":{"josm":"n337538490","name":"Старий Мерчик","population":"1779","region":"Харківська область","koatuu":"6321256000"},"geometry":{"type":"Point","coordinates":[35.77354,49.97681]}},
{"type":"Feature","id":"337571385","properties":{"josm":"n337571385","name":"Закупне","population":"1371","region":"Хмельницька область","koatuu":"6825255400"},"geometry":{"type":"Point","coordinates":[26.33183,49.11678]}},
{"type":"Feature","id":"337544672","properties":{"josm":"n337544672","name":"Утківка","population":"1339","region":"Харківська область","koatuu":"6325158800"},"geometry":{"type":"Point","coordinates":[36.02966,49.79793]}},
{"type":"Feature","id":"337549437","properties":{"josm":"n337549437","name":"Бірки","population":"657","region":"Харківська область","koatuu":"6324255300"},"geometry":{"type":"Point","coordinates":[36.05232,49.68361]}},
{"type":"Feature"}
]}
