{
"type": "FeatureCollection",
"errorDescr": "Border not found",
"features": [
{"type":"Feature","id":"1429712455","properties":{"josm":"n1429712455","name":"Золочів","population":"23900","region":"Львівська область","koatuu":"4621810100"},"geometry":{"type":"Point","coordinates":[24.89889,49.80565]}},
{"type":"Feature","id":"337593968","properties":{"josm":"n337593968","name":"Юбілейне","population":"16723","region":"Луганська область","koatuu":"4410165900"},"geometry":{"type":"Point","coordinates":[39.1786,48.55389]}},
{"type":"Feature","id":"256613870","properties":{"josm":"n256613870","name":"Бунге","population":"14570","region":"Донецька область","koatuu":"1412070700"},"geometry":{"type":"Point","coordinates":[38.28753,48.22136]}},
{"type":"Feature","id":"337590198","properties":{"josm":"n337590198","name":"Станиця Луганська","population":"13744","region":"Луганська область","koatuu":"4424855100"},"geometry":{"type":"Point","coordinates":[39.49331,48.64513]}},
{"type":"Feature","id":"260954473","properties":{"josm":"n260954473","name":"Жовква","population":"13455","region":"Львівська область","koatuu":"4622710100"},"geometry":{"type":"Point","coordinates":[23.9712,50.05613]}},
{"type":"Feature","id":"337539972","properties":{"josm":"n337539972","name":"Яворів","population":"12948","region":"Львівська область","koatuu":"4625810100"},"geometry":{"type":"Point","coordinates":[23.38863,49.9456]}},
{"type":"Feature","id":"337592920","properties":{"josm":"n337592920","name":"Зимогір’я","population":"10148","region":"Луганська область","koatuu":"4424510300"},"geometry":{"type":"Point","coordinates":[38.92731,48.58566]}},
{"type":"Feature","id":"313247150","properties":{"josm":"n313247150","name":"Буськ","population":"8355","region":"Львівська область","koatuu":"4620610100"},"geometry":{"type":"Point","coordinates":[24.60895,49.96536]}},
{"type":"Feature","id":"337526329","properties":{"josm":"n337526329","name":"Рава-Руська","population":"8328","region":"Львівська область","koatuu":"4622710400"},"geometry":{"type":"Point","coordinates":[23.62084,50.23349]}},
{"type":"Feature","id":"337588316","properties":{"josm":"n337588316","name":"Слов’яносербськ","population":"8065","region":"Луганська область","koatuu":"4424555100"},"geometry":{"type":"Point","coordinates":[38.98626,48.69466]}},
{"type":"Feature","id":"337569553","properties":{"josm":"n337569553","name":"Турка","population":"7114","region":"Львівська область","koatuu":"4625510100"},"geometry":{"type":"Point","coordinates":[23.033,49.15683]}},
{"type":"Feature","id":"337550092","properties":{"josm":"n337550092","name":"Перемишляни","population":"6918","region":"Львівська область","koatuu":"4623310100"},"geometry":{"type":"Point","coordinates":[24.55841,49.66936]}},
{"type":"Feature","id":"337569716","properties":{"josm":"n337569716","name":"Моршин","population":"6108","region":"Львівська область","koatuu":"4610700000"},"geometry":{"type":"Point","coordinates":[23.87005,49.1536]}},
{"type":"Feature","id":"337550821","properties":{"josm":"n337550821","name":"Рудки","population":"5408","region":"Львівська область","koatuu":"4624210400"},"geometry":{"type":"Point","coordinates":[23.48739,49.65445]}},
{"type":"Feature","id":"337584961","properties":{"josm":"n337584961","name":"Петропавлівка","population":"4981","region":"Луганська область","koatuu":"4424855400"},"geometry":{"type":"Point","coordinates":[39.26685,48.80813]}},
{"type":"Feature","id":"324203591","properties":{"josm":"n324203591","name":"Добромиль","population":"4537","region":"Львівська область","koatuu":"4625110300"},"geometry":{"type":"Point","coordinates":[22.78515,49.57103]}},
{"type":"Feature","id":"313249186","properties":{"josm":"n313249186","name":"Комарно","population":"3884","region":"Львівська область","koatuu":"4620910400"},"geometry":{"type":"Point","coordinates":[23.697,49.62607]}},
{"type":"Feature","id":"337690697","properties":{"josm":"n337690697","name":"Рикове","population":"3604","region":"Херсонська область","koatuu":"6522155700"},"geometry":{"type":"Point","coordinates":[34.74895,46.33179]}},
{"type":"Feature","id":"337598517","properties":{"josm":"n337598517","name":"Южна Ломуватка","population":"3408","region":"Луганська область","koatuu":"4410546500"},"geometry":{"type":"Point","coordinates":[38.53206,48.43785]}},
{"type":"Feature","id":"337590283","properties":{"josm":"n337590283","name":"Сентянівка","population":"3321","region":"Луганська область","koatuu":"4424556200"},"geometry":{"type":"Point","coordinates":[38.76016,48.6694]}},
{"type":"Feature","id":"337596730","properties":{"josm":"n337596730","name":"Михайлівка","population":"2467","region":"Луганська область","koatuu":"4423656400"},"geometry":{"type":"Point","coordinates":[38.90671,48.49228]}},
{"type":"Feature","id":"337587920","properties":{"josm":"n337587920","name":"Новотошківське","population":"2349","region":"Луганська область","koatuu":"4423857900"},"geometry":{"type":"Point","coordinates":[38.63157,48.7226]}},
{"type":"Feature","id":"337600321","properties":{"josm":"n337600321","name":"Комісарівка","population":"1785","region":"Луганська область","koatuu":"4423656100"},"geometry":{"type":"Point","coordinates":[38.53398,48.39074]}},
{"type":"Feature"}
]}
