{
"type": "FeatureCollection",
"errorDescr": "Border not found",
"features": [
{"type":"Feature","id":"26150436","properties":{"josm":"n26150436","name":"Чернігів","population":"296836","region":"Чернігівська область","koatuu":"7410100000"},"geometry":{"type":"Point","coordinates":[31.29433,51.4941]}},
{"type":"Feature","id":"337516475","properties":{"josm":"n337516475","name":"Малин","population":"27010","region":"Житомирська область","koatuu":"1810900000"},"geometry":{"type":"Point","coordinates":[29.25497,50.77055]}},
{"type":"Feature","id":"256613870","properties":{"josm":"n256613870","name":"Бунге","population":"14570","region":"Донецька область","koatuu":"1412070700"},"geometry":{"type":"Point","coordinates":[38.28753,48.22136]}},
{"type":"Feature","id":"337590198","properties":{"josm":"n337590198","name":"Станиця Луганська","population":"13744","region":"Луганська область","koatuu":"4424855100"},"geometry":{"type":"Point","coordinates":[39.49331,48.64513]}},
{"type":"Feature","id":"337691408","properties":{"josm":"n337691408","name":"Новоолексіївка","population":"10224","region":"Херсонська область","koatuu":"6522155400"},"geometry":{"type":"Point","coordinates":[34.64148,46.22729]}},
{"type":"Feature","id":"337592920","properties":{"josm":"n337592920","name":"Зимогір’я","population":"10148","region":"Луганська область","koatuu":"4424510300"},"geometry":{"type":"Point","coordinates":[38.92731,48.58566]}},
{"type":"Feature","id":"337588316","properties":{"josm":"n337588316","name":"Слов’яносербськ","population":"8065","region":"Луганська область","koatuu":"4424555100"},"geometry":{"type":"Point","coordinates":[38.98626,48.69466]}},
{"type":"Feature","id":"337584961","properties":{"josm":"n337584961","name":"Петропавлівка","population":"4981","region":"Луганська область","koatuu":"4424855400"},"geometry":{"type":"Point","coordinates":[39.26685,48.80813]}},
{"type":"Feature","id":"337512940","properties":{"josm":"n337512940","name":"Терни","population":"3817","region":"Сумська область","koatuu":"5923555600"},"geometry":{"type":"Point","coordinates":[33.98346,50.99407]}},
{"type":"Feature","id":"337589041","properties":{"josm":"n337589041","name":"Донецький","population":"3783","region":"Луганська область","koatuu":"4411045300"},"geometry":{"type":"Point","coordinates":[38.65446,48.70301]}},
{"type":"Feature","id":"337598517","properties":{"josm":"n337598517","name":"Южна Ломуватка","population":"3408","region":"Луганська область","koatuu":"4410546500"},"geometry":{"type":"Point","coordinates":[38.53206,48.43785]}},
{"type":"Feature","id":"337590283","properties":{"josm":"n337590283","name":"Фрунзе","population":"3321","region":"Луганська область","koatuu":"4424556200"},"geometry":{"type":"Point","coordinates":[38.76016,48.6694]}},
{"type":"Feature","id":"337596730","properties":{"josm":"n337596730","name":"Михайловка","population":"2467","region":"Луганська область","koatuu":"4423656400"},"geometry":{"type":"Point","coordinates":[38.90671,48.49228]}},
{"type":"Feature","id":"337587920","properties":{"josm":"n337587920","name":"Новотошківське","population":"2349","region":"Луганська область","koatuu":"4423857900"},"geometry":{"type":"Point","coordinates":[38.63157,48.7226]}},
{"type":"Feature","id":"337600321","properties":{"josm":"n337600321","name":"Комісарівка","population":"1785","region":"Луганська область","koatuu":"4423656100"},"geometry":{"type":"Point","coordinates":[38.53398,48.39074]}},
{"type":"Feature","id":"337592700","properties":{"josm":"n337592700","name":"Червоногвардійське","population":"1444","region":"Луганська область","koatuu":"4411045700"},"geometry":{"type":"Point","coordinates":[38.75303,48.59451]}},
{"type":"Feature","id":"337599976","properties":{"josm":"n337599976","name":"Вергулівка","population":"1321","region":"Луганська область","koatuu":"4410545300"},"geometry":{"type":"Point","coordinates":[38.52878,48.4008]}},
{"type":"Feature","id":"337587221","properties":{"josm":"n337587221","name":"Врубівка","population":"1030","region":"Луганська область","koatuu":"4423856200"},"geometry":{"type":"Point","coordinates":[38.38655,48.73887]}},
{"type":"Feature","id":"337597216","properties":{"josm":"n337597216","name":"Глибокий","population":"221","region":"Луганська область","koatuu":"4410545900"},"geometry":{"type":"Point","coordinates":[38.5857,48.4734]}},
{"type":"Feature"}
]}
