{
"type": "FeatureCollection",
"errorDescr": "Border not found",
"features": [
{"type":"Feature","id":"337672630","properties":{"josm":"n337672630","name":"Орджонікідзе","population":"41894","region":"Дніпропетровська область","koatuu":"1212100000"},"geometry":{"type":"Point","coordinates":[34.11049,47.65653]}},
{"type":"Feature","id":"269665736","properties":{"josm":"n269665736","name":"Вараш","population":"41190","region":"Рівненська область","koatuu":"5610700000"},"geometry":{"type":"Point","coordinates":[25.84965,51.34846]}},
{"type":"Feature","id":"337504690","properties":{"josm":"n337504690","name":"Сновськ","population":"11393","region":"Чернігівська область","koatuu":"7425810100"},"geometry":{"type":"Point","coordinates":[31.94275,51.82388]}},
{"type":"Feature","id":"337521296","properties":{"josm":"n337521296","name":"Пулин","population":"5472","region":"Житомирська область","koatuu":"1825455100"},"geometry":{"type":"Point","coordinates":[28.27538,50.46776]}},
{"type":"Feature","id":"337545417","properties":{"josm":"n337545417","name":"Скороходове","population":"3648","region":"Полтавська область","koatuu":"5325455300"},"geometry":{"type":"Point","coordinates":[35.07139,49.7725]}},
{"type":"Feature"}
]}
