{
"type": "FeatureCollection",
"errorDescr": "Border not found",
"features": [
{"type":"Feature","id":"337514561","properties":{"josm":"n337514561","name":"Костопіль","population":"31159","region":"Рівненська область","koatuu":"5623410100"},"geometry":{"type":"Point","coordinates":[26.4513,50.88283]}},
{"type":"Feature","id":"337595311","properties":{"josm":"n337595311","name":"Ювілейне","population":"11528","region":"Дніпропетровська область","koatuu":"1221455800"},"geometry":{"type":"Point","coordinates":[35.08274,48.53087]}},
{"type":"Feature","id":"337597829","properties":{"josm":"n337597829","name":"Петропавлівка","population":"9177","region":"Дніпропетровська область","koatuu":"1223855100"},"geometry":{"type":"Point","coordinates":[36.42483,48.45863]}},
{"type":"Feature","id":"337578657","properties":{"josm":"n337578657","name":"Маньківка","population":"8596","region":"Черкаська область","koatuu":"7123155100"},"geometry":{"type":"Point","coordinates":[30.33394,48.96366]}},
{"type":"Feature","id":"337660175","properties":{"josm":"n337660175","name":"Софіївка","population":"8243","region":"Дніпропетровська область","koatuu":"1225255100"},"geometry":{"type":"Point","coordinates":[33.86686,48.0482]}},
{"type":"Feature","id":"337567918","properties":{"josm":"n337567918","name":"Ярмолинці","population":"7954","region":"Хмельницька область","koatuu":"6825855100"},"geometry":{"type":"Point","coordinates":[26.8372,49.19266]}},
{"type":"Feature","id":"337544240","properties":{"josm":"n337544240","name":"Малинівка","population":"7725","region":"Харківська область","koatuu":"6325455900"},"geometry":{"type":"Point","coordinates":[36.74103,49.80823]}},
{"type":"Feature","id":"337535921","properties":{"josm":"n337535921","name":"Мала Данилівка","population":"7471","region":"Харківська область","koatuu":"6322055900"},"geometry":{"type":"Point","coordinates":[36.17062,50.05612]}},
{"type":"Feature","id":"337597113","properties":{"josm":"n337597113","name":"Карнаухівка","population":"6597","region":"Дніпропетровська область","koatuu":"1210465300"},"geometry":{"type":"Point","coordinates":[34.73843,48.47546]}},
{"type":"Feature","id":"337582691","properties":{"josm":"n337582691","name":"Борівське","population":"5949","region":"Луганська область","koatuu":"4412945200"},"geometry":{"type":"Point","coordinates":[38.56093,48.87045]}},
{"type":"Feature","id":"337683193","properties":{"josm":"n337683193","name":"Велика Михайлівка","population":"5753","region":"Одеська область","koatuu":"5121655100"},"geometry":{"type":"Point","coordinates":[29.84755,47.07537]}},
{"type":"Feature","id":"337520849","properties":{"josm":"n337520849","name":"Згурівка","population":"5447","region":"Київська область","koatuu":"3221955100"},"geometry":{"type":"Point","coordinates":[31.76918,50.49507]}},
{"type":"Feature","id":"337543316","properties":{"josm":"n337543316","name":"Новопокровка","population":"5027","region":"Харківська область","koatuu":"6325456200"},"geometry":{"type":"Point","coordinates":[36.55647,49.83898]}},
{"type":"Feature","id":"337580101","properties":{"josm":"n337580101","name":"Павлиш","population":"4699","region":"Кіровоградська область","koatuu":"3524655400"},"geometry":{"type":"Point","coordinates":[33.36101,48.92212]}},
{"type":"Feature","id":"337509600","properties":{"josm":"n337509600","name":"Клесів","population":"4543","region":"Рівненська область","koatuu":"5625455400"},"geometry":{"type":"Point","coordinates":[26.88835,51.31233]}},
{"type":"Feature","id":"337592048","properties":{"josm":"n337592048","name":"Меліоративне","population":"4519","region":"Дніпропетровська область","koatuu":"1223255800"},"geometry":{"type":"Point","coordinates":[35.40207,48.61347]}},
{"type":"Feature","id":"337577787","properties":{"josm":"n337577787","name":"Єрки","population":"4360","region":"Черкаська область","koatuu":"7122255400"},"geometry":{"type":"Point","coordinates":[30.99449,48.98357]}},
{"type":"Feature","id":"337594314","properties":{"josm":"n337594314","name":"Аули","population":"4345","region":"Дніпропетровська область","koatuu":"1222055300"},"geometry":{"type":"Point","coordinates":[34.45038,48.54824]}},
{"type":"Feature","id":"337511426","properties":{"josm":"n337511426","name":"Степань","population":"4108","region":"Рівненська область","koatuu":"5625455700"},"geometry":{"type":"Point","coordinates":[26.30469,51.13279]}},
{"type":"Feature","id":"337537037","properties":{"josm":"n337537037","name":"Шарівка","population":"4100","region":"Харківська область","koatuu":"6320855700"},"geometry":{"type":"Point","coordinates":[35.44052,50.01869]}},
{"type":"Feature","id":"337549096","properties":{"josm":"n337549096","name":"Зідьки","population":"4087","region":"Харківська область","koatuu":"6321755300"},"geometry":{"type":"Point","coordinates":[36.41384,49.6915]}},
{"type":"Feature","id":"1984366540","properties":{"josm":"n1984366540","name":"Черкаське","population":"4046","region":"Дніпропетровська область","koatuu":"1223256200"},"geometry":{"type":"Point","coordinates":[35.38253,48.70465]}},
{"type":"Feature","id":"337588299","properties":{"josm":"n337588299","name":"Солотвин","population":"3916","region":"Івано-Франківська область","koatuu":"2620455500"},"geometry":{"type":"Point","coordinates":[24.41849,48.71132]}},
{"type":"Feature","id":"337560375","properties":{"josm":"n337560375","name":"Стеблів","population":"3791","region":"Черкаська область","koatuu":"7122555500"},"geometry":{"type":"Point","coordinates":[31.09509,49.40002]}},
{"type":"Feature","id":"337594685","properties":{"josm":"n337594685","name":"Середнє","population":"3733","region":"Закарпатська область","koatuu":"2124855500"},"geometry":{"type":"Point","coordinates":[22.50438,48.54139]}},
{"type":"Feature","id":"337545417","properties":{"josm":"n337545417","name":"Артемівка","population":"3648","region":"Полтавська область","koatuu":"5325455300"},"geometry":{"type":"Point","coordinates":[35.07139,49.7725]}},
{"type":"Feature","id":"317747079","properties":{"josm":"n317747079","name":"Кочеток","population":"3633","region":"Харківська область","koatuu":"6325455600"},"geometry":{"type":"Point","coordinates":[36.72902,49.87269]}},
{"type":"Feature","id":"337540724","properties":{"josm":"n337540724","name":"Ков’яги","population":"3559","region":"Харківська область","koatuu":"6321255400"},"geometry":{"type":"Point","coordinates":[35.55004,49.91569]}},
{"type":"Feature","id":"337663428","properties":{"josm":"n337663428","name":"Путила","population":"3335","region":"Чернівецька область","koatuu":"7323555100"},"geometry":{"type":"Point","coordinates":[25.08453,47.99515]}},
{"type":"Feature","id":"337587965","properties":{"josm":"n337587965","name":"Приютівка","population":"3310","region":"Кіровоградська область","koatuu":"3520355800"},"geometry":{"type":"Point","coordinates":[33.06747,48.72162]}},
{"type":"Feature","id":"337561736","properties":{"josm":"n337561736","name":"Чапаєве","population":"2911","region":"Харківська область","koatuu":"6323155600"},"geometry":{"type":"Point","coordinates":[35.85834,49.36191]}},
{"type":"Feature","id":"337566899","properties":{"josm":"n337566899","name":"Вовковинці","population":"2898","region":"Хмельницька область","koatuu":"6821555400"},"geometry":{"type":"Point","coordinates":[27.65597,49.20736]}},
{"type":"Feature","id":"337681855","properties":{"josm":"n337681855","name":"Цебрикове","population":"2754","region":"Одеська область","koatuu":"5121655500"},"geometry":{"type":"Point","coordinates":[30.10546,47.14704]}},
{"type":"Feature","id":"337590670","properties":{"josm":"n337590670","name":"Кострижівка","population":"2728","region":"Чернівецька область","koatuu":"7321555400"},"geometry":{"type":"Point","coordinates":[25.71192,48.65266]}},
{"type":"Feature","id":"337543657","properties":{"josm":"n337543657","name":"Введенка","population":"2710","region":"Харківська область","koatuu":"6325455300"},"geometry":{"type":"Point","coordinates":[36.50001,49.82815]}},
{"type":"Feature","id":"337540706","properties":{"josm":"n337540706","name":"Гоголеве","population":"2686","region":"Полтавська область","koatuu":"5320255400"},"geometry":{"type":"Point","coordinates":[33.82457,49.91878]}},
{"type":"Feature","id":"337527781","properties":{"josm":"n337527781","name":"Приколотне","population":"2654","region":"Харківська область","koatuu":"6321455600"},"geometry":{"type":"Point","coordinates":[37.35145,50.16117]}},
{"type":"Feature","id":"337575718","properties":{"josm":"n337575718","name":"Дунаївці","population":"2602","region":"Хмельницька область","koatuu":"6821855300"},"geometry":{"type":"Point","coordinates":[26.84338,49.02305]}},
{"type":"Feature","id":"337659708","properties":{"josm":"n337659708","name":"Славгород","population":"2554","region":"Дніпропетровська область","koatuu":"1224856200"},"geometry":{"type":"Point","coordinates":[35.51708,48.10055]}},
{"type":"Feature","id":"337527291","properties":{"josm":"n337527291","name":"Комишня","population":"2500","region":"Полтавська область","koatuu":"5323255400"},"geometry":{"type":"Point","coordinates":[33.67962,50.18383]}},
{"type":"Feature","id":"3071974433","properties":{"josm":"n3071974433","name":"Авіаторське","population":"2403","region":"Дніпропетровська область","koatuu":"1210141000"},"geometry":{"type":"Point","coordinates":[35.08239,48.3682]}},
{"type":"Feature","id":"337509712","properties":{"josm":"n337509712","name":"Томашгород","population":"2362","region":"Рівненська область","koatuu":"5625055500"},"geometry":{"type":"Point","coordinates":[27.0686,51.30237]}},
{"type":"Feature","id":"337658524","properties":{"josm":"n337658524","name":"Студена","population":"2308","region":"Вінницька область","koatuu":"0523283001"},"geometry":{"type":"Point","coordinates":[28.8628,48.14003]}},
{"type":"Feature","id":"337572370","properties":{"josm":"n337572370","name":"Буки","population":"2134","region":"Черкаська область","koatuu":"7123155300"},"geometry":{"type":"Point","coordinates":[30.40432,49.09344]}},
{"type":"Feature","id":"337533389","properties":{"josm":"n337533389","name":"Гути","population":"2043","region":"Харківська область","koatuu":"6320855300"},"geometry":{"type":"Point","coordinates":[35.34988,50.12924]}},
{"type":"Feature","id":"337515468","properties":{"josm":"n337515468","name":"Соснове","population":"2036","region":"Рівненська область","koatuu":"5620455700"},"geometry":{"type":"Point","coordinates":[26.99501,50.8266]}},
{"type":"Feature","id":"337599757","properties":{"josm":"n337599757","name":"Яблунів","population":"2032","region":"Івано-Франківська область","koatuu":"2623655800"},"geometry":{"type":"Point","coordinates":[24.95163,48.40476]}},
{"type":"Feature","id":"337539427","properties":{"josm":"n337539427","name":"Костянтинівка","population":"2011","region":"Харківська область","koatuu":"6323555400"},"geometry":{"type":"Point","coordinates":[35.11368,49.95071]}},
{"type":"Feature","id":"337536956","properties":{"josm":"n337536956","name":"Новооржицьке","population":"2008","region":"Полтавська область","koatuu":"5323655600"},"geometry":{"type":"Point","coordinates":[32.7254,50.02282]}},
{"type":"Feature","id":"2096793470","properties":{"josm":"n2096793470","name":"Новопокровка","population":"1999","region":"Дніпропетровська область","koatuu":"1225055400"},"geometry":{"type":"Point","coordinates":[34.61315,48.0678]}},
{"type":"Feature","id":"337602238","properties":{"josm":"n337602238","name":"Роздори","population":"1842","region":"Дніпропетровська область","koatuu":"1224855600"},"geometry":{"type":"Point","coordinates":[35.71209,48.33126]}},
{"type":"Feature","id":"337538490","properties":{"josm":"n337538490","name":"Старий Мерчик","population":"1779","region":"Харківська область","koatuu":"6321256000"},"geometry":{"type":"Point","coordinates":[35.77354,49.97681]}},
{"type":"Feature","id":"337571385","properties":{"josm":"n337571385","name":"Закупне","population":"1371","region":"Хмельницька область","koatuu":"6825255400"},"geometry":{"type":"Point","coordinates":[26.33183,49.11678]}},
{"type":"Feature","id":"337657119","properties":{"josm":"n337657119","name":"Молодіжне","population":"1354","region":"Кіровоградська область","koatuu":"3521955400"},"geometry":{"type":"Point","coordinates":[32.65961,48.18054]}},
{"type":"Feature","id":"337544672","properties":{"josm":"n337544672","name":"Утківка","population":"1339","region":"Харківська область","koatuu":"6325158800"},"geometry":{"type":"Point","coordinates":[36.02966,49.79793]}},
{"type":"Feature","id":"337689903","properties":{"josm":"n337689903","name":"Лісне","population":"1318","region":"Одеська область","koatuu":"5124784601"},"geometry":{"type":"Point","coordinates":[29.35032,46.46702]}},
{"type":"Feature","id":"337657064","properties":{"josm":"n337657064","name":"Демурине","population":"1310","region":"Дніпропетровська область","koatuu":"1222655400"},"geometry":{"type":"Point","coordinates":[36.4725,48.18188]}},
{"type":"Feature","id":"337569829","properties":{"josm":"n337569829","name":"Цвіткове","population":"1286","region":"Черкаська область","koatuu":"7120355700"},"geometry":{"type":"Point","coordinates":[31.54484,49.15146]}},
{"type":"Feature","id":"337656556","properties":{"josm":"n337656556","name":"Письменне","population":"1276","region":"Дніпропетровська область","koatuu":"1220755400"},"geometry":{"type":"Point","coordinates":[35.79998,48.19462]}},
{"type":"Feature","id":"337561699","properties":{"josm":"n337561699","name":"Ірдинь","population":"1034","region":"Черкаська область","koatuu":"7124955300"},"geometry":{"type":"Point","coordinates":[31.66397,49.36329]}},
{"type":"Feature","id":"337546366","properties":{"josm":"n337546366","name":"Залізничне","population":"998","region":"Вінницька область","koatuu":"0510541000"},"geometry":{"type":"Point","coordinates":[28.7883,49.75021]}},
{"type":"Feature","id":"337598786","properties":{"josm":"n337598786","name":"Брагинівка","population":"676","region":"Дніпропетровська область","koatuu":"1223855300"},"geometry":{"type":"Point","coordinates":[36.49626,48.43341]}},
{"type":"Feature","id":"337549437","properties":{"josm":"n337549437","name":"Бірки","population":"657","region":"Харківська область","koatuu":"6324255300"},"geometry":{"type":"Point","coordinates":[36.05232,49.68361]}},
{"type":"Feature","id":"337671123","properties":{"josm":"n337671123","name":"Гірницьке","population":"355","region":"Дніпропетровська область","koatuu":"1212145300"},"geometry":{"type":"Point","coordinates":[34.16008,47.72357]}},
{"type":"Feature"}
]}
