{
"type": "FeatureCollection",
"errorDescr": "Border not found",
"features": [
{"type":"Feature","id":"337566618","properties":{"josm":"n337566618","name":"Сміла","population":"68520","region":"Черкаська область","koatuu":"7110500000"},"geometry":{"type":"Point","coordinates":[31.88271,49.23355]}},
{"type":"Feature","id":"254275595","properties":{"josm":"n254275595","name":"Берегово","population":"24580","region":"Закарпатська область","koatuu":"2110200000"},"geometry":{"type":"Point","coordinates":[22.64532,48.2051]}},
{"type":"Feature","id":"337593968","properties":{"josm":"n337593968","name":"Юбілейне","population":"16723","region":"Луганська область","koatuu":"4410165900"},"geometry":{"type":"Point","coordinates":[39.1786,48.55389]}},
{"type":"Feature","id":"256613870","properties":{"josm":"n256613870","name":"Бунге","population":"14570","region":"Донецька область","koatuu":"1412070700"},"geometry":{"type":"Point","coordinates":[38.28753,48.22136]}},
{"type":"Feature","id":"337590198","properties":{"josm":"n337590198","name":"Станиця Луганська","population":"13744","region":"Луганська область","koatuu":"4424855100"},"geometry":{"type":"Point","coordinates":[39.49331,48.64513]}},
{"type":"Feature","id":"337690298","properties":{"josm":"n337690298","name":"Лиманка","population":"13085","region":"Одеська область","koatuu":"5123755802"},"geometry":{"type":"Point","coordinates":[30.69087,46.3731]}},
{"type":"Feature","id":"337523758","properties":{"josm":"n337523758","name":"Лохвиця","population":"12307","region":"Полтавська область","koatuu":"5322610100"},"geometry":{"type":"Point","coordinates":[33.26697,50.35692]}},
{"type":"Feature","id":"337592920","properties":{"josm":"n337592920","name":"Зимогір’я","population":"10148","region":"Луганська область","koatuu":"4424510300"},"geometry":{"type":"Point","coordinates":[38.92731,48.58566]}},
{"type":"Feature","id":"337588316","properties":{"josm":"n337588316","name":"Слов’яносербськ","population":"8065","region":"Луганська область","koatuu":"4424555100"},"geometry":{"type":"Point","coordinates":[38.98626,48.69466]}},
{"type":"Feature","id":"337584961","properties":{"josm":"n337584961","name":"Петропавлівка","population":"4981","region":"Луганська область","koatuu":"4424855400"},"geometry":{"type":"Point","coordinates":[39.26685,48.80813]}},
{"type":"Feature","id":"1736128324","properties":{"josm":"n1736128324","name":"Миколаївка","population":"4272","region":"Сумська область","koatuu":"5920655300"},"geometry":{"type":"Point","coordinates":[34.37292,50.93951]}},
{"type":"Feature","id":"337598517","properties":{"josm":"n337598517","name":"Южна Ломуватка","population":"3408","region":"Луганська область","koatuu":"4410546500"},"geometry":{"type":"Point","coordinates":[38.53206,48.43785]}},
{"type":"Feature","id":"337590283","properties":{"josm":"n337590283","name":"Сентянівка","population":"3321","region":"Луганська область","koatuu":"4424556200"},"geometry":{"type":"Point","coordinates":[38.76016,48.6694]}},
{"type":"Feature","id":"337513205","properties":{"josm":"n337513205","name":"Улянівка","population":"2777","region":"Сумська область","koatuu":"5920655700"},"geometry":{"type":"Point","coordinates":[34.29382,50.97484]}},
{"type":"Feature","id":"337596730","properties":{"josm":"n337596730","name":"Михайлівка","population":"2467","region":"Луганська область","koatuu":"4423656400"},"geometry":{"type":"Point","coordinates":[38.90671,48.49228]}},
{"type":"Feature","id":"337587920","properties":{"josm":"n337587920","name":"Новотошківське","population":"2349","region":"Луганська область","koatuu":"4423857900"},"geometry":{"type":"Point","coordinates":[38.63157,48.7226]}},
{"type":"Feature","id":"337679085","properties":{"josm":"n337679085","name":"Токарівка","population":"2077","region":"Миколаївська область","koatuu":"4821755500"},"geometry":{"type":"Point","coordinates":[31.02147,47.30422]}},
{"type":"Feature","id":"337600321","properties":{"josm":"n337600321","name":"Комісарівка","population":"1785","region":"Луганська область","koatuu":"4423656100"},"geometry":{"type":"Point","coordinates":[38.53398,48.39074]}},
{"type":"Feature"}
]}
