{
"type": "FeatureCollection",
"errorDescr": "Border not found",
"features": [
{"type":"Feature","id":"8015755415","properties":{"josm":"n8015755415","name":"Торез","population":"","region":"Донецька область","koatuu":""},"geometry":{"type":"Point","coordinates":[38.56081,48.03271]}},
{"type":"Feature","id":"337593799","properties":{"josm":"n337593799","name":"Стаханов","population":"79010","region":"Луганська область","koatuu":"4413100000"},"geometry":{"type":"Point","coordinates":[38.64167,48.56231]}},
{"type":"Feature","id":"337696139","properties":{"josm":"n337696139","name":"Ізмаїл","population":"74421","region":"Одеська область","koatuu":"5110600000"},"geometry":{"type":"Point","coordinates":[28.83615,45.35113]}},
{"type":"Feature","id":"4764620106","properties":{"josm":"n4764620106","name":"Кировск","population":"29235","region":"Луганська область","koatuu":"4411000000"},"geometry":{"type":"Point","coordinates":[38.64786,48.64141]}},
{"type":"Feature","id":"337593968","properties":{"josm":"n337593968","name":"Юбілейне","population":"16723","region":"Луганська область","koatuu":"4410165900"},"geometry":{"type":"Point","coordinates":[39.1786,48.55389]}},
{"type":"Feature","id":"337565721","properties":{"josm":"n337565721","name":"Жашків","population":"14368","region":"Черкаська область","koatuu":"7120910100"},"geometry":{"type":"Point","coordinates":[30.10797,49.24817]}},
{"type":"Feature","id":"337690298","properties":{"josm":"n337690298","name":"Лиманка","population":"13085","region":"Одеська область","koatuu":"5123755802"},"geometry":{"type":"Point","coordinates":[30.69087,46.3731]}},
{"type":"Feature","id":"337695202","properties":{"josm":"n337695202","name":"Красногвардійське","population":"10742","region":"Автономна Республіка Крим","koatuu":"0122055100"},"geometry":{"type":"Point","coordinates":[34.29509,45.49596]}},
{"type":"Feature","id":"337519261","properties":{"josm":"n337519261","name":"Велика Димерка","population":"9564","region":"Київська область","koatuu":"3221255200"},"geometry":{"type":"Point","coordinates":[30.90109,50.59183]}},
{"type":"Feature","id":"2773405136","properties":{"josm":"n2773405136","name":"Христинівка","population":"8671","region":"Черкаська область","koatuu":"7124610100"},"geometry":{"type":"Point","coordinates":[29.97217,48.81156]}},
{"type":"Feature","id":"337588316","properties":{"josm":"n337588316","name":"Слов’яносербськ","population":"8065","region":"Луганська область","koatuu":"4424555100"},"geometry":{"type":"Point","coordinates":[38.98626,48.69466]}},
{"type":"Feature","id":"337598439","properties":{"josm":"n337598439","name":"Артемівськ","population":"7616","region":"Луганська область","koatuu":"4423610300"},"geometry":{"type":"Point","coordinates":[38.72149,48.43879]}},
{"type":"Feature","id":"337696984","properties":{"josm":"n337696984","name":"Кіровське","population":"7024","region":"Автономна Республіка Крим","koatuu":"0121655100"},"geometry":{"type":"Point","coordinates":[35.20108,45.23065]}},
{"type":"Feature","id":"337520849","properties":{"josm":"n337520849","name":"Згурівка","population":"5447","region":"Київська область","koatuu":"3221955100"},"geometry":{"type":"Point","coordinates":[31.76918,50.49507]}},
{"type":"Feature","id":"337671314","properties":{"josm":"n337671314","name":"Комишуваха","population":"5406","region":"Запорізька область","koatuu":"2323955400"},"geometry":{"type":"Point","coordinates":[35.53227,47.7142]}},
{"type":"Feature","id":"337584961","properties":{"josm":"n337584961","name":"Петропавлівка","population":"4981","region":"Луганська область","koatuu":"4424855400"},"geometry":{"type":"Point","coordinates":[39.26685,48.80813]}},
{"type":"Feature","id":"337577787","properties":{"josm":"n337577787","name":"Єрки","population":"4360","region":"Черкаська область","koatuu":"7122255400"},"geometry":{"type":"Point","coordinates":[30.99449,48.98357]}},
{"type":"Feature","id":"337573271","properties":{"josm":"n337573271","name":"Цибулів","population":"3800","region":"Черкаська область","koatuu":"7123455500"},"geometry":{"type":"Point","coordinates":[29.84555,49.07544]}},
{"type":"Feature","id":"337690697","properties":{"josm":"n337690697","name":"Рикове","population":"3604","region":"Херсонська область","koatuu":"6522155700"},"geometry":{"type":"Point","coordinates":[34.74895,46.33179]}},
{"type":"Feature","id":"337598517","properties":{"josm":"n337598517","name":"Южна Ломуватка","population":"3408","region":"Луганська область","koatuu":"4410546500"},"geometry":{"type":"Point","coordinates":[38.53206,48.43785]}},
{"type":"Feature","id":"337590283","properties":{"josm":"n337590283","name":"Сентянівка","population":"3321","region":"Луганська область","koatuu":"4424556200"},"geometry":{"type":"Point","coordinates":[38.76016,48.6694]}},
{"type":"Feature","id":"337567024","properties":{"josm":"n337567024","name":"Вільшана","population":"3256","region":"Черкаська область","koatuu":"7120355400"},"geometry":{"type":"Point","coordinates":[31.21204,49.21651]}},
{"type":"Feature","id":"337596730","properties":{"josm":"n337596730","name":"Михайлівка","population":"2467","region":"Луганська область","koatuu":"4423656400"},"geometry":{"type":"Point","coordinates":[38.90671,48.49228]}},
{"type":"Feature","id":"337534572","properties":{"josm":"n337534572","name":"Корнин","population":"2407","region":"Житомирська область","koatuu":"1824755400"},"geometry":{"type":"Point","coordinates":[29.54018,50.09697]}},
{"type":"Feature","id":"337587920","properties":{"josm":"n337587920","name":"Новотошківське","population":"2349","region":"Луганська область","koatuu":"4423857900"},"geometry":{"type":"Point","coordinates":[38.63157,48.7226]}},
{"type":"Feature","id":"337572370","properties":{"josm":"n337572370","name":"Буки","population":"2134","region":"Черкаська область","koatuu":"7123155300"},"geometry":{"type":"Point","coordinates":[30.40246,49.09219]}},
{"type":"Feature","id":"337600321","properties":{"josm":"n337600321","name":"Комісарівка","population":"1785","region":"Луганська область","koatuu":"4423656100"},"geometry":{"type":"Point","coordinates":[38.53398,48.39074]}},
{"type":"Feature"}
]}
