{
"type": "FeatureCollection",
"errorDescr": "Border not found",
"features": [
{"type":"Feature","id":"1830695011","properties":{"josm":"n1830695011","name":"Феодосія","population":"70043","region":"Автономна Республіка Крим","koatuu":"0111600000"},"geometry":{"type":"Point","coordinates":[35.37536,45.03367]}},
{"type":"Feature","id":"337691696","properties":{"josm":"n337691696","name":"Тарутине","population":"6055","region":"Одеська область","koatuu":"5124755100"},"geometry":{"type":"Point","coordinates":[29.15008,46.18528]}},
{"type":"Feature","id":"337582691","properties":{"josm":"n337582691","name":"Борівське","population":"5949","region":"Луганська область","koatuu":"4412945200"},"geometry":{"type":"Point","coordinates":[38.56093,48.87045]}},
{"type":"Feature","id":"337683193","properties":{"josm":"n337683193","name":"Велика Михайлівка","population":"5753","region":"Одеська область","koatuu":"5121655100"},"geometry":{"type":"Point","coordinates":[29.84755,47.07537]}},
{"type":"Feature","id":"337543316","properties":{"josm":"n337543316","name":"Новопокровка","population":"5027","region":"Харківська область","koatuu":"6325456200"},"geometry":{"type":"Point","coordinates":[36.55647,49.83898]}},
{"type":"Feature","id":"337509600","properties":{"josm":"n337509600","name":"Клесів","population":"4543","region":"Рівненська область","koatuu":"5625455400"},"geometry":{"type":"Point","coordinates":[26.88835,51.31233]}},
{"type":"Feature","id":"337588299","properties":{"josm":"n337588299","name":"Солотвин","population":"3916","region":"Івано-Франківська область","koatuu":"2620455500"},"geometry":{"type":"Point","coordinates":[24.41849,48.71132]}},
{"type":"Feature","id":"337594685","properties":{"josm":"n337594685","name":"Середнє","population":"3733","region":"Закарпатська область","koatuu":"2124855500"},"geometry":{"type":"Point","coordinates":[22.50438,48.54139]}},
{"type":"Feature","id":"337663428","properties":{"josm":"n337663428","name":"Путила","population":"3335","region":"Чернівецька область","koatuu":"7323555100"},"geometry":{"type":"Point","coordinates":[25.08453,47.99515]}},
{"type":"Feature","id":"337566899","properties":{"josm":"n337566899","name":"Вовковинці","population":"2898","region":"Хмельницька область","koatuu":"6821555400"},"geometry":{"type":"Point","coordinates":[27.65597,49.20736]}},
{"type":"Feature","id":"337681855","properties":{"josm":"n337681855","name":"Цебрикове","population":"2754","region":"Одеська область","koatuu":"5121655500"},"geometry":{"type":"Point","coordinates":[30.10546,47.14704]}},
{"type":"Feature","id":"337543657","properties":{"josm":"n337543657","name":"Введенка","population":"2710","region":"Харківська область","koatuu":"6325455300"},"geometry":{"type":"Point","coordinates":[36.50001,49.82815]}},
{"type":"Feature","id":"337599757","properties":{"josm":"n337599757","name":"Яблунів","population":"2032","region":"Івано-Франківська область","koatuu":"2623655800"},"geometry":{"type":"Point","coordinates":[24.95163,48.40476]}},
{"type":"Feature","id":"337690835","properties":{"josm":"n337690835","name":"Серпневе","population":"1786","region":"Одеська область","koatuu":"5124755900"},"geometry":{"type":"Point","coordinates":[29.01838,46.30402]}},
{"type":"Feature","id":"337538490","properties":{"josm":"n337538490","name":"Старий Мерчик","population":"1779","region":"Харківська область","koatuu":"6321256000"},"geometry":{"type":"Point","coordinates":[35.77354,49.97681]}},
{"type":"Feature","id":"337571385","properties":{"josm":"n337571385","name":"Закупне","population":"1371","region":"Хмельницька область","koatuu":"6825255400"},"geometry":{"type":"Point","coordinates":[26.33183,49.11678]}},
{"type":"Feature","id":"337544672","properties":{"josm":"n337544672","name":"Утківка","population":"1339","region":"Харківська область","koatuu":"6325158800"},"geometry":{"type":"Point","coordinates":[36.02966,49.79793]}},
{"type":"Feature"}
]}
