{
"type": "FeatureCollection",
"errorDescr": "Border not found",
"features": [
{"type":"Feature","id":"3673183717","properties":{"josm":"n3673183717","name":"Бровари","population":"97192","region":"Київська область","koatuu":"3210600000"},"geometry":{"type":"Point","coordinates":[30.79005,50.51112]}},
{"type":"Feature","id":"3726238865","properties":{"josm":"n3726238865","name":"Сколе","population":"6269","region":"Львівська область","koatuu":"4624510100"},"geometry":{"type":"Point","coordinates":[23.51424,49.03812]}},
{"type":"Feature","id":"337543316","properties":{"josm":"n337543316","name":"Новопокровка","population":"5027","region":"Харківська область","koatuu":"6325456200"},"geometry":{"type":"Point","coordinates":[36.55647,49.83898]}},
{"type":"Feature","id":"337509600","properties":{"josm":"n337509600","name":"Клесів","population":"4543","region":"Рівненська область","koatuu":"5625455400"},"geometry":{"type":"Point","coordinates":[26.88835,51.31233]}},
{"type":"Feature","id":"337588299","properties":{"josm":"n337588299","name":"Солотвин","population":"3916","region":"Івано-Франківська область","koatuu":"2620455500"},"geometry":{"type":"Point","coordinates":[24.41849,48.71132]}},
{"type":"Feature","id":"337566899","properties":{"josm":"n337566899","name":"Вовковинці","population":"2898","region":"Хмельницька область","koatuu":"6821555400"},"geometry":{"type":"Point","coordinates":[27.65597,49.20736]}},
{"type":"Feature","id":"337543657","properties":{"josm":"n337543657","name":"Введенка","population":"2710","region":"Харківська область","koatuu":"6325455300"},"geometry":{"type":"Point","coordinates":[36.50001,49.82815]}},
{"type":"Feature","id":"337599757","properties":{"josm":"n337599757","name":"Яблунів","population":"2032","region":"Івано-Франківська область","koatuu":"2623655800"},"geometry":{"type":"Point","coordinates":[24.95163,48.40476]}},
{"type":"Feature","id":"337538490","properties":{"josm":"n337538490","name":"Старий Мерчик","population":"1779","region":"Харківська область","koatuu":"6321256000"},"geometry":{"type":"Point","coordinates":[35.77354,49.97681]}},
{"type":"Feature","id":"337544672","properties":{"josm":"n337544672","name":"Утківка","population":"1339","region":"Харківська область","koatuu":"6325158800"},"geometry":{"type":"Point","coordinates":[36.02966,49.79793]}},
{"type":"Feature"}
]}
