{
"type": "FeatureCollection",
"errorDescr": "Border not found",
"features": [
{"type":"Feature","id":"337575116","properties":{"josm":"n337575116","name":"Комсомольськ","population":"51800","region":"Полтавська область","koatuu":"5310200000"},"geometry":{"type":"Point","coordinates":[33.63309,49.01406]}},
{"type":"Feature","id":"337596242","properties":{"josm":"n337596242","name":"Брянка","population":"48509","region":"Луганська область","koatuu":"4410500000"},"geometry":{"type":"Point","coordinates":[38.66432,48.50361]}},
{"type":"Feature","id":"337520759","properties":{"josm":"n337520759","name":"Здолбунів","population":"24537","region":"Рівненська область","koatuu":"5622610100"},"geometry":{"type":"Point","coordinates":[26.24311,50.51899]}},
{"type":"Feature","id":"337558381","properties":{"josm":"n337558381","name":"Калинівка","population":"19335","region":"Вінницька область","koatuu":"0521610100"},"geometry":{"type":"Point","coordinates":[28.52017,49.45976]}},
{"type":"Feature","id":"337595311","properties":{"josm":"n337595311","name":"Ювілейне","population":"11528","region":"Дніпропетровська область","koatuu":"1221455800"},"geometry":{"type":"Point","coordinates":[35.08274,48.53087]}},
{"type":"Feature","id":"337556862","properties":{"josm":"n337556862","name":"Червоний Донець","population":"9883","region":"Харківська область","koatuu":"6320256000"},"geometry":{"type":"Point","coordinates":[36.57623,49.50817]}},
{"type":"Feature","id":"337662411","properties":{"josm":"n337662411","name":"Красноїльськ","population":"9738","region":"Чернівецька область","koatuu":"7324555400"},"geometry":{"type":"Point","coordinates":[25.60102,48.01867]}},
{"type":"Feature","id":"337520527","properties":{"josm":"n337520527","name":"Млинів","population":"9564","region":"Рівненська область","koatuu":"5623855100"},"geometry":{"type":"Point","coordinates":[25.61263,50.51188]}},
{"type":"Feature","id":"337660135","properties":{"josm":"n337660135","name":"Глибока","population":"9376","region":"Чернівецька область","koatuu":"7321055100"},"geometry":{"type":"Point","coordinates":[25.92842,48.08578]}},
{"type":"Feature","id":"337597829","properties":{"josm":"n337597829","name":"Петропавлівка","population":"9177","region":"Дніпропетровська область","koatuu":"1223855100"},"geometry":{"type":"Point","coordinates":[36.42483,48.45863]}},
{"type":"Feature","id":"337671196","properties":{"josm":"n337671196","name":"Ананьїв","population":"8718","region":"Одеська область","koatuu":"5120210100"},"geometry":{"type":"Point","coordinates":[29.96019,47.71787]}},
{"type":"Feature","id":"337569695","properties":{"josm":"n337569695","name":"Сахновщина","population":"8625","region":"Харківська область","koatuu":"6324855100"},"geometry":{"type":"Point","coordinates":[35.87533,49.15174]}},
{"type":"Feature","id":"337578657","properties":{"josm":"n337578657","name":"Маньківка","population":"8596","region":"Черкаська область","koatuu":"7123155100"},"geometry":{"type":"Point","coordinates":[30.33394,48.96366]}},
{"type":"Feature","id":"337660175","properties":{"josm":"n337660175","name":"Софіївка","population":"8243","region":"Дніпропетровська область","koatuu":"1225255100"},"geometry":{"type":"Point","coordinates":[33.86686,48.0482]}},
{"type":"Feature","id":"337567918","properties":{"josm":"n337567918","name":"Ярмолинці","population":"7954","region":"Хмельницька область","koatuu":"6825855100"},"geometry":{"type":"Point","coordinates":[26.8372,49.19266]}},
{"type":"Feature","id":"337595939","properties":{"josm":"n337595939","name":"Тростянець","population":"7850","region":"Вінницька область","koatuu":"0524155100"},"geometry":{"type":"Point","coordinates":[29.22266,48.51227]}},
{"type":"Feature","id":"337570085","properties":{"josm":"n337570085","name":"Краснопавлівка","population":"7828","region":"Харківська область","koatuu":"6323955400"},"geometry":{"type":"Point","coordinates":[36.32754,49.14596]}},
{"type":"Feature","id":"337544240","properties":{"josm":"n337544240","name":"Малинівка","population":"7725","region":"Харківська область","koatuu":"6325455900"},"geometry":{"type":"Point","coordinates":[36.74103,49.80823]}},
{"type":"Feature","id":"337678826","properties":{"josm":"n337678826","name":"Березнегувате","population":"7722","region":"Миколаївська область","koatuu":"4821155100"},"geometry":{"type":"Point","coordinates":[32.84743,47.30716]}},
{"type":"Feature","id":"337598439","properties":{"josm":"n337598439","name":"Артемівськ","population":"7616","region":"Луганська область","koatuu":"4423610300"},"geometry":{"type":"Point","coordinates":[38.74981,48.44078]}},
{"type":"Feature","id":"337535921","properties":{"josm":"n337535921","name":"Мала Данилівка","population":"7471","region":"Харківська область","koatuu":"6322055900"},"geometry":{"type":"Point","coordinates":[36.17062,50.05612]}},
{"type":"Feature","id":"337553321","properties":{"josm":"n337553321","name":"Семенівка","population":"7469","region":"Полтавська область","koatuu":"5324555100"},"geometry":{"type":"Point","coordinates":[33.18409,49.59867]}},
{"type":"Feature","id":"337527159","properties":{"josm":"n337527159","name":"Понінка","population":"7464","region":"Хмельницька область","koatuu":"6823655400"},"geometry":{"type":"Point","coordinates":[27.56126,50.19138]}},
{"type":"Feature","id":"337548964","properties":{"josm":"n337548964","name":"Шевченкове","population":"7100","region":"Харківська область","koatuu":"6325755100"},"geometry":{"type":"Point","coordinates":[37.17533,49.69528]}},
{"type":"Feature","id":"337587448","properties":{"josm":"n337587448","name":"Шаргород","population":"6949","region":"Вінницька область","koatuu":"0525310100"},"geometry":{"type":"Point","coordinates":[28.08213,48.73785]}},
{"type":"Feature","id":"337560536","properties":{"josm":"n337560536","name":"Савинці","population":"6830","region":"Харківська область","koatuu":"6320255700"},"geometry":{"type":"Point","coordinates":[37.05036,49.39625]}},
{"type":"Feature","id":"337689002","properties":{"josm":"n337689002","name":"Чорноморське","population":"6771","region":"Одеська область","koatuu":"5122755900"},"geometry":{"type":"Point","coordinates":[30.94629,46.58725]}},
{"type":"Feature","id":"337597113","properties":{"josm":"n337597113","name":"Карнаухівка","population":"6597","region":"Дніпропетровська область","koatuu":"1210465300"},"geometry":{"type":"Point","coordinates":[34.73843,48.47546]}},
{"type":"Feature","id":"337562386","properties":{"josm":"n337562386","name":"Турбів","population":"6558","region":"Вінницька область","koatuu":"0522255500"},"geometry":{"type":"Point","coordinates":[28.71693,49.3405]}},
{"type":"Feature","id":"337590253","properties":{"josm":"n337590253","name":"Теплик","population":"6544","region":"Вінницька область","koatuu":"0523755100"},"geometry":{"type":"Point","coordinates":[29.74686,48.6636]}},
{"type":"Feature","id":"337571592","properties":{"josm":"n337571592","name":"Вороновиця","population":"6466","region":"Вінницька область","koatuu":"0520655300"},"geometry":{"type":"Point","coordinates":[28.68894,49.11179]}},
{"type":"Feature","id":"337588247","properties":{"josm":"n337588247","name":"Муровані Курилівці","population":"6113","region":"Вінницька область","koatuu":"0522855100"},"geometry":{"type":"Point","coordinates":[27.53558,48.71301]}},
{"type":"Feature","id":"337691696","properties":{"josm":"n337691696","name":"Тарутине","population":"6055","region":"Одеська область","koatuu":"5124755100"},"geometry":{"type":"Point","coordinates":[29.15008,46.18528]}},
{"type":"Feature","id":"337584288","properties":{"josm":"n337584288","name":"Брацлав","population":"5643","region":"Вінницька область","koatuu":"0523055300"},"geometry":{"type":"Point","coordinates":[28.94085,48.82689]}},
{"type":"Feature","id":"337594569","properties":{"josm":"n337594569","name":"Томашпіль","population":"5557","region":"Вінницька область","koatuu":"0523955100"},"geometry":{"type":"Point","coordinates":[28.51433,48.54378]}},
{"type":"Feature","id":"337671978","properties":{"josm":"n337671978","name":"Олександрівка","population":"5465","region":"Миколаївська область","koatuu":"4822055200"},"geometry":{"type":"Point","coordinates":[31.27854,47.68951]}},
{"type":"Feature","id":"337603117","properties":{"josm":"n337603117","name":"Краснодон","population":"5398","region":"Луганська область","koatuu":"4411446200"},"geometry":{"type":"Point","coordinates":[39.5676,48.30551]}},
{"type":"Feature","id":"337592962","properties":{"josm":"n337592962","name":"Кирнасівка","population":"5334","region":"Вінницька область","koatuu":"0524355300"},"geometry":{"type":"Point","coordinates":[28.98125,48.58463]}},
{"type":"Feature","id":"337655971","properties":{"josm":"n337655971","name":"Чечельник","population":"5187","region":"Вінницька область","koatuu":"0525055100"},"geometry":{"type":"Point","coordinates":[29.36337,48.21075]}},
{"type":"Feature","id":"337543316","properties":{"josm":"n337543316","name":"Новопокровка","population":"5027","region":"Харківська область","koatuu":"6325456200"},"geometry":{"type":"Point","coordinates":[36.55666,49.83913]}},
{"type":"Feature","id":"337684081","properties":{"josm":"n337684081","name":"Воскресенське","population":"4756","region":"Миколаївська область","koatuu":"4823355300"},"geometry":{"type":"Point","coordinates":[32.14538,47.01749]}},
{"type":"Feature","id":"337687842","properties":{"josm":"n337687842","name":"Іванівка","population":"4708","region":"Херсонська область","koatuu":"6522955100"},"geometry":{"type":"Point","coordinates":[34.54479,46.70837]}},
{"type":"Feature","id":"337580101","properties":{"josm":"n337580101","name":"Павлиш","population":"4699","region":"Кіровоградська область","koatuu":"3524655400"},"geometry":{"type":"Point","coordinates":[33.36101,48.92212]}},
{"type":"Feature","id":"337600557","properties":{"josm":"n337600557","name":"Кринички","population":"4657","region":"Дніпропетровська область","koatuu":"1222055100"},"geometry":{"type":"Point","coordinates":[34.4569,48.37486]}},
{"type":"Feature","id":"337690329","properties":{"josm":"n337690329","name":"Сиваське","population":"4610","region":"Херсонська область","koatuu":"6524455500"},"geometry":{"type":"Point","coordinates":[34.53569,46.38264]}},
{"type":"Feature","id":"337509600","properties":{"josm":"n337509600","name":"Клесів","population":"4543","region":"Рівненська область","koatuu":"5625455400"},"geometry":{"type":"Point","coordinates":[26.88835,51.31233]}},
{"type":"Feature","id":"337592048","properties":{"josm":"n337592048","name":"Меліоративне","population":"4519","region":"Дніпропетровська область","koatuu":"1223255800"},"geometry":{"type":"Point","coordinates":[35.40207,48.61347]}},
{"type":"Feature","id":"337687346","properties":{"josm":"n337687346","name":"Дніпряни","population":"4431","region":"Херсонська область","koatuu":"6510745300"},"geometry":{"type":"Point","coordinates":[33.2896,46.74751]}},
{"type":"Feature","id":"337584174","properties":{"josm":"n337584174","name":"Нова Ушиця","population":"4404","region":"Хмельницька область","koatuu":"6823355100"},"geometry":{"type":"Point","coordinates":[27.26678,48.83062]}},
{"type":"Feature","id":"337577787","properties":{"josm":"n337577787","name":"Єрки","population":"4360","region":"Черкаська область","koatuu":"7122255400"},"geometry":{"type":"Point","coordinates":[30.99449,48.98357]}},
{"type":"Feature","id":"337594314","properties":{"josm":"n337594314","name":"Аули","population":"4345","region":"Дніпропетровська область","koatuu":"1222055300"},"geometry":{"type":"Point","coordinates":[34.45038,48.54824]}},
{"type":"Feature","id":"337597363","properties":{"josm":"n337597363","name":"Кольчино","population":"4319","region":"Закарпатська область","koatuu":"2122755300"},"geometry":{"type":"Point","coordinates":[22.75269,48.47065]}},
{"type":"Feature","id":"337591769","properties":{"josm":"n337591769","name":"Битків","population":"4302","region":"Івано-Франківська область","koatuu":"2624055300"},"geometry":{"type":"Point","coordinates":[24.4923,48.62102]}},
{"type":"Feature","id":"337511426","properties":{"josm":"n337511426","name":"Степань","population":"4108","region":"Рівненська область","koatuu":"5625455700"},"geometry":{"type":"Point","coordinates":[26.30917,51.1314]}},
{"type":"Feature","id":"337537037","properties":{"josm":"n337537037","name":"Шарівка","population":"4100","region":"Харківська область","koatuu":"6320855700"},"geometry":{"type":"Point","coordinates":[35.44052,50.01869]}},
{"type":"Feature","id":"337664979","properties":{"josm":"n337664979","name":"Бірюкове","population":"4097","region":"Луганська область","koatuu":"4424255300"},"geometry":{"type":"Point","coordinates":[39.73745,47.95259]}},
{"type":"Feature","id":"337549096","properties":{"josm":"n337549096","name":"Зідьки","population":"4087","region":"Харківська область","koatuu":"6321755300"},"geometry":{"type":"Point","coordinates":[36.41384,49.6915]}},
{"type":"Feature","id":"249634267","properties":{"josm":"n249634267","name":"Верхнячка","population":"4058","region":"Черкаська область","koatuu":"7124655300"},"geometry":{"type":"Point","coordinates":[30.0417,48.82981]}},
{"type":"Feature","id":"337548739","properties":{"josm":"n337548739","name":"Білолуцьк","population":"4049","region":"Луганська область","koatuu":"4423355300"},"geometry":{"type":"Point","coordinates":[39.02481,49.70146]}},
{"type":"Feature","id":"337576602","properties":{"josm":"n337576602","name":"Дашів","population":"3989","region":"Вінницька область","koatuu":"0521255400"},"geometry":{"type":"Point","coordinates":[29.43915,49.00314]}},
{"type":"Feature","id":"337545110","properties":{"josm":"n337545110","name":"Оржиця","population":"3983","region":"Полтавська область","koatuu":"5323655100"},"geometry":{"type":"Point","coordinates":[32.69973,49.78754]}},
{"type":"Feature","id":"337592204","properties":{"josm":"n337592204","name":"Вендичани","population":"3970","region":"Вінницька область","koatuu":"0522655500"},"geometry":{"type":"Point","coordinates":[27.78811,48.60957]}},
{"type":"Feature","id":"337516683","properties":{"josm":"n337516683","name":"Оржів","population":"3961","region":"Рівненська область","koatuu":"5624655700"},"geometry":{"type":"Point","coordinates":[26.11564,50.7512]}},
{"type":"Feature","id":"337588299","properties":{"josm":"n337588299","name":"Солотвин","population":"3916","region":"Івано-Франківська область","koatuu":"2620455500"},"geometry":{"type":"Point","coordinates":[24.41849,48.71132]}},
{"type":"Feature","id":"337560375","properties":{"josm":"n337560375","name":"Стеблів","population":"3791","region":"Черкаська область","koatuu":"7122555500"},"geometry":{"type":"Point","coordinates":[31.09509,49.40002]}},
{"type":"Feature","id":"337589041","properties":{"josm":"n337589041","name":"Донецький","population":"3783","region":"Луганська область","koatuu":"4411045300"},"geometry":{"type":"Point","coordinates":[38.66535,48.69347]}},
{"type":"Feature","id":"337681367","properties":{"josm":"n337681367","name":"Ольшанське","population":"3775","region":"Миколаївська область","koatuu":"4824255600"},"geometry":{"type":"Point","coordinates":[31.76673,47.17021]}},
{"type":"Feature","id":"337596788","properties":{"josm":"n337596788","name":"Новосвітлівка","population":"3755","region":"Луганська область","koatuu":"4421456200"},"geometry":{"type":"Point","coordinates":[39.50662,48.49112]}},
{"type":"Feature","id":"337594685","properties":{"josm":"n337594685","name":"Середнє","population":"3733","region":"Закарпатська область","koatuu":"2124855500"},"geometry":{"type":"Point","coordinates":[22.50438,48.54139]}},
{"type":"Feature","id":"337538282","properties":{"josm":"n337538282","name":"Гриців","population":"3658","region":"Хмельницька область","koatuu":"6825555300"},"geometry":{"type":"Point","coordinates":[27.21946,49.97279]}},
{"type":"Feature","id":"337545417","properties":{"josm":"n337545417","name":"Артемівка","population":"3648","region":"Полтавська область","koatuu":"5325455300"},"geometry":{"type":"Point","coordinates":[35.07139,49.7725]}},
{"type":"Feature","id":"317747079","properties":{"josm":"n317747079","name":"Кочеток","population":"3633","region":"Харківська область","koatuu":"6325455600"},"geometry":{"type":"Point","coordinates":[36.72902,49.87269]}},
{"type":"Feature","id":"337690697","properties":{"josm":"n337690697","name":"Партизани","population":"3604","region":"Херсонська область","koatuu":"6522155700"},"geometry":{"type":"Point","coordinates":[34.74666,46.32557]}},
{"type":"Feature","id":"337540724","properties":{"josm":"n337540724","name":"Ков’яги","population":"3559","region":"Харківська область","koatuu":"6321255400"},"geometry":{"type":"Point","coordinates":[35.55004,49.91569]}},
{"type":"Feature","id":"337522684","properties":{"josm":"n337522684","name":"Мізоч","population":"3550","region":"Рівненська область","koatuu":"5622655400"},"geometry":{"type":"Point","coordinates":[26.14358,50.39716]}},
{"type":"Feature","id":"337545518","properties":{"josm":"n337545518","name":"Глухівці","population":"3463","region":"Вінницька область","koatuu":"0521455500"},"geometry":{"type":"Point","coordinates":[28.72891,49.77356]}},
{"type":"Feature","id":"337598507","properties":{"josm":"n337598507","name":"Білоріченський","population":"3443","region":"Луганська область","koatuu":"4422255500"},"geometry":{"type":"Point","coordinates":[39.10377,48.43769]}},
{"type":"Feature","id":"337661036","properties":{"josm":"n337661036","name":"Кобилецька Поляна","population":"3411","region":"Закарпатська область","koatuu":"2123655800"},"geometry":{"type":"Point","coordinates":[24.06418,48.0566]}},
{"type":"Feature","id":"337598517","properties":{"josm":"n337598517","name":"Южна Ломуватка","population":"3408","region":"Луганська область","koatuu":"4410546500"},"geometry":{"type":"Point","coordinates":[38.53206,48.43785]}},
{"type":"Feature","id":"337663428","properties":{"josm":"n337663428","name":"Путила","population":"3335","region":"Чернівецька область","koatuu":"7323555100"},"geometry":{"type":"Point","coordinates":[25.08453,47.99515]}},
{"type":"Feature","id":"337590283","properties":{"josm":"n337590283","name":"Фрунзе","population":"3321","region":"Луганська область","koatuu":"4424556200"},"geometry":{"type":"Point","coordinates":[38.76285,48.66291]}},
{"type":"Feature","id":"337587965","properties":{"josm":"n337587965","name":"Приютівка","population":"3310","region":"Кіровоградська область","koatuu":"3520355800"},"geometry":{"type":"Point","coordinates":[33.06747,48.72162]}},
{"type":"Feature","id":"337679932","properties":{"josm":"n337679932","name":"Пришиб","population":"3277","region":"Запорізька область","koatuu":"2323355400"},"geometry":{"type":"Point","coordinates":[35.32825,47.24945]}},
{"type":"Feature","id":"337538191","properties":{"josm":"n337538191","name":"Ромодан","population":"3225","region":"Полтавська область","koatuu":"5323255700"},"geometry":{"type":"Point","coordinates":[33.32962,49.99202]}},
{"type":"Feature","id":"2128905660","properties":{"josm":"n2128905660","name":"Обертин","population":"3225","region":"Івано-Франківська область","koatuu":"2625655400"},"geometry":{"type":"Point","coordinates":[25.17123,48.6984]}},
{"type":"Feature","id":"337599972","properties":{"josm":"n337599972","name":"Бугаївка","population":"3194","region":"Луганська область","koatuu":"4423655500"},"geometry":{"type":"Point","coordinates":[38.83221,48.40027]}},
{"type":"Feature","id":"337593689","properties":{"josm":"n337593689","name":"Калинове","population":"3180","region":"Луганська область","koatuu":"4423856500"},"geometry":{"type":"Point","coordinates":[38.52116,48.56438]}},
{"type":"Feature","id":"337538311","properties":{"josm":"n337538311","name":"Кулиничі","population":"3101","region":"Харківська область","koatuu":"6325157300"},"geometry":{"type":"Point","coordinates":[36.38385,49.98204]}},
{"type":"Feature","id":"337689979","properties":{"josm":"n337689979","name":"Асканія-Нова","population":"3034","region":"Херсонська область","koatuu":"6525455300"},"geometry":{"type":"Point","coordinates":[33.87364,46.45238]}},
{"type":"Feature","id":"337601037","properties":{"josm":"n337601037","name":"Щорськ","population":"3032","region":"Дніпропетровська область","koatuu":"1222055700"},"geometry":{"type":"Point","coordinates":[34.11392,48.3601]}},
{"type":"Feature","id":"337689759","properties":{"josm":"n337689759","name":"Авангард","population":"2984","region":"Одеська область","koatuu":"5123755200"},"geometry":{"type":"Point","coordinates":[30.61624,46.47172]}},
{"type":"Feature","id":"337574845","properties":{"josm":"n337574845","name":"Єзупіль","population":"2978","region":"Івано-Франківська область","koatuu":"2625855300"},"geometry":{"type":"Point","coordinates":[24.78756,49.04194]}},
{"type":"Feature","id":"337674908","properties":{"josm":"n337674908","name":"Миколаївка","population":"2972","region":"Одеська область","koatuu":"5123555100"},"geometry":{"type":"Point","coordinates":[30.75471,47.53664]}},
{"type":"Feature","id":"337683700","properties":{"josm":"n337683700","name":"Первомайське","population":"2931","region":"Миколаївська область","koatuu":"4823355700"},"geometry":{"type":"Point","coordinates":[32.43991,47.03951]}},
{"type":"Feature","id":"256617917","properties":{"josm":"n256617917","name":"Андріївка","population":"2915","region":"Донецька область","koatuu":"1424855300"},"geometry":{"type":"Point","coordinates":[37.64929,47.45939]}},
{"type":"Feature","id":"337561736","properties":{"josm":"n337561736","name":"Чапаєве","population":"2911","region":"Харківська область","koatuu":"6323155600"},"geometry":{"type":"Point","coordinates":[35.85834,49.36191]}},
{"type":"Feature","id":"337566899","properties":{"josm":"n337566899","name":"Вовковинці","population":"2898","region":"Хмельницька область","koatuu":"6821555400"},"geometry":{"type":"Point","coordinates":[27.65597,49.20736]}},
{"type":"Feature","id":"337681855","properties":{"josm":"n337681855","name":"Цебрикове","population":"2754","region":"Одеська область","koatuu":"5121655500"},"geometry":{"type":"Point","coordinates":[30.10546,47.14704]}},
{"type":"Feature","id":"1882306628","properties":{"josm":"n1882306628","name":"Войнилів","population":"2747","region":"Івано-Франківська область","koatuu":"2622855300"},"geometry":{"type":"Point","coordinates":[24.49954,49.13037]}},
{"type":"Feature","id":"337540656","properties":{"josm":"n337540656","name":"Запитів","population":"2730","region":"Львівська область","koatuu":"4622155400"},"geometry":{"type":"Point","coordinates":[24.21294,49.91735]}},
{"type":"Feature","id":"337590670","properties":{"josm":"n337590670","name":"Кострижівка","population":"2728","region":"Чернівецька область","koatuu":"7321555400"},"geometry":{"type":"Point","coordinates":[25.71192,48.65266]}},
{"type":"Feature","id":"337543657","properties":{"josm":"n337543657","name":"Введенка","population":"2710","region":"Харківська область","koatuu":"6325455300"},"geometry":{"type":"Point","coordinates":[36.50001,49.82815]}},
{"type":"Feature","id":"337540706","properties":{"josm":"n337540706","name":"Гоголеве","population":"2686","region":"Полтавська область","koatuu":"5320255400"},"geometry":{"type":"Point","coordinates":[33.82457,49.91878]}},
{"type":"Feature","id":"337569014","properties":{"josm":"n337569014","name":"Нова Галещина","population":"2658","region":"Полтавська область","koatuu":"5322055500"},"geometry":{"type":"Point","coordinates":[33.75893,49.17171]}},
{"type":"Feature","id":"337526312","properties":{"josm":"n337526312","name":"Смига","population":"2654","region":"Рівненська область","koatuu":"5621655900"},"geometry":{"type":"Point","coordinates":[25.75985,50.2343]}},
{"type":"Feature","id":"337527781","properties":{"josm":"n337527781","name":"Приколотне","population":"2654","region":"Харківська область","koatuu":"6321455600"},"geometry":{"type":"Point","coordinates":[37.35145,50.16117]}},
{"type":"Feature","id":"702132126","properties":{"josm":"n702132126","name":"Іванівка","population":"2618","region":"Одеська область","koatuu":"5121855100"},"geometry":{"type":"Point","coordinates":[30.46887,46.97754]}},
{"type":"Feature","id":"337575718","properties":{"josm":"n337575718","name":"Дунаївці","population":"2602","region":"Хмельницька область","koatuu":"6821855300"},"geometry":{"type":"Point","coordinates":[26.84338,49.02305]}},
{"type":"Feature","id":"337602558","properties":{"josm":"n337602558","name":"Городище","population":"2602","region":"Луганська область","koatuu":"4423655800"},"geometry":{"type":"Point","coordinates":[38.63358,48.32326]}},
{"type":"Feature","id":"337690467","properties":{"josm":"n337690467","name":"Таїрове","population":"2593","region":"Одеська область","koatuu":"5123755800"},"geometry":{"type":"Point","coordinates":[30.65126,46.3672]}},
{"type":"Feature","id":"337600086","properties":{"josm":"n337600086","name":"Селезнівка","population":"2568","region":"Луганська область","koatuu":"4423656700"},"geometry":{"type":"Point","coordinates":[38.79135,48.39821]}},
{"type":"Feature","id":"337659708","properties":{"josm":"n337659708","name":"Славгород","population":"2554","region":"Дніпропетровська область","koatuu":"1224856200"},"geometry":{"type":"Point","coordinates":[35.51708,48.10055]}},
{"type":"Feature","id":"337686332","properties":{"josm":"n337686332","name":"Нововасилівка","population":"2530","region":"Запорізька область","koatuu":"2324555400"},"geometry":{"type":"Point","coordinates":[35.74951,46.83472]}},
{"type":"Feature","id":"337527291","properties":{"josm":"n337527291","name":"Комишня","population":"2500","region":"Полтавська область","koatuu":"5323255400"},"geometry":{"type":"Point","coordinates":[33.67962,50.18383]}},
{"type":"Feature","id":"337606150","properties":{"josm":"n337606150","name":"Фащівка","population":"2459","region":"Луганська область","koatuu":"4420357200"},"geometry":{"type":"Point","coordinates":[38.66913,48.22483]}},
{"type":"Feature","id":"337599876","properties":{"josm":"n337599876","name":"Неполоківці","population":"2438","region":"Чернівецька область","koatuu":"7322555700"},"geometry":{"type":"Point","coordinates":[25.64758,48.40267]}},
{"type":"Feature","id":"337666951","properties":{"josm":"n337666951","name":"Слобідка","population":"2419","region":"Одеська область","koatuu":"5122555500"},"geometry":{"type":"Point","coordinates":[29.34105,47.88597]}},
{"type":"Feature","id":"337565520","properties":{"josm":"n337565520","name":"Сатанів","population":"2413","region":"Хмельницька область","koatuu":"6821255500"},"geometry":{"type":"Point","coordinates":[26.25479,49.25365]}},
{"type":"Feature","id":"3071974433","properties":{"josm":"n3071974433","name":"Авіаторське","population":"2403","region":"Дніпропетровська область","koatuu":"1210141000"},"geometry":{"type":"Point","coordinates":[35.08239,48.3682]}},
{"type":"Feature","id":"337544206","properties":{"josm":"n337544206","name":"Антоніни","population":"2401","region":"Хмельницька область","koatuu":"6822755200"},"geometry":{"type":"Point","coordinates":[26.86466,49.81029]}},
{"type":"Feature","id":"337580513","properties":{"josm":"n337580513","name":"Ситківці","population":"2398","region":"Вінницька область","koatuu":"0523055600"},"geometry":{"type":"Point","coordinates":[29.1996,48.91079]}},
{"type":"Feature","id":"337509712","properties":{"josm":"n337509712","name":"Томашгород","population":"2362","region":"Рівненська область","koatuu":"5625055500"},"geometry":{"type":"Point","coordinates":[27.0686,51.30237]}},
{"type":"Feature","id":"337689792","properties":{"josm":"n337689792","name":"Хлібодарське","population":"2357","region":"Одеська область","koatuu":"5121056800"},"geometry":{"type":"Point","coordinates":[30.59177,46.48212]}},
{"type":"Feature","id":"337587920","properties":{"josm":"n337587920","name":"Новотошківське","population":"2349","region":"Луганська область","koatuu":"4411045500"},"geometry":{"type":"Point","coordinates":[38.63308,48.72265]}},
{"type":"Feature","id":"337592538","properties":{"josm":"n337592538","name":"Стара Ушиця","population":"2338","region":"Хмельницька область","koatuu":"6822455800"},"geometry":{"type":"Point","coordinates":[27.06413,48.59733]}},
{"type":"Feature","id":"337668655","properties":{"josm":"n337668655","name":"Костянтинівка","population":"2312","region":"Миколаївська область","koatuu":"4820355700"},"geometry":{"type":"Point","coordinates":[31.15139,47.83172]}},
{"type":"Feature","id":"337588693","properties":{"josm":"n337588693","name":"Комишуваха","population":"2310","region":"Луганська область","koatuu":"4423856900"},"geometry":{"type":"Point","coordinates":[38.4621,48.70102]}},
{"type":"Feature","id":"337545948","properties":{"josm":"n337545948","name":"Бродецьке","population":"2302","region":"Вінницька область","koatuu":"0521455300"},"geometry":{"type":"Point","coordinates":[28.66533,49.7601]}},
{"type":"Feature","id":"337659287","properties":{"josm":"n337659287","name":"Підгородна","population":"2205","region":"Миколаївська область","koatuu":"4825455400"},"geometry":{"type":"Point","coordinates":[30.88909,48.11428]}},
{"type":"Feature","id":"337572370","properties":{"josm":"n337572370","name":"Буки","population":"2134","region":"Черкаська область","koatuu":"7123155300"},"geometry":{"type":"Point","coordinates":[30.40432,49.09344]}},
{"type":"Feature","id":"337539725","properties":{"josm":"n337539725","name":"Підкамінь","population":"2128","region":"Львівська область","koatuu":"4620355400"},"geometry":{"type":"Point","coordinates":[25.3186,49.94525]}},
{"type":"Feature","id":"337568380","properties":{"josm":"n337568380","name":"Більшівці","population":"2123","region":"Івано-Франківська область","koatuu":"2621255300"},"geometry":{"type":"Point","coordinates":[24.74602,49.18373]}},
{"type":"Feature","id":"337533389","properties":{"josm":"n337533389","name":"Гути","population":"2043","region":"Харківська область","koatuu":"6320855300"},"geometry":{"type":"Point","coordinates":[35.34988,50.12924]}},
{"type":"Feature","id":"337515468","properties":{"josm":"n337515468","name":"Соснове","population":"2036","region":"Рівненська область","koatuu":"5620455700"},"geometry":{"type":"Point","coordinates":[26.99501,50.8266]}},
{"type":"Feature","id":"337599757","properties":{"josm":"n337599757","name":"Яблунів","population":"2032","region":"Івано-Франківська область","koatuu":"2623655800"},"geometry":{"type":"Point","coordinates":[24.95163,48.40476]}},
{"type":"Feature","id":"337538997","properties":{"josm":"n337538997","name":"Ямпіль","population":"2022","region":"Хмельницька область","koatuu":"6820355600"},"geometry":{"type":"Point","coordinates":[26.23673,49.9617]}},
{"type":"Feature","id":"337539427","properties":{"josm":"n337539427","name":"Костянтинівка","population":"2011","region":"Харківська область","koatuu":"6323555400"},"geometry":{"type":"Point","coordinates":[35.11368,49.95071]}},
{"type":"Feature","id":"337536956","properties":{"josm":"n337536956","name":"Новооржицьке","population":"2008","region":"Полтавська область","koatuu":"5323655600"},"geometry":{"type":"Point","coordinates":[32.7254,50.02282]}},
{"type":"Feature","id":"2096793470","properties":{"josm":"n2096793470","name":"Новопокровка","population":"1999","region":"Дніпропетровська область","koatuu":"1225055400"},"geometry":{"type":"Point","coordinates":[34.61315,48.0678]}},
{"type":"Feature","id":"337691318","properties":{"josm":"n337691318","name":"Мирне","population":"1966","region":"Херсонська область","koatuu":"6523255400"},"geometry":{"type":"Point","coordinates":[33.46847,46.24625]}},
{"type":"Feature","id":"1726586598","properties":{"josm":"n1726586598","name":"Гвіздець","population":"1931","region":"Івано-Франківська область","koatuu":"2623255200"},"geometry":{"type":"Point","coordinates":[25.2875,48.57968]}},
{"type":"Feature","id":"337579251","properties":{"josm":"n337579251","name":"Смотрич","population":"1912","region":"Хмельницька область","koatuu":"6821855700"},"geometry":{"type":"Point","coordinates":[26.55808,48.94993]}},
{"type":"Feature","id":"337599265","properties":{"josm":"n337599265","name":"Ящикове","population":"1877","region":"Луганська область","koatuu":"4423657700"},"geometry":{"type":"Point","coordinates":[38.75393,48.41606]}},
{"type":"Feature","id":"337602238","properties":{"josm":"n337602238","name":"Роздори","population":"1842","region":"Дніпропетровська область","koatuu":"1224855600"},"geometry":{"type":"Point","coordinates":[35.71209,48.33126]}},
{"type":"Feature","id":"337604647","properties":{"josm":"n337604647","name":"Салькове","population":"1819","region":"Кіровоградська область","koatuu":"3521155600"},"geometry":{"type":"Point","coordinates":[29.99165,48.26912]}},
{"type":"Feature","id":"337548269","properties":{"josm":"n337548269","name":"Базалія","population":"1792","region":"Хмельницька область","koatuu":"6824755300"},"geometry":{"type":"Point","coordinates":[26.47877,49.71382]}},
{"type":"Feature","id":"337690835","properties":{"josm":"n337690835","name":"Серпневе","population":"1786","region":"Одеська область","koatuu":"5124755900"},"geometry":{"type":"Point","coordinates":[29.01558,46.30325]}},
{"type":"Feature","id":"337600321","properties":{"josm":"n337600321","name":"Комісарівка","population":"1785","region":"Луганська область","koatuu":"4423656100"},"geometry":{"type":"Point","coordinates":[38.53398,48.39074]}},
{"type":"Feature","id":"337538490","properties":{"josm":"n337538490","name":"Старий Мерчик","population":"1779","region":"Харківська область","koatuu":"6321256000"},"geometry":{"type":"Point","coordinates":[35.77354,49.97681]}},
{"type":"Feature","id":"337602984","properties":{"josm":"n337602984","name":"Маломиколаївка","population":"1771","region":"Луганська область","koatuu":"4420356200"},"geometry":{"type":"Point","coordinates":[39.01897,48.30929]}},
{"type":"Feature","id":"337690850","properties":{"josm":"n337690850","name":"Бородіно","population":"1661","region":"Одеська область","koatuu":"5124755500"},"geometry":{"type":"Point","coordinates":[29.24046,46.30188]}},
{"type":"Feature","id":"337563950","properties":{"josm":"n337563950","name":"Лозове","population":"1639","region":"Хмельницька область","koatuu":"6821555700"},"geometry":{"type":"Point","coordinates":[27.29899,49.29476]}},
{"type":"Feature","id":"337667379","properties":{"josm":"n337667379","name":"Зеленогірське","population":"1627","region":"Одеська область","koatuu":"5123355300"},"geometry":{"type":"Point","coordinates":[30.09705,47.87567]}},
{"type":"Feature","id":"337684134","properties":{"josm":"n337684134","name":"Радісне","population":"1618","region":"Одеська область","koatuu":"5121855600"},"geometry":{"type":"Point","coordinates":[30.34218,47.00191]}},
{"type":"Feature","id":"337604744","properties":{"josm":"n337604744","name":"Новоолександрівка","population":"1609","region":"Луганська область","koatuu":"4421456000"},"geometry":{"type":"Point","coordinates":[39.627,48.26706]}},
{"type":"Feature","id":"337580330","properties":{"josm":"n337580330","name":"Сиротине","population":"1604","region":"Луганська область","koatuu":"4412945900"},"geometry":{"type":"Point","coordinates":[38.50991,48.91445]}},
{"type":"Feature","id":"337556819","properties":{"josm":"n337556819","name":"Наркевичі","population":"1553","region":"Хмельницька область","koatuu":"6820955700"},"geometry":{"type":"Point","coordinates":[26.63679,49.5181]}},
{"type":"Feature","id":"337538874","properties":{"josm":"n337538874","name":"Олесько","population":"1510","region":"Львівська область","koatuu":"4620655600"},"geometry":{"type":"Point","coordinates":[24.89249,49.96307]}},
{"type":"Feature","id":"337602189","properties":{"josm":"n337602189","name":"Усть-Чорна","population":"1490","region":"Закарпатська область","koatuu":"2124456500"},"geometry":{"type":"Point","coordinates":[23.92582,48.33195]}},
{"type":"Feature","id":"2318438210","properties":{"josm":"n2318438210","name":"Меджибіж","population":"1471","region":"Хмельницька область","koatuu":"6823055400"},"geometry":{"type":"Point","coordinates":[27.40481,49.43705]}},
{"type":"Feature","id":"337572642","properties":{"josm":"n337572642","name":"Бориня","population":"1462","region":"Львівська область","koatuu":"4625555300"},"geometry":{"type":"Point","coordinates":[22.98738,49.08723]}},
{"type":"Feature","id":"337592700","properties":{"josm":"n337592700","name":"Червоногвардійське","population":"1444","region":"Луганська область","koatuu":"4411045700"},"geometry":{"type":"Point","coordinates":[38.75324,48.5915]}},
{"type":"Feature","id":"337602895","properties":{"josm":"n337602895","name":"Талове","population":"1434","region":"Луганська область","koatuu":"4421456900"},"geometry":{"type":"Point","coordinates":[39.66305,48.311]}},
{"type":"Feature","id":"337565005","properties":{"josm":"n337565005","name":"Букачівці","population":"1408","region":"Івано-Франківська область","koatuu":"2624455300"},"geometry":{"type":"Point","coordinates":[24.49608,49.26201]}},
{"type":"Feature","id":"337571385","properties":{"josm":"n337571385","name":"Закупне","population":"1371","region":"Хмельницька область","koatuu":"6825255400"},"geometry":{"type":"Point","coordinates":[26.33183,49.11678]}},
{"type":"Feature","id":"337551197","properties":{"josm":"n337551197","name":"Поморяни","population":"1370","region":"Львівська область","koatuu":"4621855600"},"geometry":{"type":"Point","coordinates":[24.93591,49.63788]}},
{"type":"Feature","id":"337657119","properties":{"josm":"n337657119","name":"Молодіжне","population":"1354","region":"Кіровоградська область","koatuu":"3521955400"},"geometry":{"type":"Point","coordinates":[32.65961,48.18054]}},
{"type":"Feature","id":"337544672","properties":{"josm":"n337544672","name":"Утківка","population":"1339","region":"Харківська область","koatuu":"6325158800"},"geometry":{"type":"Point","coordinates":[36.02966,49.79793]}},
{"type":"Feature","id":"337678128","properties":{"josm":"n337678128","name":"Біла Криниця","population":"1330","region":"Херсонська область","koatuu":"6520955400"},"geometry":{"type":"Point","coordinates":[33.2,47.35039]}},
{"type":"Feature","id":"337599191","properties":{"josm":"n337599191","name":"Врубівський","population":"1326","region":"Луганська область","koatuu":"4422255800"},"geometry":{"type":"Point","coordinates":[39.11819,48.41743]}},
{"type":"Feature","id":"337583044","properties":{"josm":"n337583044","name":"Копайгород","population":"1323","region":"Вінницька область","koatuu":"0520255300"},"geometry":{"type":"Point","coordinates":[27.7985,48.85654]}},
{"type":"Feature","id":"337599976","properties":{"josm":"n337599976","name":"Вергулівка","population":"1321","region":"Луганська область","koatuu":"4410545300"},"geometry":{"type":"Point","coordinates":[38.52878,48.4008]}},
{"type":"Feature","id":"337564360","properties":{"josm":"n337564360","name":"Десна","population":"1318","region":"Вінницька область","koatuu":"0520655500"},"geometry":{"type":"Point","coordinates":[28.53998,49.2844]}},
{"type":"Feature","id":"337657064","properties":{"josm":"n337657064","name":"Демурине","population":"1310","region":"Дніпропетровська область","koatuu":"1222655400"},"geometry":{"type":"Point","coordinates":[36.4725,48.18188]}},
{"type":"Feature","id":"337682592","properties":{"josm":"n337682592","name":"Калінінське","population":"1297","region":"Херсонська область","koatuu":"6520955700"},"geometry":{"type":"Point","coordinates":[32.97409,47.11487]}},
{"type":"Feature","id":"337569829","properties":{"josm":"n337569829","name":"Цвіткове","population":"1286","region":"Черкаська область","koatuu":"7120355700"},"geometry":{"type":"Point","coordinates":[31.54484,49.15146]}},
{"type":"Feature","id":"337656556","properties":{"josm":"n337656556","name":"Письменне","population":"1276","region":"Дніпропетровська область","koatuu":"1220755400"},"geometry":{"type":"Point","coordinates":[35.79998,48.19462]}},
{"type":"Feature","id":"337605172","properties":{"josm":"n337605172","name":"Рудниця","population":"1175","region":"Вінницька область","koatuu":"0523255400"},"geometry":{"type":"Point","coordinates":[28.9349,48.2571]}},
{"type":"Feature","id":"337598764","properties":{"josm":"n337598764","name":"Челюскінець","population":"1151","region":"Луганська область","koatuu":"4422257000"},"geometry":{"type":"Point","coordinates":[39.18926,48.42911]}},
{"type":"Feature","id":"337687462","properties":{"josm":"n337687462","name":"Наддніпрянське","population":"1132","region":"Херсонська область","koatuu":"6510165800"},"geometry":{"type":"Point","coordinates":[32.70389,46.73756]}},
{"type":"Feature","id":"337586485","properties":{"josm":"n337586485","name":"Жденієво","population":"1112","region":"Закарпатська область","koatuu":"2121555300"},"geometry":{"type":"Point","coordinates":[22.97962,48.77243]}},
{"type":"Feature","id":"337539071","properties":{"josm":"n337539071","name":"Краковець","population":"1106","region":"Львівська область","koatuu":"4625855600"},"geometry":{"type":"Point","coordinates":[23.15403,49.96067]}},
{"type":"Feature","id":"337598560","properties":{"josm":"n337598560","name":"Леніна","population":"1083","region":"Луганська область","koatuu":"4422256400"},"geometry":{"type":"Point","coordinates":[39.15012,48.43494]}},
{"type":"Feature","id":"3073263369","properties":{"josm":"n3073263369","name":"Лісове","population":"1050","region":"Кіровоградська область","koatuu":"3520555500"},"geometry":{"type":"Point","coordinates":[32.33156,48.84298]}},
{"type":"Feature","id":"337561699","properties":{"josm":"n337561699","name":"Ірдинь","population":"1034","region":"Черкаська область","koatuu":"7124955300"},"geometry":{"type":"Point","coordinates":[31.66397,49.36329]}},
{"type":"Feature","id":"337587221","properties":{"josm":"n337587221","name":"Врубівка","population":"1030","region":"Луганська область","koatuu":"4423856200"},"geometry":{"type":"Point","coordinates":[38.37627,48.74599]}},
{"type":"Feature","id":"337543357","properties":{"josm":"n337543357","name":"Лозно-Олександрівка","population":"1000","region":"Луганська область","koatuu":"4420955700"},"geometry":{"type":"Point","coordinates":[38.74226,49.83742]}},
{"type":"Feature","id":"337546366","properties":{"josm":"n337546366","name":"Залізничне","population":"998","region":"Вінницька область","koatuu":"0510541000"},"geometry":{"type":"Point","coordinates":[28.7883,49.75021]}},
{"type":"Feature","id":"337580183","properties":{"josm":"n337580183","name":"Білогорівка","population":"976","region":"Луганська область","koatuu":"4423855300"},"geometry":{"type":"Point","coordinates":[38.25474,48.92006]}},
{"type":"Feature","id":"337556986","properties":{"josm":"n337556986","name":"Чорний Острів","population":"949","region":"Хмельницька область","koatuu":"6825055500"},"geometry":{"type":"Point","coordinates":[26.75608,49.50502]}},
{"type":"Feature","id":"337584206","properties":{"josm":"n337584206","name":"Вовчоярівка","population":"933","region":"Луганська область","koatuu":"4423855900"},"geometry":{"type":"Point","coordinates":[38.37902,48.82908]}},
{"type":"Feature","id":"337557355","properties":{"josm":"n337557355","name":"Війтівці","population":"922","region":"Хмельницька область","koatuu":"6820955300"},"geometry":{"type":"Point","coordinates":[26.44482,49.49327]}},
{"type":"Feature","id":"337597971","properties":{"josm":"n337597971","name":"Ломуватка","population":"920","region":"Луганська область","koatuu":"4410546200"},"geometry":{"type":"Point","coordinates":[38.56888,48.45451]}},
{"type":"Feature","id":"337600257","properties":{"josm":"n337600257","name":"Байрачки","population":"867","region":"Луганська область","koatuu":"4423655300"},"geometry":{"type":"Point","coordinates":[38.59119,48.38997]}},
{"type":"Feature","id":"337597680","properties":{"josm":"n337597680","name":"Балахівка","population":"861","region":"Кіровоградська область","koatuu":"3524955300"},"geometry":{"type":"Point","coordinates":[33.17596,48.46138]}},
{"type":"Feature","id":"337556565","properties":{"josm":"n337556565","name":"Нові Стрілища","population":"856","region":"Львівська область","koatuu":"4621555900"},"geometry":{"type":"Point","coordinates":[24.39914,49.51832]}},
{"type":"Feature","id":"337601316","properties":{"josm":"n337601316","name":"Центральний","population":"847","region":"Луганська область","koatuu":"4423657300"},"geometry":{"type":"Point","coordinates":[38.57293,48.34769]}},
{"type":"Feature","id":"337581733","properties":{"josm":"n337581733","name":"Малорязанцеве","population":"838","region":"Луганська область","koatuu":"4423857200"},"geometry":{"type":"Point","coordinates":[38.39893,48.88126]}},
{"type":"Feature","id":"337688655","properties":{"josm":"n337688655","name":"Нові Білярі","population":"834","region":"Одеська область","koatuu":"5122755400"},"geometry":{"type":"Point","coordinates":[31.00186,46.6354]}},
{"type":"Feature","id":"337598786","properties":{"josm":"n337598786","name":"Брагинівка","population":"676","region":"Дніпропетровська область","koatuu":"1223855300"},"geometry":{"type":"Point","coordinates":[36.49626,48.43341]}},
{"type":"Feature","id":"337549437","properties":{"josm":"n337549437","name":"Бірки","population":"657","region":"Харківська область","koatuu":"6324255300"},"geometry":{"type":"Point","coordinates":[36.05232,49.68361]}},
{"type":"Feature","id":"337605119","properties":{"josm":"n337605119","name":"Великий Лог","population":"638","region":"Луганська область","koatuu":"4421455300"},"geometry":{"type":"Point","coordinates":[39.55593,48.25848]}},
{"type":"Feature","id":"337603892","properties":{"josm":"n337603892","name":"Мирне","population":"396","region":"Луганська область","koatuu":"4421455700"},"geometry":{"type":"Point","coordinates":[39.65309,48.28766]}},
{"type":"Feature","id":"337678329","properties":{"josm":"n337678329","name":"Кар’єрне","population":"384","region":"Херсонська область","koatuu":"6520956000"},"geometry":{"type":"Point","coordinates":[33.21854,47.33803]}},
{"type":"Feature","id":"337584967","properties":{"josm":"n337584967","name":"Мирна Долина","population":"355","region":"Луганська область","koatuu":"4423857500"},"geometry":{"type":"Point","coordinates":[38.47755,48.80813]}},
{"type":"Feature","id":"337671123","properties":{"josm":"n337671123","name":"Гірницьке","population":"355","region":"Дніпропетровська область","koatuu":"1212145300"},"geometry":{"type":"Point","coordinates":[34.16008,47.72357]}},
{"type":"Feature","id":"337596919","properties":{"josm":"n337596919","name":"Ганнівка","population":"274","region":"Луганська область","koatuu":"4410545200"},"geometry":{"type":"Point","coordinates":[38.55068,48.48404]}},
{"type":"Feature","id":"337597216","properties":{"josm":"n337597216","name":"Глибокий","population":"221","region":"Луганська область","koatuu":"4410545900"},"geometry":{"type":"Point","coordinates":[38.5857,48.4734]}},
{"type":"Feature"}
]}
