{
"type": "FeatureCollection",
"errorDescr": "Border not found",
"features": [
{"type":"Feature","id":"337575116","properties":{"josm":"n337575116","name":"Комсомольск","population":"51800","region":"Полтавська область","koatuu":"5310200000"},"geometry":{"type":"Point","coordinates":[33.63309,49.01406]}},
{"type":"Feature","id":"337672630","properties":{"josm":"n337672630","name":"Орджонікідзе","population":"41894","region":"Дніпропетровська область","koatuu":"1212100000"},"geometry":{"type":"Point","coordinates":[34.11049,47.65653]}},
{"type":"Feature","id":"269665736","properties":{"josm":"n269665736","name":"Вараш","population":"41190","region":"Рівненська область","koatuu":"5610700000"},"geometry":{"type":"Point","coordinates":[25.84965,51.34846]}},
{"type":"Feature","id":"337670266","properties":{"josm":"n337670266","name":"Подільськ","population":"40668","region":"Одеська область","koatuu":"5111200000"},"geometry":{"type":"Point","coordinates":[29.52982,47.75779]}},
{"type":"Feature","id":"337692649","properties":{"josm":"n337692649","name":"Яни Капу","population":"30033","region":"Автономна Республіка Крим","koatuu":"0111300000"},"geometry":{"type":"Point","coordinates":[33.79795,45.95653]}},
{"type":"Feature","id":"256613819","properties":{"josm":"n256613819","name":"Залізне","population":"5720","region":"Донецька область","koatuu":"1411270300"},"geometry":{"type":"Point","coordinates":[37.89078,48.37173]}},
{"type":"Feature","id":"337521296","properties":{"josm":"n337521296","name":"Пулин","population":"5472","region":"Житомирська область","koatuu":"1825455100"},"geometry":{"type":"Point","coordinates":[28.27538,50.46776]}},
{"type":"Feature","id":"337674892","properties":{"josm":"n337674892","name":"Окни","population":"5399","region":"Одеська область","koatuu":"5123155100"},"geometry":{"type":"Point","coordinates":[29.45881,47.5399]}},
{"type":"Feature","id":"337518209","properties":{"josm":"n337518209","name":"Новобіличі","population":"4779","region":"Волинська область","koatuu":"0710745300"},"geometry":{"type":"Point","coordinates":[24.24717,50.6626]}},
{"type":"Feature","id":"337545417","properties":{"josm":"n337545417","name":"Скороходове","population":"3648","region":"Полтавська область","koatuu":"5325455300"},"geometry":{"type":"Point","coordinates":[35.07139,49.7725]}},
{"type":"Feature"}
]}
