{
"type": "FeatureCollection",
"errorDescr": "Border not found",
"features": [
{"type":"Feature","id":"26150422","properties":{"josm":"n26150422","name":"Kiev Київ","population":"2909697","region":"Київ","koatuu":"8000000000"},"geometry":{"type":"Point","coordinates":[30.52405,50.45011]}},
{"type":"Feature","id":"1685829423","properties":{"josm":"n1685829423","name":"Kharkiv Харків","population":"1447652","region":"Харківська область","koatuu":"6310100000"},"geometry":{"type":"Point","coordinates":[36.23039,49.99028]}},
{"type":"Feature","id":"26150437","properties":{"josm":"n26150437","name":"Odessa Одеса","population":"1008852","region":"Одеська область","koatuu":"5110100000"},"geometry":{"type":"Point","coordinates":[30.73256,46.48461]}},
{"type":"Feature","id":"26150791","properties":{"josm":"n26150791","name":"Lviv Львів","population":"728360","region":"Львівська область","koatuu":"4610100000"},"geometry":{"type":"Point","coordinates":[24.03159,49.84195]}},
{"type":"Feature","id":"253874196","properties":{"josm":"n253874196","name":"Luhansk Луганськ","population":"414509","region":"Луганська область","koatuu":"4410100000"},"geometry":{"type":"Point","coordinates":[39.31511,48.5687]}},
{"type":"Feature","id":"249748477","properties":{"josm":"n249748477","name":"Vinnytsia Вінниця","population":"373302","region":"Вінницька область","koatuu":"0510100000"},"geometry":{"type":"Point","coordinates":[28.46797,49.23202]}},
{"type":"Feature","id":"26150436","properties":{"josm":"n26150436","name":"Chernihiv Чернігів","population":"296836","region":"Чернігівська область","koatuu":"7410100000"},"geometry":{"type":"Point","coordinates":[31.29433,51.4941]}},
{"type":"Feature","id":"265057614","properties":{"josm":"n265057614","name":"Sumy Суми","population":"269444","region":"Сумська область","koatuu":"5910100000"},"geometry":{"type":"Point","coordinates":[34.7947,50.91331]}},
{"type":"Feature","id":"251223522","properties":{"josm":"n251223522","name":"Khmelnytskyi Хмельницький","population":"269308","region":"Хмельницька область","koatuu":"6810100000"},"geometry":{"type":"Point","coordinates":[26.97938,49.41964]}},
{"type":"Feature","id":"252098339","properties":{"josm":"n252098339","name":"Zhytomyr Житомир","population":"267610","region":"Житомирська область","koatuu":"1810100000"},"geometry":{"type":"Point","coordinates":[28.66923,50.25983]}},
{"type":"Feature","id":"428339505","properties":{"josm":"n428339505","name":"Chernivtsi Чернівці","population":"266650","region":"Чернівецька область","koatuu":"7310100000"},"geometry":{"type":"Point","coordinates":[25.93765,48.28647]}},
{"type":"Feature","id":"146541158","properties":{"josm":"n146541158","name":"Rivne Рівне","population":"245323","region":"Рівненська область","koatuu":"5610100000"},"geometry":{"type":"Point","coordinates":[26.25132,50.61962]}},
{"type":"Feature","id":"268459612","properties":{"josm":"n268459612","name":"Ivano-Frankivsk Івано-Франківськ","population":"230929","region":"Івано-Франківська область","koatuu":"2610100000"},"geometry":{"type":"Point","coordinates":[24.71032,48.92252]}},
{"type":"Feature","id":"146570870","properties":{"josm":"n146570870","name":"Lutsk Луцьк","population":"217502","region":"Волинська область","koatuu":"0710100000"},"geometry":{"type":"Point","coordinates":[25.32008,50.74507]}},
{"type":"Feature","id":"1643945522","properties":{"josm":"n1643945522","name":"Ternopil Тернопіль","population":"217326","region":"Тернопільська область","koatuu":"6110100000"},"geometry":{"type":"Point","coordinates":[25.59189,49.55577]}},
{"type":"Feature","id":"111353560","properties":{"josm":"n111353560","name":"Uzhhorod Ужгород","population":"114867","region":"Закарпатська область","koatuu":"2110100000"},"geometry":{"type":"Point","coordinates":[22.30213,48.62235]}},
{"type":"Feature","id":"337590198","properties":{"josm":"n337590198","name":"Станиця Луганська","population":"13744","region":"Луганська область","koatuu":"4424855100"},"geometry":{"type":"Point","coordinates":[39.49331,48.64513]}},
{"type":"Feature","id":"337592920","properties":{"josm":"n337592920","name":"Зимогір’я","population":"10148","region":"Луганська область","koatuu":"4424510300"},"geometry":{"type":"Point","coordinates":[38.92731,48.58566]}},
{"type":"Feature","id":"337588316","properties":{"josm":"n337588316","name":"Слов’яносербськ","population":"8065","region":"Луганська область","koatuu":"4424555100"},"geometry":{"type":"Point","coordinates":[38.98626,48.69466]}},
{"type":"Feature","id":"337584961","properties":{"josm":"n337584961","name":"Петропавлівка","population":"4981","region":"Луганська область","koatuu":"4424855400"},"geometry":{"type":"Point","coordinates":[39.26685,48.80813]}},
{"type":"Feature","id":"337589041","properties":{"josm":"n337589041","name":"Донецький","population":"3783","region":"Луганська область","koatuu":"4411045300"},"geometry":{"type":"Point","coordinates":[38.65446,48.70301]}},
{"type":"Feature","id":"337598517","properties":{"josm":"n337598517","name":"Южна Ломуватка","population":"3408","region":"Луганська область","koatuu":"4410546500"},"geometry":{"type":"Point","coordinates":[38.53206,48.43785]}},
{"type":"Feature","id":"337590283","properties":{"josm":"n337590283","name":"Фрунзе","population":"3321","region":"Луганська область","koatuu":"4424556200"},"geometry":{"type":"Point","coordinates":[38.76016,48.6694]}},
{"type":"Feature","id":"337587920","properties":{"josm":"n337587920","name":"Новотошківське","population":"2349","region":"Луганська область","koatuu":"4423857900"},"geometry":{"type":"Point","coordinates":[38.63157,48.7226]}},
{"type":"Feature","id":"337600321","properties":{"josm":"n337600321","name":"Комісарівка","population":"1785","region":"Луганська область","koatuu":"4423656100"},"geometry":{"type":"Point","coordinates":[38.53398,48.39074]}},
{"type":"Feature","id":"337592700","properties":{"josm":"n337592700","name":"Червоногвардійське","population":"1444","region":"Луганська область","koatuu":"4411045700"},"geometry":{"type":"Point","coordinates":[38.75303,48.59451]}},
{"type":"Feature","id":"337599976","properties":{"josm":"n337599976","name":"Вергулівка","population":"1321","region":"Луганська область","koatuu":"4410545300"},"geometry":{"type":"Point","coordinates":[38.52878,48.4008]}},
{"type":"Feature","id":"337587221","properties":{"josm":"n337587221","name":"Врубівка","population":"1030","region":"Луганська область","koatuu":"4423856200"},"geometry":{"type":"Point","coordinates":[38.38655,48.73887]}},
{"type":"Feature","id":"337597216","properties":{"josm":"n337597216","name":"Глибокий","population":"221","region":"Луганська область","koatuu":"4410545900"},"geometry":{"type":"Point","coordinates":[38.5857,48.4734]}},
{"type":"Feature"}
]}
