{
"type": "FeatureCollection",
"errorDescr": "Border not found",
"features": [
{"type":"Feature","id":"1685829423","properties":{"josm":"n1685829423","name":"Харків","population":"1447652","region":"Харківська область","koatuu":"6310100000"},"geometry":{"type":"Point","coordinates":[36.23039,49.99028]}},
{"type":"Feature","id":"27122612","properties":{"josm":"n27122612","name":"Запоріжжя","population":"772258","region":"Запорізька область","koatuu":"2310100000"},"geometry":{"type":"Point","coordinates":[35.11829,47.85079]}},
{"type":"Feature","id":"26150791","properties":{"josm":"n26150791","name":"Львів","population":"728360","region":"Львівська область","koatuu":"4610100000"},"geometry":{"type":"Point","coordinates":[24.03159,49.84195]}},
{"type":"Feature","id":"29980666","properties":{"josm":"n29980666","name":"Маріуполь","population":"453623","region":"Донецька область","koatuu":"1412300000"},"geometry":{"type":"Point","coordinates":[37.54994,47.09578]}},
{"type":"Feature","id":"251073791","properties":{"josm":"n251073791","name":"Севастополь","population":"416283","region":"Севастополь","koatuu":"8500000000"},"geometry":{"type":"Point","coordinates":[33.52208,44.60544]}},
{"type":"Feature","id":"256613930","properties":{"josm":"n256613930","name":"Макіївка","population":"358156","region":"Донецька область","koatuu":"1413500000"},"geometry":{"type":"Point","coordinates":[37.96351,48.04481]}},
{"type":"Feature","id":"252176252","properties":{"josm":"n252176252","name":"Сімферополь","population":"336430","region":"Автономна Республіка Крим","koatuu":"0110100000"},"geometry":{"type":"Point","coordinates":[34.10246,44.95214]}},
{"type":"Feature","id":"26150436","properties":{"josm":"n26150436","name":"Чернігів","population":"296836","region":"Чернігівська область","koatuu":"7410100000"},"geometry":{"type":"Point","coordinates":[31.29433,51.4941]}},
{"type":"Feature","id":"255466573","properties":{"josm":"n255466573","name":"Херсон","population":"294941","region":"Херсонська область","koatuu":"6510100000"},"geometry":{"type":"Point","coordinates":[32.61453,46.64018]}},
{"type":"Feature","id":"265056942","properties":{"josm":"n265056942","name":"Черкаси","population":"286037","region":"Черкаська область","koatuu":"7110100000"},"geometry":{"type":"Point","coordinates":[32.05878,49.44479]}},
{"type":"Feature","id":"265057614","properties":{"josm":"n265057614","name":"Суми","population":"269444","region":"Сумська область","koatuu":"5910100000"},"geometry":{"type":"Point","coordinates":[34.7947,50.91331]}},
{"type":"Feature","id":"1756064253","properties":{"josm":"n1756064253","name":"Кам’янське","population":"249600","region":"Дніпропетровська область","koatuu":"1210400000"},"geometry":{"type":"Point","coordinates":[34.62055,48.49971]}},
{"type":"Feature","id":"4126283179","properties":{"josm":"n4126283179","name":"Кропивницький","population":"234712","region":"Кіровоградська область","koatuu":"3510100000"},"geometry":{"type":"Point","coordinates":[32.26563,48.51058]}},
{"type":"Feature","id":"268459612","properties":{"josm":"n268459612","name":"Івано-Франківськ","population":"230929","region":"Івано-Франківська область","koatuu":"2610100000"},"geometry":{"type":"Point","coordinates":[24.71032,48.92252]}},
{"type":"Feature","id":"265058149","properties":{"josm":"n265058149","name":"Кременчук","population":"226400","region":"Полтавська область","koatuu":"5310400000"},"geometry":{"type":"Point","coordinates":[33.4325,49.07972]}},
{"type":"Feature","id":"146570870","properties":{"josm":"n146570870","name":"Луцьк","population":"217502","region":"Волинська область","koatuu":"0710100000"},"geometry":{"type":"Point","coordinates":[25.32008,50.74507]}},
{"type":"Feature","id":"1830695012","properties":{"josm":"n1830695012","name":"Керч","population":"148932","region":"Автономна Республіка Крим","koatuu":"0111200000"},"geometry":{"type":"Point","coordinates":[36.45386,45.3534]}},
{"type":"Feature","id":"265058407","properties":{"josm":"n265058407","name":"Нікополь","population":"119939","region":"Дніпропетровська область","koatuu":"1211600000"},"geometry":{"type":"Point","coordinates":[34.39173,47.56921]}},
{"type":"Feature","id":"258057686","properties":{"josm":"n258057686","name":"Бердянськ","population":"116450","region":"Запорізька область","koatuu":"2310400000"},"geometry":{"type":"Point","coordinates":[36.78937,46.76114]}},
{"type":"Feature","id":"253877159","properties":{"josm":"n253877159","name":"Алчевськ","population":"112013","region":"Луганська область","koatuu":"4411200000"},"geometry":{"type":"Point","coordinates":[38.80354,48.46933]}},
{"type":"Feature","id":"337579368","properties":{"josm":"n337579368","name":"Сєвєродонецьк","population":"110612","region":"Луганська область","koatuu":"4412900000"},"geometry":{"type":"Point","coordinates":[38.49756,48.94579]}},
{"type":"Feature","id":"27212295","properties":{"josm":"n27212295","name":"Євпаторія","population":"106698","region":"Автономна Республіка Крим","koatuu":"0110900000"},"geometry":{"type":"Point","coordinates":[33.36789,45.1908]}},
{"type":"Feature","id":"337582086","properties":{"josm":"n337582086","name":"Лисичанськ","population":"105682","region":"Луганська область","koatuu":"4411800000"},"geometry":{"type":"Point","coordinates":[38.44326,48.89438]}},
{"type":"Feature","id":"337510526","properties":{"josm":"n337510526","name":"Конотоп","population":"93254","region":"Сумська область","koatuu":"5910400000"},"geometry":{"type":"Point","coordinates":[33.20871,51.24058]}},
{"type":"Feature","id":"337658682","properties":{"josm":"n337658682","name":"Красний Луч","population":"84036","region":"Луганська область","koatuu":"4411600000"},"geometry":{"type":"Point","coordinates":[38.91989,48.13515]}},
{"type":"Feature","id":"337589760","properties":{"josm":"n337589760","name":"Олександрія","population":"83068","region":"Кіровоградська область","koatuu":"3510300000"},"geometry":{"type":"Point","coordinates":[33.11623,48.67596]}},
{"type":"Feature","id":"2135849341","properties":{"josm":"n2135849341","name":"Ровеньки","population":"81103","region":"Луганська область","koatuu":"4412300000"},"geometry":{"type":"Point","coordinates":[39.36803,48.0898]}},
{"type":"Feature","id":"337504305","properties":{"josm":"n337504305","name":"Шостка","population":"79611","region":"Сумська область","koatuu":"5911000000"},"geometry":{"type":"Point","coordinates":[33.47282,51.86432]}},
{"type":"Feature","id":"337593799","properties":{"josm":"n337593799","name":"Стаханов","population":"79010","region":"Луганська область","koatuu":"4413100000"},"geometry":{"type":"Point","coordinates":[38.64167,48.56231]}},
{"type":"Feature","id":"1830695013","properties":{"josm":"n1830695013","name":"Ялта","population":"77003","region":"Автономна Республіка Крим","koatuu":"0111900000"},"geometry":{"type":"Point","coordinates":[34.15869,44.49707]}},
{"type":"Feature","id":"337512379","properties":{"josm":"n337512379","name":"Ніжин","population":"74058","region":"Чернігівська область","koatuu":"7410400000"},"geometry":{"type":"Point","coordinates":[31.88063,51.04647]}},
{"type":"Feature","id":"337581295","properties":{"josm":"n337581295","name":"Лозова","population":"71500","region":"Харківська область","koatuu":"6311000000"},"geometry":{"type":"Point","coordinates":[36.31359,48.88916]}},
{"type":"Feature","id":"1830695011","properties":{"josm":"n1830695011","name":"Феодосія","population":"70043","region":"Автономна Республіка Крим","koatuu":"0111600000"},"geometry":{"type":"Point","coordinates":[35.37536,45.03367]}},
{"type":"Feature","id":"146651245","properties":{"josm":"n146651245","name":"Ковель","population":"68703","region":"Волинська область","koatuu":"0710400000"},"geometry":{"type":"Point","coordinates":[24.71666,51.20903]}},
{"type":"Feature","id":"260943265","properties":{"josm":"n260943265","name":"Червоноград","population":"68308","region":"Львівська область","koatuu":"4611800000"},"geometry":{"type":"Point","coordinates":[24.22879,50.38921]}},
{"type":"Feature","id":"337660247","properties":{"josm":"n337660247","name":"Свердловськ","population":"65868","region":"Луганська область","koatuu":"4412700000"},"geometry":{"type":"Point","coordinates":[39.64256,48.08113]}},
{"type":"Feature","id":"337576644","properties":{"josm":"n337576644","name":"Рубіжне","population":"60721","region":"Луганська область","koatuu":"4412500000"},"geometry":{"type":"Point","coordinates":[38.36679,49.02226]}},
{"type":"Feature","id":"337690843","properties":{"josm":"n337690843","name":"Чорноморськ","population":"59229","region":"Одеська область","koatuu":"5110800000"},"geometry":{"type":"Point","coordinates":[30.65347,46.30209]}},
{"type":"Feature","id":"259980476","properties":{"josm":"n259980476","name":"Нововолинськ","population":"57900","region":"Волинська область","koatuu":"0710700000"},"geometry":{"type":"Point","coordinates":[24.16484,50.72248]}},
{"type":"Feature","id":"337659186","properties":{"josm":"n337659186","name":"Антрацит","population":"55441","region":"Луганська область","koatuu":"4410300000"},"geometry":{"type":"Point","coordinates":[39.08864,48.11643]}},
{"type":"Feature","id":"337568004","properties":{"josm":"n337568004","name":"Ізюм","population":"51872","region":"Харківська область","koatuu":"6310400000"},"geometry":{"type":"Point","coordinates":[37.27841,49.19137]}},
{"type":"Feature","id":"337575116","properties":{"josm":"n337575116","name":"Горішні Плавні","population":"51800","region":"Полтавська область","koatuu":"5310200000"},"geometry":{"type":"Point","coordinates":[33.63309,49.01406]}},
{"type":"Feature","id":"738536340","properties":{"josm":"n738536340","name":"Білгород-Дністровський","population":"50296","region":"Одеська область","koatuu":"5110300000"},"geometry":{"type":"Point","coordinates":[30.34578,46.19098]}},
{"type":"Feature","id":"337672919","properties":{"josm":"n337672919","name":"Марганець","population":"48739","region":"Дніпропетровська область","koatuu":"1211300000"},"geometry":{"type":"Point","coordinates":[34.64919,47.64906]}},
{"type":"Feature","id":"337601052","properties":{"josm":"n337601052","name":"Жовті Води","population":"48620","region":"Дніпропетровська область","koatuu":"1210700000"},"geometry":{"type":"Point","coordinates":[33.49793,48.35271]}},
{"type":"Feature","id":"337596242","properties":{"josm":"n337596242","name":"Брянка","population":"48509","region":"Луганська область","koatuu":"4410500000"},"geometry":{"type":"Point","coordinates":[38.66432,48.50361]}},
{"type":"Feature","id":"337687341","properties":{"josm":"n337687341","name":"Нова Каховка","population":"48298","region":"Херсонська область","koatuu":"6510700000"},"geometry":{"type":"Point","coordinates":[33.37413,46.75493]}},
{"type":"Feature","id":"286421994","properties":{"josm":"n286421994","name":"Лубни","population":"47845","region":"Полтавська область","koatuu":"5310700000"},"geometry":{"type":"Point","coordinates":[33.00308,50.01182]}},
{"type":"Feature","id":"337574659","properties":{"josm":"n337574659","name":"Світловодськ","population":"47099","region":"Кіровоградська область","koatuu":"3510900000"},"geometry":{"type":"Point","coordinates":[33.20721,49.04537]}},
{"type":"Feature","id":"337603049","properties":{"josm":"n337603049","name":"Краснодон","population":"44840","region":"Луганська область","koatuu":"4411400000"},"geometry":{"type":"Point","coordinates":[39.72004,48.30757]}},
{"type":"Feature","id":"337672630","properties":{"josm":"n337672630","name":"Покров","population":"41894","region":"Дніпропетровська область","koatuu":"1212100000"},"geometry":{"type":"Point","coordinates":[34.11049,47.65653]}},
{"type":"Feature","id":"337668729","properties":{"josm":"n337668729","name":"Южноукраїнськ","population":"40206","region":"Миколаївська область","koatuu":"4810800000"},"geometry":{"type":"Point","coordinates":[31.16752,47.82837]}},
{"type":"Feature","id":"36507630","properties":{"josm":"n36507630","name":"Вишневе","population":"39094","region":"Київська область","koatuu":"3222410600"},"geometry":{"type":"Point","coordinates":[30.3679,50.39175]}},
{"type":"Feature","id":"337591570","properties":{"josm":"n337591570","name":"Первомайськ","population":"38801","region":"Луганська область","koatuu":"4412100000"},"geometry":{"type":"Point","coordinates":[38.53728,48.62524]}},
{"type":"Feature","id":"259984311","properties":{"josm":"n259984311","name":"Володимир-Волинський","population":"38800","region":"Волинська область","koatuu":"0710200000"},"geometry":{"type":"Point","coordinates":[24.31932,50.84747]}},
{"type":"Feature","id":"337527490","properties":{"josm":"n337527490","name":"Васильків","population":"37495","region":"Київська область","koatuu":"3210700000"},"geometry":{"type":"Point","coordinates":[30.32158,50.17387]}},
{"type":"Feature","id":"337686681","properties":{"josm":"n337686681","name":"Каховка","population":"37409","region":"Херсонська область","koatuu":"6510400000"},"geometry":{"type":"Point","coordinates":[33.48178,46.80546]}},
{"type":"Feature","id":"256579283","properties":{"josm":"n256579283","name":"Джанкой","population":"36665","region":"Автономна Республіка Крим","koatuu":"0110600000"},"geometry":{"type":"Point","coordinates":[34.38991,45.70938]}},
{"type":"Feature","id":"337505758","properties":{"josm":"n337505758","name":"Глухів","population":"35800","region":"Сумська область","koatuu":"5910300000"},"geometry":{"type":"Point","coordinates":[33.9093,51.67831]}},
{"type":"Feature","id":"36507632","properties":{"josm":"n36507632","name":"Боярка","population":"35558","region":"Київська область","koatuu":"3222410300"},"geometry":{"type":"Point","coordinates":[30.28476,50.33567]}},
{"type":"Feature","id":"337556659","properties":{"josm":"n337556659","name":"Самбір","population":"35054","region":"Львівська область","koatuu":"4610900000"},"geometry":{"type":"Point","coordinates":[23.1975,49.51833]}},
{"type":"Feature","id":"264282090","properties":{"josm":"n264282090","name":"Чугуїв","population":"32290","region":"Харківська область","koatuu":"6312000000"},"geometry":{"type":"Point","coordinates":[36.68982,49.83636]}},
{"type":"Feature","id":"337558289","properties":{"josm":"n337558289","name":"Балаклія","population":"32117","region":"Харківська область","koatuu":"6320210100"},"geometry":{"type":"Point","coordinates":[36.87869,49.46282]}},
{"type":"Feature","id":"337540194","properties":{"josm":"n337540194","name":"Новояворівськ","population":"30271","region":"Львівська область","koatuu":"4625810500"},"geometry":{"type":"Point","coordinates":[23.56612,49.93162]}},
{"type":"Feature","id":"337692649","properties":{"josm":"n337692649","name":"Красноперекопськ","population":"30033","region":"Автономна Республіка Крим","koatuu":"0111300000"},"geometry":{"type":"Point","coordinates":[33.79795,45.95653]}},
{"type":"Feature","id":"337591102","properties":{"josm":"n337591102","name":"Кіровськ","population":"29235","region":"Луганська область","koatuu":"4411000000"},"geometry":{"type":"Point","coordinates":[38.67254,48.63784]}},
{"type":"Feature","id":"254262743","properties":{"josm":"n254262743","name":"Трускавець","population":"29220","region":"Львівська область","koatuu":"4611500000"},"geometry":{"type":"Point","coordinates":[23.50645,49.27835]}},
{"type":"Feature","id":"254554018","properties":{"josm":"n254554018","name":"Алушта","population":"28919","region":"Автономна Республіка Крим","koatuu":"0110300000"},"geometry":{"type":"Point","coordinates":[34.40954,44.67711]}},
{"type":"Feature","id":"337509542","properties":{"josm":"n337509542","name":"Сарни","population":"28604","region":"Рівненська область","koatuu":"5625410100"},"geometry":{"type":"Point","coordinates":[26.62262,51.31782]}},
{"type":"Feature","id":"27122099","properties":{"josm":"n27122099","name":"Красноград","population":"27600","region":"Харківська область","koatuu":"6323310100"},"geometry":{"type":"Point","coordinates":[35.44597,49.37957]}},
{"type":"Feature","id":"292995540","properties":{"josm":"n292995540","name":"Бахчисарай","population":"26215","region":"Автономна Республіка Крим","koatuu":"0120410100"},"geometry":{"type":"Point","coordinates":[33.85348,44.7523]}},
{"type":"Feature","id":"337598450","properties":{"josm":"n337598450","name":"Перевальськ","population":"26132","region":"Луганська область","koatuu":"4423610100"},"geometry":{"type":"Point","coordinates":[38.79959,48.44009]}},
{"type":"Feature","id":"497690126","properties":{"josm":"n497690126","name":"Канів","population":"25843","region":"Черкаська область","koatuu":"7110300000"},"geometry":{"type":"Point","coordinates":[31.46108,49.7551]}},
{"type":"Feature","id":"255260767","properties":{"josm":"n255260767","name":"Коростишів","population":"25768","region":"Житомирська область","koatuu":"1822510100"},"geometry":{"type":"Point","coordinates":[29.03998,50.3242]}},
{"type":"Feature","id":"337584871","properties":{"josm":"n337584871","name":"Гайсин","population":"25711","region":"Вінницька область","koatuu":"0520810100"},"geometry":{"type":"Point","coordinates":[29.38939,48.81209]}},
{"type":"Feature","id":"337539733","properties":{"josm":"n337539733","name":"Люботин","population":"25700","region":"Харківська область","koatuu":"6311200000"},"geometry":{"type":"Point","coordinates":[35.91843,49.9435]}},
{"type":"Feature","id":"337658507","properties":{"josm":"n337658507","name":"Виноградів","population":"25481","region":"Закарпатська область","koatuu":"2121210100"},"geometry":{"type":"Point","coordinates":[23.03601,48.1404]}},
{"type":"Feature","id":"337688735","properties":{"josm":"n337688735","name":"Олешки","population":"25217","region":"Херсонська область","koatuu":"6525010100"},"geometry":{"type":"Point","coordinates":[32.72511,46.62495]}},
{"type":"Feature","id":"261704180","properties":{"josm":"n261704180","name":"Сокаль","population":"25145","region":"Львівська область","koatuu":"4624810100"},"geometry":{"type":"Point","coordinates":[24.28553,50.48153]}},
{"type":"Feature","id":"1685829433","properties":{"josm":"n1685829433","name":"Мерефа","population":"25135","region":"Харківська область","koatuu":"6325110700"},"geometry":{"type":"Point","coordinates":[36.06305,49.81821]}},
{"type":"Feature","id":"337520759","properties":{"josm":"n337520759","name":"Здолбунів","population":"24537","region":"Рівненська область","koatuu":"5622610100"},"geometry":{"type":"Point","coordinates":[26.24311,50.51899]}},
{"type":"Feature","id":"337507300","properties":{"josm":"n337507300","name":"Славутич","population":"24492","region":"Київська область","koatuu":"3211500000"},"geometry":{"type":"Point","coordinates":[30.75623,51.52014]}},
{"type":"Feature","id":"253006651","properties":{"josm":"n253006651","name":"Знам’янка","population":"24274","region":"Кіровоградська область","koatuu":"3510600000"},"geometry":{"type":"Point","coordinates":[32.66595,48.71996]}},
{"type":"Feature","id":"337697542","properties":{"josm":"n337697542","name":"Саки","population":"24156","region":"Автономна Республіка Крим","koatuu":"0111400000"},"geometry":{"type":"Point","coordinates":[33.60175,45.13109]}},
{"type":"Feature","id":"337589660","properties":{"josm":"n337589660","name":"Ладижин","population":"24033","region":"Вінницька область","koatuu":"0510600000"},"geometry":{"type":"Point","coordinates":[29.25676,48.68105]}},
{"type":"Feature","id":"1429712455","properties":{"josm":"n1429712455","name":"Золочів","population":"23900","region":"Львівська область","koatuu":"4621810100"},"geometry":{"type":"Point","coordinates":[24.89889,49.80565]}},
{"type":"Feature","id":"313246733","properties":{"josm":"n313246733","name":"Броди","population":"23752","region":"Львівська область","koatuu":"4620310100"},"geometry":{"type":"Point","coordinates":[25.14379,50.0833]}},
{"type":"Feature","id":"337507057","properties":{"josm":"n337507057","name":"Кролевець","population":"23685","region":"Сумська область","koatuu":"5922610100"},"geometry":{"type":"Point","coordinates":[33.3876,51.55487]}},
{"type":"Feature","id":"266318137","properties":{"josm":"n266318137","name":"Балаклава","population":"22620","region":"Севастополь","koatuu":""},"geometry":{"type":"Point","coordinates":[33.60026,44.50929]}},
{"type":"Feature","id":"337692066","properties":{"josm":"n337692066","name":"Армянськ","population":"22530","region":"Автономна Республіка Крим","koatuu":"0111500000"},"geometry":{"type":"Point","coordinates":[33.69041,46.11326]}},
{"type":"Feature","id":"337591366","properties":{"josm":"n337591366","name":"Попасна","population":"22211","region":"Луганська область","koatuu":"4423810100"},"geometry":{"type":"Point","coordinates":[38.36632,48.62995]}},
{"type":"Feature","id":"664074031","properties":{"josm":"n664074031","name":"Полонне","population":"21999","region":"Хмельницька область","koatuu":"6823610100"},"geometry":{"type":"Point","coordinates":[27.50906,50.119]}},
{"type":"Feature","id":"312273784","properties":{"josm":"n312273784","name":"Надвірна","population":"21930","region":"Івано-Франківська область","koatuu":"2624010100"},"geometry":{"type":"Point","coordinates":[24.5684,48.63359]}},
{"type":"Feature","id":"312247291","properties":{"josm":"n312247291","name":"Кременець","population":"21624","region":"Тернопільська область","koatuu":"6110700000"},"geometry":{"type":"Point","coordinates":[25.72588,50.09623]}},
{"type":"Feature","id":"337521060","properties":{"josm":"n337521060","name":"Тростянець","population":"21583","region":"Сумська область","koatuu":"5925010100"},"geometry":{"type":"Point","coordinates":[34.96467,50.48046]}},
{"type":"Feature","id":"337601344","properties":{"josm":"n337601344","name":"Суходільськ","population":"21324","region":"Луганська область","koatuu":"4411470700"},"geometry":{"type":"Point","coordinates":[39.72484,48.35323]}},
{"type":"Feature","id":"337551732","properties":{"josm":"n337551732","name":"Ківшарівка","population":"20729","region":"Харківська область","koatuu":"6310745400"},"geometry":{"type":"Point","coordinates":[37.68408,49.62952]}},
{"type":"Feature","id":"337525267","properties":{"josm":"n337525267","name":"Яготин","population":"20569","region":"Київська область","koatuu":"3225510100"},"geometry":{"type":"Point","coordinates":[31.76349,50.27589]}},
{"type":"Feature","id":"337691804","properties":{"josm":"n337691804","name":"Генічеськ","population":"20487","region":"Херсонська область","koatuu":"6522110100"},"geometry":{"type":"Point","coordinates":[34.80783,46.17482]}},
{"type":"Feature","id":"312269689","properties":{"josm":"n312269689","name":"Долина","population":"20453","region":"Івано-Франківська область","koatuu":"2622010100"},"geometry":{"type":"Point","coordinates":[23.98042,48.97358]}},
{"type":"Feature","id":"337574587","properties":{"josm":"n337574587","name":"Кремінна","population":"20137","region":"Луганська область","koatuu":"4421610100"},"geometry":{"type":"Point","coordinates":[38.21788,49.04628]}},
{"type":"Feature","id":"313201266","properties":{"josm":"n313201266","name":"Волочиськ","population":"19723","region":"Хмельницька область","koatuu":"6820910100"},"geometry":{"type":"Point","coordinates":[26.2125,49.53571]}},
{"type":"Feature","id":"337677420","properties":{"josm":"n337677420","name":"Дніпрорудне","population":"19720","region":"Запорізька область","koatuu":"2320910400"},"geometry":{"type":"Point","coordinates":[35.00276,47.38978]}},
{"type":"Feature","id":"27121092","properties":{"josm":"n27121092","name":"Богодухів","population":"19365","region":"Харківська область","koatuu":"6320810100"},"geometry":{"type":"Point","coordinates":[35.52173,50.16026]}},
{"type":"Feature","id":"337558381","properties":{"josm":"n337558381","name":"Калинівка","population":"19335","region":"Вінницька область","koatuu":"0521610100"},"geometry":{"type":"Point","coordinates":[28.52017,49.45976]}},
{"type":"Feature","id":"337659199","properties":{"josm":"n337659199","name":"Долинська","population":"19319","region":"Кіровоградська область","koatuu":"3521910100"},"geometry":{"type":"Point","coordinates":[32.76363,48.11634]}},
{"type":"Feature","id":"256614257","properties":{"josm":"n256614257","name":"Амвросіївка","population":"19238","region":"Донецька область","koatuu":"1420610100"},"geometry":{"type":"Point","coordinates":[38.47983,47.79528]}},
{"type":"Feature","id":"337511281","properties":{"josm":"n337511281","name":"Білопілля","population":"19200","region":"Сумська область","koatuu":"5920610100"},"geometry":{"type":"Point","coordinates":[34.3122,51.14604]}},
{"type":"Feature","id":"337692021","properties":{"josm":"n337692021","name":"Скадовськ","population":"19073","region":"Херсонська область","koatuu":"6524710100"},"geometry":{"type":"Point","coordinates":[32.91034,46.12039]}},
{"type":"Feature","id":"337598913","properties":{"josm":"n337598913","name":"П’ятихатки","population":"18981","region":"Дніпропетровська область","koatuu":"1224510100"},"geometry":{"type":"Point","coordinates":[33.70166,48.41243]}},
{"type":"Feature","id":"337511007","properties":{"josm":"n337511007","name":"Бахмач","population":"18798","region":"Чернігівська область","koatuu":"7420310100"},"geometry":{"type":"Point","coordinates":[32.81444,51.18015]}},
{"type":"Feature","id":"1419442319","properties":{"josm":"n1419442319","name":"Сватове","population":"18417","region":"Луганська область","koatuu":"4424010100"},"geometry":{"type":"Point","coordinates":[38.15513,49.41506]}},
{"type":"Feature","id":"1628093208","properties":{"josm":"n1628093208","name":"Корсунь-Шевченківський","population":"18266","region":"Черкаська область","koatuu":"7122510100"},"geometry":{"type":"Point","coordinates":[31.25567,49.41804]}},
{"type":"Feature","id":"337573399","properties":{"josm":"n337573399","name":"Звенигородка","population":"18219","region":"Черкаська область","koatuu":"7121210100"},"geometry":{"type":"Point","coordinates":[30.96668,49.07524]}},
{"type":"Feature","id":"312233653","properties":{"josm":"n312233653","name":"Бережани","population":"18116","region":"Тернопільська область","koatuu":"6110500000"},"geometry":{"type":"Point","coordinates":[24.93781,49.44261]}},
{"type":"Feature","id":"337576193","properties":{"josm":"n337576193","name":"Шпола","population":"18112","region":"Черкаська область","koatuu":"7125710100"},"geometry":{"type":"Point","coordinates":[31.39321,49.01317]}},
{"type":"Feature","id":"337599881","properties":{"josm":"n337599881","name":"Лутугине","population":"18107","region":"Луганська область","koatuu":"4422210100"},"geometry":{"type":"Point","coordinates":[39.19813,48.40083]}},
{"type":"Feature","id":"337547206","properties":{"josm":"n337547206","name":"Сквира","population":"18000","region":"Київська область","koatuu":"3224010100"},"geometry":{"type":"Point","coordinates":[29.66267,49.73369]}},
{"type":"Feature","id":"337602583","properties":{"josm":"n337602583","name":"Новоукраїнка","population":"17945","region":"Кіровоградська область","koatuu":"3524010100"},"geometry":{"type":"Point","coordinates":[31.52205,48.32506]}},
{"type":"Feature","id":"337558295","properties":{"josm":"n337558295","name":"Карлівка","population":"17849","region":"Полтавська область","koatuu":"5321610100"},"geometry":{"type":"Point","coordinates":[35.11262,49.45912]}},
{"type":"Feature","id":"337575997","properties":{"josm":"n337575997","name":"Ватутіне","population":"17805","region":"Черкаська область","koatuu":"7110200000"},"geometry":{"type":"Point","coordinates":[31.06185,49.01725]}},
{"type":"Feature","id":"337538934","properties":{"josm":"n337538934","name":"Пісочин","population":"17801","region":"Харківська область","koatuu":"6325157900"},"geometry":{"type":"Point","coordinates":[36.12393,49.96229]}},
{"type":"Feature","id":"337593586","properties":{"josm":"n337593586","name":"Підгородне","population":"17778","region":"Дніпропетровська область","koatuu":"1221411000"},"geometry":{"type":"Point","coordinates":[35.10146,48.56815]}},
{"type":"Feature","id":"337569742","properties":{"josm":"n337569742","name":"Кобеляки","population":"17350","region":"Полтавська область","koatuu":"5321810100"},"geometry":{"type":"Point","coordinates":[34.20028,49.14333]}},
{"type":"Feature","id":"2125331780","properties":{"josm":"n2125331780","name":"Зміїв","population":"16976","region":"Харківська область","koatuu":"6321710100"},"geometry":{"type":"Point","coordinates":[36.36245,49.70293]}},
{"type":"Feature","id":"313201927","properties":{"josm":"n313201927","name":"Городок","population":"16885","region":"Хмельницька область","koatuu":"6821210100"},"geometry":{"type":"Point","coordinates":[26.58651,49.16521]}},
{"type":"Feature","id":"337594479","properties":{"josm":"n337594479","name":"Свалява","population":"16871","region":"Закарпатська область","koatuu":"2124010100"},"geometry":{"type":"Point","coordinates":[22.98955,48.54607]}},
{"type":"Feature","id":"337555159","properties":{"josm":"n337555159","name":"Богуслав","population":"16810","region":"Київська область","koatuu":"3220610100"},"geometry":{"type":"Point","coordinates":[30.8733,49.54765]}},
{"type":"Feature","id":"337593968","properties":{"josm":"n337593968","name":"Ювілейне","population":"16723","region":"Луганська область","koatuu":"4410165900"},"geometry":{"type":"Point","coordinates":[39.1786,48.55389]}},
{"type":"Feature","id":"313426755","properties":{"josm":"n313426755","name":"Овруч","population":"16681","region":"Житомирська область","koatuu":"1824210100"},"geometry":{"type":"Point","coordinates":[28.80267,51.32598]}},
{"type":"Feature","id":"337590592","properties":{"josm":"n337590592","name":"Верхньодніпровськ","population":"16680","region":"Дніпропетровська область","koatuu":"1221010100"},"geometry":{"type":"Point","coordinates":[34.33478,48.65419]}},
{"type":"Feature","id":"337526122","properties":{"josm":"n337526122","name":"Пирятин","population":"16600","region":"Полтавська область","koatuu":"5323810100"},"geometry":{"type":"Point","coordinates":[32.50111,50.23611]}},
{"type":"Feature","id":"337573492","properties":{"josm":"n337573492","name":"Бар","population":"16500","region":"Вінницька область","koatuu":"0520210100"},"geometry":{"type":"Point","coordinates":[27.67314,49.07281]}},
{"type":"Feature","id":"337509379","properties":{"josm":"n337509379","name":"Путивль","population":"16361","region":"Сумська область","koatuu":"5923810100"},"geometry":{"type":"Point","coordinates":[33.87155,51.33598]}},
{"type":"Feature","id":"313203599","properties":{"josm":"n313203599","name":"Дунаївці","population":"16298","region":"Хмельницька область","koatuu":"6821810100"},"geometry":{"type":"Point","coordinates":[26.85914,48.88819]}},
{"type":"Feature","id":"337665263","properties":{"josm":"n337665263","name":"Вільнянськ","population":"15901","region":"Запорізька область","koatuu":"2321510100"},"geometry":{"type":"Point","coordinates":[35.43159,47.9433]}},
{"type":"Feature","id":"261709042","properties":{"josm":"n261709042","name":"Городок","population":"15825","region":"Львівська область","koatuu":"4620910100"},"geometry":{"type":"Point","coordinates":[23.64793,49.78318]}},
{"type":"Feature","id":"337553635","properties":{"josm":"n337553635","name":"Слобожанське","population":"15825","region":"Харківська область","koatuu":"6321755600"},"geometry":{"type":"Point","coordinates":[36.52422,49.59899]}},
{"type":"Feature","id":"1781546544","properties":{"josm":"n1781546544","name":"Новий Буг","population":"15686","region":"Миколаївська область","koatuu":"4824510100"},"geometry":{"type":"Point","coordinates":[32.51066,47.69338]}},
{"type":"Feature","id":"337589863","properties":{"josm":"n337589863","name":"Тульчин","population":"15631","region":"Вінницька область","koatuu":"0524310100"},"geometry":{"type":"Point","coordinates":[28.85695,48.67305]}},
{"type":"Feature","id":"337674434","properties":{"josm":"n337674434","name":"Оріхів","population":"15544","region":"Запорізька область","koatuu":"2323910100"},"geometry":{"type":"Point","coordinates":[35.77899,47.56919]}},
{"type":"Feature","id":"312263993","properties":{"josm":"n312263993","name":"Бурштин","population":"15348","region":"Івано-Франківська область","koatuu":"2610300000"},"geometry":{"type":"Point","coordinates":[24.63388,49.25166]}},
{"type":"Feature","id":"337528474","properties":{"josm":"n337528474","name":"Українка","population":"15338","region":"Київська область","koatuu":"3223110500"},"geometry":{"type":"Point","coordinates":[30.74207,50.15372]}},
{"type":"Feature","id":"2449053011","properties":{"josm":"n2449053011","name":"Гайворон","population":"15335","region":"Кіровоградська область","koatuu":"3521110100"},"geometry":{"type":"Point","coordinates":[29.86753,48.3365]}},
{"type":"Feature","id":"321657923","properties":{"josm":"n321657923","name":"Судак","population":"15300","region":"Автономна Республіка Крим","koatuu":"0111700000"},"geometry":{"type":"Point","coordinates":[34.9711,44.84884]}},
{"type":"Feature","id":"316186974","properties":{"josm":"n316186974","name":"Рахів","population":"15137","region":"Закарпатська область","koatuu":"2123610100"},"geometry":{"type":"Point","coordinates":[24.20571,48.05568]}},
{"type":"Feature","id":"337520861","properties":{"josm":"n337520861","name":"Коцюбинське","population":"15038","region":"Київська область","koatuu":"3210946200"},"geometry":{"type":"Point","coordinates":[30.33379,50.49047]}},
{"type":"Feature","id":"337520736","properties":{"josm":"n337520736","name":"Радомишль","population":"15003","region":"Житомирська область","koatuu":"1825010100"},"geometry":{"type":"Point","coordinates":[29.24252,50.50175]}},
{"type":"Feature","id":"337588570","properties":{"josm":"n337588570","name":"Золоте","population":"14974","region":"Луганська область","koatuu":"4423810800"},"geometry":{"type":"Point","coordinates":[38.51216,48.69011]}},
{"type":"Feature","id":"337515438","properties":{"josm":"n337515438","name":"Ківерці","population":"14916","region":"Волинська область","koatuu":"0721810100"},"geometry":{"type":"Point","coordinates":[25.45653,50.83123]}},
{"type":"Feature","id":"337697628","properties":{"josm":"n337697628","name":"Приморський","population":"14860","region":"Автономна Республіка Крим","koatuu":"0111646000"},"geometry":{"type":"Point","coordinates":[35.48156,45.11914]}},
{"type":"Feature","id":"337556154","properties":{"josm":"n337556154","name":"Миколаїв","population":"14824","region":"Львівська область","koatuu":"4623010100"},"geometry":{"type":"Point","coordinates":[23.97882,49.52537]}},
{"type":"Feature","id":"337505025","properties":{"josm":"n337505025","name":"Корюківка","population":"14805","region":"Чернігівська область","koatuu":"7422410100"},"geometry":{"type":"Point","coordinates":[32.2514,51.77444]}},
{"type":"Feature","id":"1734381328","properties":{"josm":"n1734381328","name":"Гуляйполе","population":"14556","region":"Запорізька область","koatuu":"2321810100"},"geometry":{"type":"Point","coordinates":[36.26568,47.66554]}},
{"type":"Feature","id":"337672588","properties":{"josm":"n337672588","name":"Апостолове","population":"14513","region":"Дніпропетровська область","koatuu":"1220310100"},"geometry":{"type":"Point","coordinates":[33.70853,47.66138]}},
{"type":"Feature","id":"285727177","properties":{"josm":"n285727177","name":"Сторожинець","population":"14508","region":"Чернівецька область","koatuu":"7324510100"},"geometry":{"type":"Point","coordinates":[25.72082,48.16302]}},
{"type":"Feature","id":"337564052","properties":{"josm":"n337564052","name":"Городище","population":"14480","region":"Черкаська область","koatuu":"7120310100"},"geometry":{"type":"Point","coordinates":[31.4445,49.29066]}},
{"type":"Feature","id":"337573288","properties":{"josm":"n337573288","name":"Чигирин","population":"14440","region":"Черкаська область","koatuu":"7125410100"},"geometry":{"type":"Point","coordinates":[32.66715,49.07627]}},
{"type":"Feature","id":"337581315","properties":{"josm":"n337581315","name":"Тальне","population":"14420","region":"Черкаська область","koatuu":"7124010100"},"geometry":{"type":"Point","coordinates":[30.69741,48.88851]}},
{"type":"Feature","id":"313202432","properties":{"josm":"n313202432","name":"Деражня","population":"14381","region":"Хмельницька область","koatuu":"6821510100"},"geometry":{"type":"Point","coordinates":[27.43271,49.26883]}},
{"type":"Feature","id":"337519314","properties":{"josm":"n337519314","name":"Гостомель","population":"14268","region":"Київська область","koatuu":"3210945900"},"geometry":{"type":"Point","coordinates":[30.25909,50.58826]}},
{"type":"Feature","id":"330171451","properties":{"josm":"n330171451","name":"Носівка","population":"14185","region":"Чернігівська область","koatuu":"7423810100"},"geometry":{"type":"Point","coordinates":[31.58123,50.93777]}},
{"type":"Feature","id":"337676690","properties":{"josm":"n337676690","name":"Василівка","population":"14134","region":"Запорізька область","koatuu":"2320910100"},"geometry":{"type":"Point","coordinates":[35.2803,47.44319]}},
{"type":"Feature","id":"1637465428","properties":{"josm":"n1637465428","name":"Зеленодольськ","population":"14134","region":"Дніпропетровська область","koatuu":"1220310300"},"geometry":{"type":"Point","coordinates":[33.64746,47.56681]}},
{"type":"Feature","id":"337503361","properties":{"josm":"n337503361","name":"Новгород-Сіверський","population":"14025","region":"Чернігівська область","koatuu":"7410500000"},"geometry":{"type":"Point","coordinates":[33.27799,52.00426]}},
{"type":"Feature","id":"300906140","properties":{"josm":"n300906140","name":"Збараж","population":"13915","region":"Тернопільська область","koatuu":"6122410100"},"geometry":{"type":"Point","coordinates":[25.77685,49.66074]}},
{"type":"Feature","id":"312255547","properties":{"josm":"n312255547","name":"Теребовля","population":"13769","region":"Тернопільська область","koatuu":"6125010100"},"geometry":{"type":"Point","coordinates":[25.69249,49.29607]}},
{"type":"Feature","id":"337590198","properties":{"josm":"n337590198","name":"Станиця Луганська","population":"13744","region":"Луганська область","koatuu":"4424855100"},"geometry":{"type":"Point","coordinates":[39.49331,48.64513]}},
{"type":"Feature","id":"1819209275","properties":{"josm":"n1819209275","name":"Кагарлик","population":"13682","region":"Київська область","koatuu":"3222210100"},"geometry":{"type":"Point","coordinates":[30.82268,49.86507]}},
{"type":"Feature","id":"337675581","properties":{"josm":"n337675581","name":"Кам’янка-Дніпровська","population":"13653","region":"Запорізька область","koatuu":"2322410100"},"geometry":{"type":"Point","coordinates":[34.41091,47.49009]}},
{"type":"Feature","id":"337577137","properties":{"josm":"n337577137","name":"Монастирище","population":"13600","region":"Черкаська область","koatuu":"7123410100"},"geometry":{"type":"Point","coordinates":[29.79977,48.99472]}},
{"type":"Feature","id":"337548059","properties":{"josm":"n337548059","name":"Нова Водолага","population":"13538","region":"Харківська область","koatuu":"6324255100"},"geometry":{"type":"Point","coordinates":[35.86016,49.71812]}},
{"type":"Feature","id":"337603600","properties":{"josm":"n337603600","name":"Петровське","population":"13500","region":"Луганська область","koatuu":"4411670900"},"geometry":{"type":"Point","coordinates":[38.86619,48.29418]}},
{"type":"Feature","id":"337686273","properties":{"josm":"n337686273","name":"Берислав","population":"13457","region":"Херсонська область","koatuu":"6520610100"},"geometry":{"type":"Point","coordinates":[33.41674,46.83577]}},
{"type":"Feature","id":"260954473","properties":{"josm":"n260954473","name":"Жовква","population":"13455","region":"Львівська область","koatuu":"4622710100"},"geometry":{"type":"Point","coordinates":[23.97119,50.05613]}},
{"type":"Feature","id":"337677427","properties":{"josm":"n337677427","name":"Ширяєве","population":"13455","region":"Одеська область","koatuu":"5125455100"},"geometry":{"type":"Point","coordinates":[30.18952,47.38435]}},
{"type":"Feature","id":"337683039","properties":{"josm":"n337683039","name":"Снігурівка","population":"13454","region":"Миколаївська область","koatuu":"4825710100"},"geometry":{"type":"Point","coordinates":[32.79764,47.07181]}},
{"type":"Feature","id":"337514044","properties":{"josm":"n337514044","name":"Рожище","population":"13441","region":"Волинська область","koatuu":"0724510100"},"geometry":{"type":"Point","coordinates":[25.27156,50.91635]}},
{"type":"Feature","id":"1186506546","properties":{"josm":"n1186506546","name":"Березне","population":"13390","region":"Рівненська область","koatuu":"5620410100"},"geometry":{"type":"Point","coordinates":[26.75245,51.00357]}},
{"type":"Feature","id":"337561478","properties":{"josm":"n337561478","name":"Тетіїв","population":"13235","region":"Київська область","koatuu":"3224610100"},"geometry":{"type":"Point","coordinates":[29.67711,49.36862]}},
{"type":"Feature","id":"337600821","properties":{"josm":"n337600821","name":"Бершадь","population":"13223","region":"Вінницька область","koatuu":"0520410100"},"geometry":{"type":"Point","coordinates":[29.51889,48.36594]}},
{"type":"Feature","id":"337538180","properties":{"josm":"n337538180","name":"Солоницівка","population":"13153","region":"Харківська область","koatuu":"6322057600"},"geometry":{"type":"Point","coordinates":[36.06811,49.98505]}},
{"type":"Feature","id":"3409309160","properties":{"josm":"n3409309160","name":"Щастя","population":"13105","region":"Луганська область","koatuu":"4423110100"},"geometry":{"type":"Point","coordinates":[39.23541,48.7412]}},
{"type":"Feature","id":"295809953","properties":{"josm":"n295809953","name":"Бородянка","population":"12980","region":"Київська область","koatuu":"3221055100"},"geometry":{"type":"Point","coordinates":[29.92558,50.64657]}},
{"type":"Feature","id":"337574832","properties":{"josm":"n337574832","name":"Кам’янка","population":"12956","region":"Черкаська область","koatuu":"7121810100"},"geometry":{"type":"Point","coordinates":[32.10087,49.04012]}},
{"type":"Feature","id":"337539972","properties":{"josm":"n337539972","name":"Яворів","population":"12948","region":"Львівська область","koatuu":"4625810100"},"geometry":{"type":"Point","coordinates":[23.38744,49.94168]}},
{"type":"Feature","id":"337561146","properties":{"josm":"n337561146","name":"Глобине","population":"12801","region":"Полтавська область","koatuu":"5320610100"},"geometry":{"type":"Point","coordinates":[33.25073,49.39205]}},
{"type":"Feature","id":"337688220","properties":{"josm":"n337688220","name":"Антонівка","population":"12790","region":"Херсонська область","koatuu":"6510165300"},"geometry":{"type":"Point","coordinates":[32.72306,46.6782]}},
{"type":"Feature","id":"2758288894","properties":{"josm":"n2758288894","name":"Гвардійське","population":"12660","region":"Автономна Республіка Крим","koatuu":"0124755300"},"geometry":{"type":"Point","coordinates":[34.0239,45.11573]}},
{"type":"Feature","id":"337679535","properties":{"josm":"n337679535","name":"Михайлівка","population":"12626","region":"Запорізька область","koatuu":"2323355100"},"geometry":{"type":"Point","coordinates":[35.22157,47.26575]}},
{"type":"Feature","id":"337572390","properties":{"josm":"n337572390","name":"Гнівань","population":"12592","region":"Вінницька область","koatuu":"0524510500"},"geometry":{"type":"Point","coordinates":[28.34962,49.09372]}},
{"type":"Feature","id":"312235616","properties":{"josm":"n312235616","name":"Бучач","population":"12514","region":"Тернопільська область","koatuu":"6121210100"},"geometry":{"type":"Point","coordinates":[25.38997,49.06305]}},
{"type":"Feature","id":"337584608","properties":{"josm":"n337584608","name":"Перегінське","population":"12486","region":"Івано-Франківська область","koatuu":"2624855800"},"geometry":{"type":"Point","coordinates":[24.19386,48.81155]}},
{"type":"Feature","id":"337679039","properties":{"josm":"n337679039","name":"Нова Одеса","population":"12410","region":"Миколаївська область","koatuu":"4824810100"},"geometry":{"type":"Point","coordinates":[31.785,47.30388]}},
{"type":"Feature","id":"337523758","properties":{"josm":"n337523758","name":"Лохвиця","population":"12307","region":"Полтавська область","koatuu":"5322610100"},"geometry":{"type":"Point","coordinates":[33.26697,50.35692]}},
{"type":"Feature","id":"337535598","properties":{"josm":"n337535598","name":"Котельва","population":"12300","region":"Полтавська область","koatuu":"5322255100"},"geometry":{"type":"Point","coordinates":[34.75014,50.06261]}},
{"type":"Feature","id":"337658326","properties":{"josm":"n337658326","name":"Вахрушеве","population":"12197","region":"Луганська область","koatuu":"4411670300"},"geometry":{"type":"Point","coordinates":[38.81821,48.14999]}},
{"type":"Feature","id":"337687511","properties":{"josm":"n337687511","name":"Приморськ","population":"12183","region":"Запорізька область","koatuu":"2324810100"},"geometry":{"type":"Point","coordinates":[36.34722,46.73431]}},
{"type":"Feature","id":"337543666","properties":{"josm":"n337543666","name":"Узин","population":"12166","region":"Київська область","koatuu":"3220410500"},"geometry":{"type":"Point","coordinates":[30.41972,49.82847]}},
{"type":"Feature","id":"337525063","properties":{"josm":"n337525063","name":"Баранівка","population":"12128","region":"Житомирська область","koatuu":"1820610100"},"geometry":{"type":"Point","coordinates":[27.66666,50.29369]}},
{"type":"Feature","id":"337688013","properties":{"josm":"n337688013","name":"Якимівка","population":"12001","region":"Запорізька область","koatuu":"2320355100"},"geometry":{"type":"Point","coordinates":[35.15522,46.69636]}},
{"type":"Feature","id":"337551131","properties":{"josm":"n337551131","name":"Миронівка","population":"11999","region":"Київська область","koatuu":"3222910100"},"geometry":{"type":"Point","coordinates":[30.9823,49.65829]}},
{"type":"Feature","id":"337699713","properties":{"josm":"n337699713","name":"Інкерман","population":"11918","region":"Севастополь","koatuu":"8536310300"},"geometry":{"type":"Point","coordinates":[33.60433,44.6181]}},
{"type":"Feature","id":"337655981","properties":{"josm":"n337655981","name":"Васильківка","population":"11885","region":"Дніпропетровська область","koatuu":"1220755100"},"geometry":{"type":"Point","coordinates":[36.03035,48.21041]}},
{"type":"Feature","id":"337578443","properties":{"josm":"n337578443","name":"Немирів","population":"11829","region":"Вінницька область","koatuu":"0523010100"},"geometry":{"type":"Point","coordinates":[28.84301,48.9654]}},
{"type":"Feature","id":"337514854","properties":{"josm":"n337514854","name":"Ічня","population":"11781","region":"Чернігівська область","koatuu":"7421710100"},"geometry":{"type":"Point","coordinates":[32.39101,50.86234]}},
{"type":"Feature","id":"337506245","properties":{"josm":"n337506245","name":"Камінь-Каширський","population":"11756","region":"Волинська область","koatuu":"0721410100"},"geometry":{"type":"Point","coordinates":[24.96136,51.62712]}},
{"type":"Feature","id":"337585583","properties":{"josm":"n337585583","name":"Новомиргород","population":"11677","region":"Кіровоградська область","koatuu":"3523810100"},"geometry":{"type":"Point","coordinates":[31.65238,48.79697]}},
{"type":"Feature","id":"337663715","properties":{"josm":"n337663715","name":"Покровське","population":"11661","region":"Дніпропетровська область","koatuu":"1224255100"},"geometry":{"type":"Point","coordinates":[36.23338,47.98085]}},
{"type":"Feature","id":"337525000","properties":{"josm":"n337525000","name":"Соснівка","population":"11588","region":"Львівська область","koatuu":"4611870400"},"geometry":{"type":"Point","coordinates":[24.25632,50.29091]}},
{"type":"Feature","id":"620750304","properties":{"josm":"n620750304","name":"Тараща","population":"11572","region":"Київська область","koatuu":"3224410100"},"geometry":{"type":"Point","coordinates":[30.50234,49.5555]}},
{"type":"Feature","id":"286421384","properties":{"josm":"n286421384","name":"Гребінка","population":"11562","region":"Полтавська область","koatuu":"5320810100"},"geometry":{"type":"Point","coordinates":[32.43364,50.11841]}},
{"type":"Feature","id":"337595311","properties":{"josm":"n337595311","name":"Слобожанське","population":"11528","region":"Дніпропетровська область","koatuu":"1221455800"},"geometry":{"type":"Point","coordinates":[35.08274,48.53087]}},
{"type":"Feature","id":"337549274","properties":{"josm":"n337549274","name":"Рокитне","population":"11467","region":"Київська область","koatuu":"3223755100"},"geometry":{"type":"Point","coordinates":[30.47303,49.68673]}},
{"type":"Feature","id":"337504690","properties":{"josm":"n337504690","name":"Сновськ","population":"11393","region":"Чернігівська область","koatuu":"7425810100"},"geometry":{"type":"Point","coordinates":[31.94275,51.82388]}},
{"type":"Feature","id":"337571536","properties":{"josm":"n337571536","name":"Іллінці","population":"11340","region":"Вінницька область","koatuu":"0521210100"},"geometry":{"type":"Point","coordinates":[29.20244,49.11364]}},
{"type":"Feature","id":"337700267","properties":{"josm":"n337700267","name":"Гаспра","population":"11313","region":"Автономна Республіка Крим","koatuu":"0111946200"},"geometry":{"type":"Point","coordinates":[34.10655,44.43247]}},
{"type":"Feature","id":"295860287","properties":{"josm":"n295860287","name":"Ямпіль","population":"11302","region":"Вінницька область","koatuu":"0525610100"},"geometry":{"type":"Point","coordinates":[28.27773,48.24012]}},
{"type":"Feature","id":"312230548","properties":{"josm":"n312230548","name":"Борщів","population":"11273","region":"Тернопільська область","koatuu":"6120810100"},"geometry":{"type":"Point","coordinates":[26.04019,48.80256]}},
{"type":"Feature","id":"337591051","properties":{"josm":"n337591051","name":"Мала Виска","population":"11269","region":"Кіровоградська область","koatuu":"3523110100"},"geometry":{"type":"Point","coordinates":[31.63421,48.64049]}},
{"type":"Feature","id":"337516727","properties":{"josm":"n337516727","name":"Бобровиця","population":"11244","region":"Чернігівська область","koatuu":"7420610100"},"geometry":{"type":"Point","coordinates":[31.38609,50.7415]}},
{"type":"Feature","id":"337671723","properties":{"josm":"n337671723","name":"Широке","population":"11221","region":"Дніпропетровська область","koatuu":"1225855100"},"geometry":{"type":"Point","coordinates":[33.26454,47.68465]}},
{"type":"Feature","id":"313248460","properties":{"josm":"n313248460","name":"Жидачів","population":"11204","region":"Львівська область","koatuu":"4621510100"},"geometry":{"type":"Point","coordinates":[24.14268,49.38312]}},
{"type":"Feature","id":"337683905","properties":{"josm":"n337683905","name":"Веселе","population":"11098","region":"Запорізька область","koatuu":"2321255100"},"geometry":{"type":"Point","coordinates":[34.92113,47.01792]}},
{"type":"Feature","id":"337687328","properties":{"josm":"n337687328","name":"Таврійськ","population":"11051","region":"Херсонська область","koatuu":"6510770800"},"geometry":{"type":"Point","coordinates":[33.42439,46.75485]}},
{"type":"Feature","id":"337544926","properties":{"josm":"n337544926","name":"Мостиська","population":"11000","region":"Львівська область","koatuu":"4622410100"},"geometry":{"type":"Point","coordinates":[23.14984,49.79514]}},
{"type":"Feature","id":"337695072","properties":{"josm":"n337695072","name":"Чорноморське","population":"10991","region":"Автономна Республіка Крим","koatuu":"0125655100"},"geometry":{"type":"Point","coordinates":[32.70777,45.5086]}},
{"type":"Feature","id":"337523450","properties":{"josm":"n337523450","name":"Баришівка","population":"10950","region":"Київська область","koatuu":"3220255100"},"geometry":{"type":"Point","coordinates":[31.32567,50.36453]}},
{"type":"Feature","id":"337661021","properties":{"josm":"n337661021","name":"Бобринець","population":"10945","region":"Кіровоградська область","koatuu":"3520810100"},"geometry":{"type":"Point","coordinates":[32.15938,48.05729]}},
{"type":"Feature","id":"313248839","properties":{"josm":"n313248839","name":"Кам’янка-Бузька","population":"10921","region":"Львівська область","koatuu":"4622110100"},"geometry":{"type":"Point","coordinates":[24.34192,50.10545]}},
{"type":"Feature","id":"337693147","properties":{"josm":"n337693147","name":"Татарбунари","population":"10881","region":"Одеська область","koatuu":"5125010100"},"geometry":{"type":"Point","coordinates":[29.61674,45.84011]}},
{"type":"Feature","id":"337690555","properties":{"josm":"n337690555","name":"Новотроїцьке","population":"10824","region":"Херсонська область","koatuu":"6524455100"},"geometry":{"type":"Point","coordinates":[34.3353,46.35596]}},
{"type":"Feature","id":"313248365","properties":{"josm":"n313248365","name":"Дубляни","population":"10795","region":"Львівська область","koatuu":"4622710200"},"geometry":{"type":"Point","coordinates":[24.08762,49.90268]}},
{"type":"Feature","id":"256613885","properties":{"josm":"n256613885","name":"Сартана","population":"10772","region":"Донецька область","koatuu":"1412365300"},"geometry":{"type":"Point","coordinates":[37.69562,47.1707]}},
{"type":"Feature","id":"312262525","properties":{"josm":"n312262525","name":"Болехів","population":"10766","region":"Івано-Франківська область","koatuu":"2610200000"},"geometry":{"type":"Point","coordinates":[23.85656,49.06949]}},
{"type":"Feature","id":"337581198","properties":{"josm":"n337581198","name":"Барвінкове","population":"10700","region":"Харківська область","koatuu":"6320410100"},"geometry":{"type":"Point","coordinates":[37.02876,48.907]}},
{"type":"Feature","id":"271789530","properties":{"josm":"n271789530","name":"Борзна","population":"10640","region":"Чернігівська область","koatuu":"7420810100"},"geometry":{"type":"Point","coordinates":[32.42632,51.25345]}},
{"type":"Feature","id":"337560954","properties":{"josm":"n337560954","name":"Летичів","population":"10577","region":"Хмельницька область","koatuu":"6823055100"},"geometry":{"type":"Point","coordinates":[27.62306,49.38286]}},
{"type":"Feature","id":"337509799","properties":{"josm":"n337509799","name":"Маневичі","population":"10500","region":"Волинська область","koatuu":"0723655100"},"geometry":{"type":"Point","coordinates":[25.53788,51.29081]}},
{"type":"Feature","id":"337533363","properties":{"josm":"n337533363","name":"Радивилів","population":"10487","region":"Рівненська область","koatuu":"5625810100"},"geometry":{"type":"Point","coordinates":[25.249,50.12766]}},
{"type":"Feature","id":"337526811","properties":{"josm":"n337526811","name":"Добротвір","population":"10457","region":"Львівська область","koatuu":"4622155300"},"geometry":{"type":"Point","coordinates":[24.38565,50.20541]}},
{"type":"Feature","id":"337526754","properties":{"josm":"n337526754","name":"Зіньків","population":"10393","region":"Полтавська область","koatuu":"5321310100"},"geometry":{"type":"Point","coordinates":[34.35768,50.21026]}},
{"type":"Feature","id":"1494035871","properties":{"josm":"n1494035871","name":"Макарів","population":"10389","region":"Київська область","koatuu":"3222755100"},"geometry":{"type":"Point","coordinates":[29.8069,50.46399]}},
{"type":"Feature","id":"337592311","properties":{"josm":"n337592311","name":"Ірміно","population":"10355","region":"Луганська область","koatuu":"4413170800"},"geometry":{"type":"Point","coordinates":[38.60187,48.60138]}},
{"type":"Feature","id":"337540845","properties":{"josm":"n337540845","name":"Покотилівка","population":"10350","region":"Харківська область","koatuu":"6325158200"},"geometry":{"type":"Point","coordinates":[36.1931,49.91264]}},
{"type":"Feature","id":"337587738","properties":{"josm":"n337587738","name":"Гірське","population":"10317","region":"Луганська область","koatuu":"4423810500"},"geometry":{"type":"Point","coordinates":[38.49197,48.73952]}},
{"type":"Feature","id":"337543361","properties":{"josm":"n337543361","name":"Валки","population":"10295","region":"Харківська область","koatuu":"6321210100"},"geometry":{"type":"Point","coordinates":[35.60478,49.83052]}},
{"type":"Feature","id":"337510555","properties":{"josm":"n337510555","name":"Олевськ","population":"10229","region":"Житомирська область","koatuu":"1824410100"},"geometry":{"type":"Point","coordinates":[27.64881,51.22272]}},
{"type":"Feature","id":"337691408","properties":{"josm":"n337691408","name":"Новоолексіївка","population":"10224","region":"Херсонська область","koatuu":"6522155400"},"geometry":{"type":"Point","coordinates":[34.64148,46.22729]}},
{"type":"Feature","id":"312276821","properties":{"josm":"n312276821","name":"Снятин","population":"10161","region":"Івано-Франківська область","koatuu":"2625210100"},"geometry":{"type":"Point","coordinates":[25.5518,48.45231]}},
{"type":"Feature","id":"337575950","properties":{"josm":"n337575950","name":"Перещепине","population":"10150","region":"Дніпропетровська область","koatuu":"1223210500"},"geometry":{"type":"Point","coordinates":[35.35915,49.01825]}},
{"type":"Feature","id":"337592920","properties":{"josm":"n337592920","name":"Зимогір’я","population":"10148","region":"Луганська область","koatuu":"4424510300"},"geometry":{"type":"Point","coordinates":[38.92731,48.58566]}},
{"type":"Feature","id":"337596922","properties":{"josm":"n337596922","name":"Верхівцеве","population":"10134","region":"Дніпропетровська область","koatuu":"1221010300"},"geometry":{"type":"Point","coordinates":[34.24232,48.48404]}},
{"type":"Feature","id":"260342645","properties":{"josm":"n260342645","name":"Любомль","population":"10129","region":"Волинська область","koatuu":"0723310100"},"geometry":{"type":"Point","coordinates":[24.0386,51.21695]}},
{"type":"Feature","id":"1784420580","properties":{"josm":"n1784420580","name":"Погребище","population":"10013","region":"Вінницька область","koatuu":"0523410100"},"geometry":{"type":"Point","coordinates":[29.25792,49.48482]}},
{"type":"Feature","id":"337560166","properties":{"josm":"n337560166","name":"Ходорів","population":"9900","region":"Львівська область","koatuu":"4621510500"},"geometry":{"type":"Point","coordinates":[24.31001,49.40657]}},
{"type":"Feature","id":"337556862","properties":{"josm":"n337556862","name":"Донець","population":"9883","region":"Харківська область","koatuu":"6320256000"},"geometry":{"type":"Point","coordinates":[36.57623,49.50817]}},
{"type":"Feature","id":"337688690","properties":{"josm":"n337688690","name":"Білозерка","population":"9804","region":"Херсонська область","koatuu":"6520355100"},"geometry":{"type":"Point","coordinates":[32.44537,46.63078]}},
{"type":"Feature","id":"337592332","properties":{"josm":"n337592332","name":"Смоліне","population":"9745","region":"Кіровоградська область","koatuu":"3523155700"},"geometry":{"type":"Point","coordinates":[31.29522,48.6013]}},
{"type":"Feature","id":"337662411","properties":{"josm":"n337662411","name":"Красноїльськ","population":"9738","region":"Чернівецька область","koatuu":"7324555400"},"geometry":{"type":"Point","coordinates":[25.60091,48.0187]}},
{"type":"Feature","id":"337542235","properties":{"josm":"n337542235","name":"Безлюдівка","population":"9693","region":"Харківська область","koatuu":"6325155600"},"geometry":{"type":"Point","coordinates":[36.29848,49.87072]}},
{"type":"Feature","id":"337519261","properties":{"josm":"n337519261","name":"Велика Димерка","population":"9564","region":"Київська область","koatuu":"3221255200"},"geometry":{"type":"Point","coordinates":[30.90109,50.59183]}},
{"type":"Feature","id":"337520527","properties":{"josm":"n337520527","name":"Млинів","population":"9564","region":"Рівненська область","koatuu":"5623855100"},"geometry":{"type":"Point","coordinates":[25.61263,50.51188]}},
{"type":"Feature","id":"337691244","properties":{"josm":"n337691244","name":"Каланчак","population":"9518","region":"Херсонська область","koatuu":"6523255100"},"geometry":{"type":"Point","coordinates":[33.28436,46.25718]}},
{"type":"Feature","id":"337505820","properties":{"josm":"n337505820","name":"Ратне","population":"9483","region":"Волинська область","koatuu":"0724255100"},"geometry":{"type":"Point","coordinates":[24.52458,51.67145]}},
{"type":"Feature","id":"337525335","properties":{"josm":"n337525335","name":"Радехів","population":"9463","region":"Львівська область","koatuu":"4623910100"},"geometry":{"type":"Point","coordinates":[24.63979,50.28087]}},
{"type":"Feature","id":"337698201","properties":{"josm":"n337698201","name":"Старий Крим","population":"9446","region":"Автономна Республіка Крим","koatuu":"0121610400"},"geometry":{"type":"Point","coordinates":[35.08815,45.02939]}},
{"type":"Feature","id":"312268365","properties":{"josm":"n312268365","name":"Городенка","population":"9428","region":"Івано-Франківська область","koatuu":"2621610100"},"geometry":{"type":"Point","coordinates":[25.49527,48.67206]}},
{"type":"Feature","id":"312238259","properties":{"josm":"n312238259","name":"Заліщики","population":"9426","region":"Тернопільська область","koatuu":"6122010100"},"geometry":{"type":"Point","coordinates":[25.7359,48.64027]}},
{"type":"Feature","id":"337605628","properties":{"josm":"n337605628","name":"Помічна","population":"9412","region":"Кіровоградська область","koatuu":"3521710300"},"geometry":{"type":"Point","coordinates":[31.40382,48.24331]}},
{"type":"Feature","id":"337559365","properties":{"josm":"n337559365","name":"Козова","population":"9389","region":"Тернопільська область","koatuu":"6123055100"},"geometry":{"type":"Point","coordinates":[25.14847,49.43327]}},
{"type":"Feature","id":"337660135","properties":{"josm":"n337660135","name":"Глибока","population":"9376","region":"Чернівецька область","koatuu":"7321055100"},"geometry":{"type":"Point","coordinates":[25.92842,48.08578]}},
{"type":"Feature","id":"337671196","properties":{"josm":"n337671196","name":"Ананьїв","population":"9355","region":"Одеська область","koatuu":"5120210100"},"geometry":{"type":"Point","coordinates":[29.96019,47.71787]}},
{"type":"Feature","id":"337510804","properties":{"josm":"n337510804","name":"Буринь","population":"9299","region":"Сумська область","koatuu":"5920910100"},"geometry":{"type":"Point","coordinates":[33.8279,51.19555]}},
{"type":"Feature","id":"337520718","properties":{"josm":"n337520718","name":"Горохів","population":"9186","region":"Волинська область","koatuu":"0720810100"},"geometry":{"type":"Point","coordinates":[24.76007,50.49862]}},
{"type":"Feature","id":"337597829","properties":{"josm":"n337597829","name":"Петропавлівка","population":"9177","region":"Дніпропетровська область","koatuu":"1223855100"},"geometry":{"type":"Point","coordinates":[36.42483,48.45863]}},
{"type":"Feature","id":"337578545","properties":{"josm":"n337578545","name":"Олександрівка","population":"9166","region":"Кіровоградська область","koatuu":"3520555100"},"geometry":{"type":"Point","coordinates":[32.23834,48.96565]}},
{"type":"Feature","id":"337536703","properties":{"josm":"n337536703","name":"Андрушівка","population":"9092","region":"Житомирська область","koatuu":"1820310100"},"geometry":{"type":"Point","coordinates":[29.02221,50.03014]}},
{"type":"Feature","id":"337700009","properties":{"josm":"n337700009","name":"Гурзуф","population":"9068","region":"Автономна Республіка Крим","koatuu":"0111946800"},"geometry":{"type":"Point","coordinates":[34.2737,44.54792]}},
{"type":"Feature","id":"337600364","properties":{"josm":"n337600364","name":"Крижопіль","population":"9024","region":"Вінницька область","koatuu":"0521955100"},"geometry":{"type":"Point","coordinates":[28.86941,48.38568]}},
{"type":"Feature","id":"337547925","properties":{"josm":"n337547925","name":"Пустомити","population":"9016","region":"Львівська область","koatuu":"4623610100"},"geometry":{"type":"Point","coordinates":[23.9015,49.71864]}},
{"type":"Feature","id":"337657992","properties":{"josm":"n337657992","name":"Королево","population":"8993","region":"Закарпатська область","koatuu":"2121255600"},"geometry":{"type":"Point","coordinates":[23.13223,48.15414]}},
{"type":"Feature","id":"337516321","properties":{"josm":"n337516321","name":"Краснопілля","population":"8905","region":"Сумська область","koatuu":"5922355100"},"geometry":{"type":"Point","coordinates":[35.25753,50.78121]}},
{"type":"Feature","id":"1739957292","properties":{"josm":"n1739957292","name":"Стрижавка","population":"8869","region":"Вінницька область","koatuu":"0520655900"},"geometry":{"type":"Point","coordinates":[28.47306,49.30976]}},
{"type":"Feature","id":"337566625","properties":{"josm":"n337566625","name":"Липовець","population":"8867","region":"Вінницька область","koatuu":"0522210100"},"geometry":{"type":"Point","coordinates":[29.06397,49.22935]}},
{"type":"Feature","id":"337508346","properties":{"josm":"n337508346","name":"Володимирець","population":"8857","region":"Рівненська область","koatuu":"5620855100"},"geometry":{"type":"Point","coordinates":[26.13757,51.41849]}},
{"type":"Feature","id":"312280194","properties":{"josm":"n312280194","name":"Тлумач","population":"8841","region":"Івано-Франківська область","koatuu":"2625610100"},"geometry":{"type":"Point","coordinates":[24.99852,48.86729]}},
{"type":"Feature","id":"337522714","properties":{"josm":"n337522714","name":"Заводське","population":"8700","region":"Полтавська область","koatuu":"5322610600"},"geometry":{"type":"Point","coordinates":[33.39226,50.396]}},
{"type":"Feature","id":"312249487","properties":{"josm":"n312249487","name":"Ланівці","population":"8682","region":"Тернопільська область","koatuu":"6123810100"},"geometry":{"type":"Point","coordinates":[26.07801,49.87342]}},
{"type":"Feature","id":"337525824","properties":{"josm":"n337525824","name":"Глеваха","population":"8679","region":"Київська область","koatuu":"3221455300"},"geometry":{"type":"Point","coordinates":[30.30592,50.25967]}},
{"type":"Feature","id":"337595140","properties":{"josm":"n337595140","name":"Нове","population":"8653","region":"Кіровоградська область","koatuu":"3510166900"},"geometry":{"type":"Point","coordinates":[32.12454,48.52934]}},
{"type":"Feature","id":"337569695","properties":{"josm":"n337569695","name":"Сахновщина","population":"8625","region":"Харківська область","koatuu":"6324855100"},"geometry":{"type":"Point","coordinates":[35.87533,49.15174]}},
{"type":"Feature","id":"337680708","properties":{"josm":"n337680708","name":"Велика Лепетиха","population":"8620","region":"Херсонська область","koatuu":"6521255100"},"geometry":{"type":"Point","coordinates":[33.94283,47.1786]}},
{"type":"Feature","id":"337661351","properties":{"josm":"n337661351","name":"Дзержинський","population":"8599","region":"Луганська область","koatuu":"4412345800"},"geometry":{"type":"Point","coordinates":[39.45275,48.04803]}},
{"type":"Feature","id":"337578657","properties":{"josm":"n337578657","name":"Маньківка","population":"8596","region":"Черкаська область","koatuu":"7123155100"},"geometry":{"type":"Point","coordinates":[30.33394,48.96366]}},
{"type":"Feature","id":"337542207","properties":{"josm":"n337542207","name":"Південне","population":"8516","region":"Харківська область","koatuu":"6325111000"},"geometry":{"type":"Point","coordinates":[36.06125,49.87175]}},
{"type":"Feature","id":"337599512","properties":{"josm":"n337599512","name":"Іларіонове","population":"8495","region":"Дніпропетровська область","koatuu":"1224855300"},"geometry":{"type":"Point","coordinates":[35.27554,48.40437]}},
{"type":"Feature","id":"337543711","properties":{"josm":"n337543711","name":"Диканька","population":"8468","region":"Полтавська область","koatuu":"5321055100"},"geometry":{"type":"Point","coordinates":[34.53861,49.82278]}},
{"type":"Feature","id":"312272980","properties":{"josm":"n312272980","name":"Косів","population":"8456","region":"Івано-Франківська область","koatuu":"2623610100"},"geometry":{"type":"Point","coordinates":[25.09834,48.3158]}},
{"type":"Feature","id":"337700122","properties":{"josm":"n337700122","name":"Масандра","population":"8413","region":"Автономна Республіка Крим","koatuu":"0111948100"},"geometry":{"type":"Point","coordinates":[34.18868,44.50878]}},
{"type":"Feature","id":"313247150","properties":{"josm":"n313247150","name":"Буськ","population":"8355","region":"Львівська область","koatuu":"4620610100"},"geometry":{"type":"Point","coordinates":[24.60895,49.96536]}},
{"type":"Feature","id":"337526329","properties":{"josm":"n337526329","name":"Рава-Руська","population":"8328","region":"Львівська область","koatuu":"4622710400"},"geometry":{"type":"Point","coordinates":[23.62124,50.2334]}},
{"type":"Feature","id":"337567695","properties":{"josm":"n337567695","name":"Біловодськ","population":"8313","region":"Луганська область","koatuu":"4420655100"},"geometry":{"type":"Point","coordinates":[39.59061,49.19952]}},
{"type":"Feature","id":"337604455","properties":{"josm":"n337604455","name":"Ясіня","population":"8308","region":"Закарпатська область","koatuu":"2123656200"},"geometry":{"type":"Point","coordinates":[24.36115,48.27255]}},
{"type":"Feature","id":"337527400","properties":{"josm":"n337527400","name":"Борова","population":"8300","region":"Київська область","koatuu":"3224955300"},"geometry":{"type":"Point","coordinates":[30.10254,50.17834]}},
{"type":"Feature","id":"337594201","properties":{"josm":"n337594201","name":"Обухівка","population":"8266","region":"Дніпропетровська область","koatuu":"1221455400"},"geometry":{"type":"Point","coordinates":[34.85455,48.54952]}},
{"type":"Feature","id":"305097830","properties":{"josm":"n305097830","name":"Козелець","population":"8251","region":"Чернігівська область","koatuu":"7422055100"},"geometry":{"type":"Point","coordinates":[31.11675,50.91606]}},
{"type":"Feature","id":"337660175","properties":{"josm":"n337660175","name":"Софіївка","population":"8243","region":"Дніпропетровська область","koatuu":"1225255100"},"geometry":{"type":"Point","coordinates":[33.86686,48.0482]}},
{"type":"Feature","id":"256613872","properties":{"josm":"n256613872","name":"Вуглегірськ","population":"8226","region":"Донецька область","koatuu":"1420910200"},"geometry":{"type":"Point","coordinates":[38.2609,48.31195]}},
{"type":"Feature","id":"337565563","properties":{"josm":"n337565563","name":"Лисянка","population":"8206","region":"Черкаська область","koatuu":"7122855100"},"geometry":{"type":"Point","coordinates":[30.82775,49.2526]}},
{"type":"Feature","id":"337595495","properties":{"josm":"n337595495","name":"Делятин","population":"8184","region":"Івано-Франківська область","koatuu":"2624055900"},"geometry":{"type":"Point","coordinates":[24.62792,48.5273]}},
{"type":"Feature","id":"337562551","properties":{"josm":"n337562551","name":"Нові Санжари","population":"8146","region":"Полтавська область","koatuu":"5323455100"},"geometry":{"type":"Point","coordinates":[34.31486,49.33383]}},
{"type":"Feature","id":"337519781","properties":{"josm":"n337519781","name":"Квасилів","population":"8117","region":"Рівненська область","koatuu":"5624655300"},"geometry":{"type":"Point","coordinates":[26.2624,50.55825]}},
{"type":"Feature","id":"312275967","properties":{"josm":"n312275967","name":"Рогатин","population":"8097","region":"Івано-Франківська область","koatuu":"2624410100"},"geometry":{"type":"Point","coordinates":[24.61058,49.40927]}},
{"type":"Feature","id":"337669008","properties":{"josm":"n337669008","name":"Томаківка","population":"8090","region":"Дніпропетровська область","koatuu":"1225455100"},"geometry":{"type":"Point","coordinates":[34.75232,47.81283]}},
{"type":"Feature","id":"337588316","properties":{"josm":"n337588316","name":"Слов’яносербськ","population":"8065","region":"Луганська область","koatuu":"4424555100"},"geometry":{"type":"Point","coordinates":[38.98626,48.69466]}},
{"type":"Feature","id":"337605536","properties":{"josm":"n337605536","name":"Межова","population":"8049","region":"Дніпропетровська область","koatuu":"1222655100"},"geometry":{"type":"Point","coordinates":[36.73228,48.25535]}},
{"type":"Feature","id":"262290470","properties":{"josm":"n262290470","name":"Яремче","population":"8047","region":"Івано-Франківська область","koatuu":"2611000000"},"geometry":{"type":"Point","coordinates":[24.55096,48.45041]}},
{"type":"Feature","id":"337556150","properties":{"josm":"n337556150","name":"Підволочиськ","population":"8002","region":"Тернопільська область","koatuu":"6124655100"},"geometry":{"type":"Point","coordinates":[26.14408,49.53136]}},
{"type":"Feature","id":"337566080","properties":{"josm":"n337566080","name":"Градизьк","population":"8002","region":"Полтавська область","koatuu":"5320655400"},"geometry":{"type":"Point","coordinates":[33.12063,49.23118]}},
{"type":"Feature","id":"337567918","properties":{"josm":"n337567918","name":"Ярмолинці","population":"7954","region":"Хмельницька область","koatuu":"6825855100"},"geometry":{"type":"Point","coordinates":[26.8372,49.19266]}},
{"type":"Feature","id":"311425368","properties":{"josm":"n311425368","name":"Леніне","population":"7936","region":"Автономна Республіка Крим","koatuu":"0122755100"},"geometry":{"type":"Point","coordinates":[35.7759,45.29728]}},
{"type":"Feature","id":"337585063","properties":{"josm":"n337585063","name":"Богородчани","population":"7916","region":"Івано-Франківська область","koatuu":"2620455100"},"geometry":{"type":"Point","coordinates":[24.53678,48.80728]}},
{"type":"Feature","id":"337576831","properties":{"josm":"n337576831","name":"Привілля","population":"7901","region":"Луганська область","koatuu":"4411870700"},"geometry":{"type":"Point","coordinates":[38.30109,48.99971]}},
{"type":"Feature","id":"337595390","properties":{"josm":"n337595390","name":"Вапнярка","population":"7891","region":"Вінницька область","koatuu":"0523955400"},"geometry":{"type":"Point","coordinates":[28.75238,48.53307]}},
{"type":"Feature","id":"337579120","properties":{"josm":"n337579120","name":"Новодружеськ","population":"7870","region":"Луганська область","koatuu":"4411870400"},"geometry":{"type":"Point","coordinates":[38.35196,48.9634]}},
{"type":"Feature","id":"337595939","properties":{"josm":"n337595939","name":"Тростянець","population":"7850","region":"Вінницька область","koatuu":"0524155100"},"geometry":{"type":"Point","coordinates":[29.22266,48.51227]}},
{"type":"Feature","id":"312253429","properties":{"josm":"n312253429","name":"Почаїв","population":"7842","region":"Тернопільська область","koatuu":"6123410500"},"geometry":{"type":"Point","coordinates":[25.51109,50.00176]}},
{"type":"Feature","id":"337579445","properties":{"josm":"n337579445","name":"Царичанка","population":"7839","region":"Дніпропетровська область","koatuu":"1225655100"},"geometry":{"type":"Point","coordinates":[34.48986,48.9434]}},
{"type":"Feature","id":"337528233","properties":{"josm":"n337528233","name":"Романів","population":"7800","region":"Житомирська область","koatuu":"1821455100"},"geometry":{"type":"Point","coordinates":[27.93102,50.14744]}},
{"type":"Feature","id":"337503711","properties":{"josm":"n337503711","name":"Свеса","population":"7758","region":"Сумська область","koatuu":"5925655700"},"geometry":{"type":"Point","coordinates":[33.93299,51.94816]}},
{"type":"Feature","id":"337544240","properties":{"josm":"n337544240","name":"Малинівка","population":"7725","region":"Харківська область","koatuu":"6325455900"},"geometry":{"type":"Point","coordinates":[36.71807,49.80066]}},
{"type":"Feature","id":"337571638","properties":{"josm":"n337571638","name":"Власівка","population":"7724","region":"Кіровоградська область","koatuu":"3510945300"},"geometry":{"type":"Point","coordinates":[33.27839,49.11637]}},
{"type":"Feature","id":"337678826","properties":{"josm":"n337678826","name":"Березнегувате","population":"7722","region":"Миколаївська область","koatuu":"4821155100"},"geometry":{"type":"Point","coordinates":[32.84743,47.30716]}},
{"type":"Feature","id":"337598439","properties":{"josm":"n337598439","name":"Артемівськ","population":"7616","region":"Луганська область","koatuu":"4423610300"},"geometry":{"type":"Point","coordinates":[38.74981,48.44078]}},
{"type":"Feature","id":"337550427","properties":{"josm":"n337550427","name":"Чорнобай","population":"7573","region":"Черкаська область","koatuu":"7125155100"},"geometry":{"type":"Point","coordinates":[32.3272,49.66038]}},
{"type":"Feature","id":"337656224","properties":{"josm":"n337656224","name":"Солоне","population":"7567","region":"Дніпропетровська область","koatuu":"1225055100"},"geometry":{"type":"Point","coordinates":[34.87713,48.20423]}},
{"type":"Feature","id":"337507369","properties":{"josm":"n337507369","name":"Сосниця","population":"7534","region":"Чернігівська область","koatuu":"7424955100"},"geometry":{"type":"Point","coordinates":[32.5029,51.52449]}},
{"type":"Feature","id":"337502601","properties":{"josm":"n337502601","name":"Середина-Буда","population":"7500","region":"Сумська область","koatuu":"5924410100"},"geometry":{"type":"Point","coordinates":[34.0306,52.18869]}},
{"type":"Feature","id":"337535921","properties":{"josm":"n337535921","name":"Мала Данилівка","population":"7471","region":"Харківська область","koatuu":"6322055900"},"geometry":{"type":"Point","coordinates":[36.17062,50.05612]}},
{"type":"Feature","id":"337553321","properties":{"josm":"n337553321","name":"Семенівка","population":"7469","region":"Полтавська область","koatuu":"5324555100"},"geometry":{"type":"Point","coordinates":[33.18409,49.59867]}},
{"type":"Feature","id":"337527159","properties":{"josm":"n337527159","name":"Понінка","population":"7464","region":"Хмельницька область","koatuu":"6823655400"},"geometry":{"type":"Point","coordinates":[27.56126,50.19138]}},
{"type":"Feature","id":"1489631667","properties":{"josm":"n1489631667","name":"Корець","population":"7428","region":"Рівненська область","koatuu":"5623010100"},"geometry":{"type":"Point","coordinates":[27.15971,50.61946]}},
{"type":"Feature","id":"337579677","properties":{"josm":"n337579677","name":"Панютине","population":"7332","region":"Харківська область","koatuu":"6311045400"},"geometry":{"type":"Point","coordinates":[36.27788,48.93551]}},
{"type":"Feature","id":"337541416","properties":{"josm":"n337541416","name":"Бабаї","population":"7304","region":"Харківська область","koatuu":"6325155300"},"geometry":{"type":"Point","coordinates":[36.19961,49.89681]}},
{"type":"Feature","id":"337593519","properties":{"josm":"n337593519","name":"Нова Прага","population":"7273","region":"Кіровоградська область","koatuu":"3520355400"},"geometry":{"type":"Point","coordinates":[32.90438,48.56911]}},
{"type":"Feature","id":"337688638","properties":{"josm":"n337688638","name":"Комишани","population":"7254","region":"Херсонська область","koatuu":"6510166400"},"geometry":{"type":"Point","coordinates":[32.50308,46.63631]}},
{"type":"Feature","id":"337557094","properties":{"josm":"n337557094","name":"Велика Березовиця","population":"7249","region":"Тернопільська область","koatuu":"6125255200"},"geometry":{"type":"Point","coordinates":[25.61129,49.50199]}},
{"type":"Feature","id":"1170282655","properties":{"josm":"n1170282655","name":"Новоозерне","population":"7242","region":"Автономна Республіка Крим","koatuu":"0110945800"},"geometry":{"type":"Point","coordinates":[33.11703,45.38372]}},
{"type":"Feature","id":"312242901","properties":{"josm":"n312242901","name":"Зборів","population":"7163","region":"Тернопільська область","koatuu":"6122610100"},"geometry":{"type":"Point","coordinates":[25.13862,49.66452]}},
{"type":"Feature","id":"337698341","properties":{"josm":"n337698341","name":"Молодіжне","population":"7151","region":"Автономна Республіка Крим","koatuu":"0124755600"},"geometry":{"type":"Point","coordinates":[34.05659,45.00927]}},
{"type":"Feature","id":"337569553","properties":{"josm":"n337569553","name":"Турка","population":"7114","region":"Львівська область","koatuu":"4625510100"},"geometry":{"type":"Point","coordinates":[23.033,49.15683]}},
{"type":"Feature","id":"337573508","properties":{"josm":"n337573508","name":"Гусятин","population":"7104","region":"Тернопільська область","koatuu":"6121655100"},"geometry":{"type":"Point","coordinates":[26.1996,49.07078]}},
{"type":"Feature","id":"337548964","properties":{"josm":"n337548964","name":"Шевченкове","population":"7100","region":"Харківська область","koatuu":"6325755100"},"geometry":{"type":"Point","coordinates":[37.17533,49.69528]}},
{"type":"Feature","id":"337680572","properties":{"josm":"n337680572","name":"Молочанськ","population":"7090","region":"Запорізька область","koatuu":"2325210100"},"geometry":{"type":"Point","coordinates":[35.59742,47.20653]}},
{"type":"Feature","id":"312256412","properties":{"josm":"n312256412","name":"Хоростків","population":"7067","region":"Тернопільська область","koatuu":"6121611000"},"geometry":{"type":"Point","coordinates":[25.91685,49.21215]}},
{"type":"Feature","id":"3425109778","properties":{"josm":"n3425109778","name":"Зарічне","population":"7045","region":"Рівненська область","koatuu":"5622255100"},"geometry":{"type":"Point","coordinates":[26.12838,51.81159]}},
{"type":"Feature","id":"337517677","properties":{"josm":"n337517677","name":"Пісківка","population":"7030","region":"Київська область","koatuu":"3221055600"},"geometry":{"type":"Point","coordinates":[29.5931,50.69686]}},
{"type":"Feature","id":"337696984","properties":{"josm":"n337696984","name":"Кіровське","population":"7024","region":"Автономна Республіка Крим","koatuu":"0121655100"},"geometry":{"type":"Point","coordinates":[35.20108,45.23065]}},
{"type":"Feature","id":"337541522","properties":{"josm":"n337541522","name":"Буди","population":"7004","region":"Харківська область","koatuu":"6325156100"},"geometry":{"type":"Point","coordinates":[36.02128,49.89112]}},
{"type":"Feature","id":"337560920","properties":{"josm":"n337560920","name":"Ставище","population":"6974","region":"Київська область","koatuu":"3224255100"},"geometry":{"type":"Point","coordinates":[30.18315,49.3862]}},
{"type":"Feature","id":"337519630","properties":{"josm":"n337519630","name":"Немішаєве","population":"6968","region":"Київська область","koatuu":"3221055900"},"geometry":{"type":"Point","coordinates":[30.1015,50.56801]}},
{"type":"Feature","id":"337678618","properties":{"josm":"n337678618","name":"Велика Олександрівка","population":"6966","region":"Херсонська область","koatuu":"6520955100"},"geometry":{"type":"Point","coordinates":[33.29977,47.31594]}},
{"type":"Feature","id":"337690726","properties":{"josm":"n337690726","name":"Олександрівка","population":"6953","region":"Одеська область","koatuu":"5110845200"},"geometry":{"type":"Point","coordinates":[30.63125,46.32795]}},
{"type":"Feature","id":"337587448","properties":{"josm":"n337587448","name":"Шаргород","population":"6949","region":"Вінницька область","koatuu":"0525310100"},"geometry":{"type":"Point","coordinates":[28.08317,48.74983]}},
{"type":"Feature","id":"337556120","properties":{"josm":"n337556120","name":"Білокуракине","population":"6944","region":"Луганська область","koatuu":"4420955100"},"geometry":{"type":"Point","coordinates":[38.73539,49.52637]}},
{"type":"Feature","id":"337550092","properties":{"josm":"n337550092","name":"Перемишляни","population":"6918","region":"Львівська область","koatuu":"4623310100"},"geometry":{"type":"Point","coordinates":[24.55841,49.66936]}},
{"type":"Feature","id":"1712742817","properties":{"josm":"n1712742817","name":"Копичинці","population":"6869","region":"Тернопільська область","koatuu":"6121610400"},"geometry":{"type":"Point","coordinates":[25.90853,49.10686]}},
{"type":"Feature","id":"337514704","properties":{"josm":"n337514704","name":"Ємільчине","population":"6842","region":"Житомирська область","koatuu":"1821755100"},"geometry":{"type":"Point","coordinates":[27.80708,50.87253]}},
{"type":"Feature","id":"337539301","properties":{"josm":"n337539301","name":"Драбів","population":"6838","region":"Черкаська область","koatuu":"7120655100"},"geometry":{"type":"Point","coordinates":[32.14191,49.96239]}},
{"type":"Feature","id":"337687581","properties":{"josm":"n337687581","name":"Приазовське","population":"6818","region":"Запорізька область","koatuu":"2324555100"},"geometry":{"type":"Point","coordinates":[35.63896,46.73]}},
{"type":"Feature","id":"260940348","properties":{"josm":"n260940348","name":"Іваничі","population":"6784","region":"Волинська область","koatuu":"0721155100"},"geometry":{"type":"Point","coordinates":[24.35917,50.63777]}},
{"type":"Feature","id":"337543145","properties":{"josm":"n337543145","name":"Теофіполь","population":"6763","region":"Хмельницька область","koatuu":"6824755100"},"geometry":{"type":"Point","coordinates":[26.41525,49.84463]}},
{"type":"Feature","id":"337563109","properties":{"josm":"n337563109","name":"Літин","population":"6751","region":"Вінницька область","koatuu":"0522455100"},"geometry":{"type":"Point","coordinates":[28.09136,49.32106]}},
{"type":"Feature","id":"337673450","properties":{"josm":"n337673450","name":"Червоногригорівка","population":"6710","region":"Дніпропетровська область","koatuu":"1222955700"},"geometry":{"type":"Point","coordinates":[34.52453,47.62161]}},
{"type":"Feature","id":"337592635","properties":{"josm":"n337592635","name":"Олександрівськ","population":"6709","region":"Луганська область","koatuu":"4410160300"},"geometry":{"type":"Point","coordinates":[39.19097,48.58547]}},
{"type":"Feature","id":"337516690","properties":{"josm":"n337516690","name":"Іршанськ","population":"6652","region":"Житомирська область","koatuu":"1821155400"},"geometry":{"type":"Point","coordinates":[28.72375,50.75254]}},
{"type":"Feature","id":"337658948","properties":{"josm":"n337658948","name":"Саврань","population":"6616","region":"Одеська область","koatuu":"5124355100"},"geometry":{"type":"Point","coordinates":[30.0797,48.12466]}},
{"type":"Feature","id":"337597113","properties":{"josm":"n337597113","name":"Карнаухівка","population":"6597","region":"Дніпропетровська область","koatuu":"1210465300"},"geometry":{"type":"Point","coordinates":[34.73843,48.47546]}},
{"type":"Feature","id":"337596679","properties":{"josm":"n337596679","name":"Біле","population":"6593","region":"Луганська область","koatuu":"4422255300"},"geometry":{"type":"Point","coordinates":[39.02415,48.48911]}},
{"type":"Feature","id":"337562386","properties":{"josm":"n337562386","name":"Турбів","population":"6558","region":"Вінницька область","koatuu":"0522255500"},"geometry":{"type":"Point","coordinates":[28.71693,49.3405]}},
{"type":"Feature","id":"337675489","properties":{"josm":"n337675489","name":"Нововоронцовка","population":"6549","region":"Херсонська область","koatuu":"6524155100"},"geometry":{"type":"Point","coordinates":[33.91982,47.4958]}},
{"type":"Feature","id":"337564178","properties":{"josm":"n337564178","name":"Кегичівка","population":"6539","region":"Харківська область","koatuu":"6323155100"},"geometry":{"type":"Point","coordinates":[35.76948,49.28627]}},
{"type":"Feature","id":"337580163","properties":{"josm":"n337580163","name":"Магдалинівка","population":"6493","region":"Дніпропетровська область","koatuu":"1222355100"},"geometry":{"type":"Point","coordinates":[34.91867,48.92074]}},
{"type":"Feature","id":"337575253","properties":{"josm":"n337575253","name":"Віньківці","population":"6473","region":"Хмельницька область","koatuu":"6820655100"},"geometry":{"type":"Point","coordinates":[27.23198,49.03478]}},
{"type":"Feature","id":"337571592","properties":{"josm":"n337571592","name":"Вороновиця","population":"6466","region":"Вінницька область","koatuu":"0520655300"},"geometry":{"type":"Point","coordinates":[28.68894,49.11179]}},
{"type":"Feature","id":"337545085","properties":{"josm":"n337545085","name":"Судова Вишня","population":"6434","region":"Львівська область","koatuu":"4622410500"},"geometry":{"type":"Point","coordinates":[23.37326,49.78809]}},
{"type":"Feature","id":"337556177","properties":{"josm":"n337556177","name":"Марківка","population":"6421","region":"Луганська область","koatuu":"4422555100"},"geometry":{"type":"Point","coordinates":[39.56821,49.52392]}},
{"type":"Feature","id":"337556285","properties":{"josm":"n337556285","name":"Володарка","population":"6395","region":"Київська область","koatuu":"3221655100"},"geometry":{"type":"Point","coordinates":[29.92805,49.5225]}},
{"type":"Feature","id":"337548020","properties":{"josm":"n337548020","name":"Чутове","population":"6372","region":"Полтавська область","koatuu":"5325455100"},"geometry":{"type":"Point","coordinates":[35.16944,49.72167]}},
{"type":"Feature","id":"337513526","properties":{"josm":"n337513526","name":"Остер","population":"6335","region":"Чернігівська область","koatuu":"7422010400"},"geometry":{"type":"Point","coordinates":[30.87824,50.95083]}},
{"type":"Feature","id":"312267035","properties":{"josm":"n312267035","name":"Галич","population":"6307","region":"Івано-Франківська область","koatuu":"2621210100"},"geometry":{"type":"Point","coordinates":[24.72995,49.12332]}},
{"type":"Feature","id":"337700260","properties":{"josm":"n337700260","name":"Кореїз","population":"6294","region":"Автономна Республіка Крим","koatuu":"0111947100"},"geometry":{"type":"Point","coordinates":[34.08641,44.43184]}},
{"type":"Feature","id":"337680782","properties":{"josm":"n337680782","name":"Чернігівка","population":"6282","region":"Запорізька область","koatuu":"2325555100"},"geometry":{"type":"Point","coordinates":[36.2075,47.19486]}},
{"type":"Feature","id":"3726238865","properties":{"josm":"n3726238865","name":"Сколе","population":"6269","region":"Львівська область","koatuu":"4624510100"},"geometry":{"type":"Point","coordinates":[23.51424,49.03812]}},
{"type":"Feature","id":"337558646","properties":{"josm":"n337558646","name":"Старий Самбір","population":"6266","region":"Львівська область","koatuu":"4625110100"},"geometry":{"type":"Point","coordinates":[23.00227,49.44406]}},
{"type":"Feature","id":"337678019","properties":{"josm":"n337678019","name":"Веселинове","population":"6238","region":"Миколаївська область","koatuu":"4821755100"},"geometry":{"type":"Point","coordinates":[31.2368,47.35631]}},
{"type":"Feature","id":"337601832","properties":{"josm":"n337601832","name":"Благовіщенське","population":"6236","region":"Кіровоградська область","koatuu":"3525510100"},"geometry":{"type":"Point","coordinates":[30.23439,48.32772]}},
{"type":"Feature","id":"337540463","properties":{"josm":"n337540463","name":"Івано-Франкове","population":"6223","region":"Львівська область","koatuu":"4625855300"},"geometry":{"type":"Point","coordinates":[23.73115,49.922]}},
{"type":"Feature","id":"337574809","properties":{"josm":"n337574809","name":"Сутиски","population":"6207","region":"Вінницька область","koatuu":"0524555700"},"geometry":{"type":"Point","coordinates":[28.41823,49.04537]}},
{"type":"Feature","id":"337670581","properties":{"josm":"n337670581","name":"Балабине","population":"6168","region":"Запорізька область","koatuu":"2322155300"},"geometry":{"type":"Point","coordinates":[35.21696,47.74724]}},
{"type":"Feature","id":"337600402","properties":{"josm":"n337600402","name":"Голованівськ","population":"6150","region":"Кіровоградська область","koatuu":"3521455100"},"geometry":{"type":"Point","coordinates":[30.46559,48.38302]}},
{"type":"Feature","id":"312250942","properties":{"josm":"n312250942","name":"Монастириська","population":"6134","region":"Тернопільська область","koatuu":"6124210100"},"geometry":{"type":"Point","coordinates":[25.17178,49.09084]}},
{"type":"Feature","id":"337588247","properties":{"josm":"n337588247","name":"Муровані Курилівці","population":"6113","region":"Вінницька область","koatuu":"0522855100"},"geometry":{"type":"Point","coordinates":[27.53558,48.71301]}},
{"type":"Feature","id":"256613876","properties":{"josm":"n256613876","name":"Старий Крим","population":"6069","region":"Донецька область","koatuu":"1412365600"},"geometry":{"type":"Point","coordinates":[37.48691,47.16143]}},
{"type":"Feature","id":"337543424","properties":{"josm":"n337543424","name":"Васищеве","population":"6069","region":"Харківська область","koatuu":"6325156400"},"geometry":{"type":"Point","coordinates":[36.3311,49.83536]}},
{"type":"Feature","id":"337699879","properties":{"josm":"n337699879","name":"Партеніт","population":"6061","region":"Автономна Республіка Крим","koatuu":"0110345400"},"geometry":{"type":"Point","coordinates":[34.34292,44.58183]}},
{"type":"Feature","id":"337691696","properties":{"josm":"n337691696","name":"Тарутине","population":"6055","region":"Одеська область","koatuu":"5124755100"},"geometry":{"type":"Point","coordinates":[29.15007,46.18528]}},
{"type":"Feature","id":"337657484","properties":{"josm":"n337657484","name":"Побузьке","population":"6042","region":"Кіровоградська область","koatuu":"3521455500"},"geometry":{"type":"Point","coordinates":[30.5986,48.16666]}},
{"type":"Feature","id":"337526184","properties":{"josm":"n337526184","name":"Великі Мости","population":"6037","region":"Львівська область","koatuu":"4624810600"},"geometry":{"type":"Point","coordinates":[24.13855,50.24016]}},
{"type":"Feature","id":"337539614","properties":{"josm":"n337539614","name":"Попільня","population":"6028","region":"Житомирська область","koatuu":"1824755100"},"geometry":{"type":"Point","coordinates":[29.4595,49.94556]}},
{"type":"Feature","id":"1628075066","properties":{"josm":"n1628075066","name":"Верхній Рогачик","population":"6011","region":"Херсонська область","koatuu":"6521555100"},"geometry":{"type":"Point","coordinates":[34.33393,47.25694]}},
{"type":"Feature","id":"2124300072","properties":{"josm":"n2124300072","name":"Опішня","population":"6003","region":"Полтавська область","koatuu":"5321355400"},"geometry":{"type":"Point","coordinates":[34.61005,49.9571]}},
{"type":"Feature","id":"337689002","properties":{"josm":"n337689002","name":"Чорноморське","population":"5978","region":"Одеська область","koatuu":"5122755900"},"geometry":{"type":"Point","coordinates":[30.94629,46.58725]}},
{"type":"Feature","id":"337527379","properties":{"josm":"n337527379","name":"Озерне","population":"5968","region":"Житомирська область","koatuu":"1822055900"},"geometry":{"type":"Point","coordinates":[28.7352,50.18088]}},
{"type":"Feature","id":"337582691","properties":{"josm":"n337582691","name":"Борівське","population":"5949","region":"Луганська область","koatuu":"4412945200"},"geometry":{"type":"Point","coordinates":[38.56058,48.87099]}},
{"type":"Feature","id":"337698272","properties":{"josm":"n337698272","name":"Аграрне","population":"5938","region":"Автономна Республіка Крим","koatuu":"0110166200"},"geometry":{"type":"Point","coordinates":[34.04878,45.016]}},
{"type":"Feature","id":"337600311","properties":{"josm":"n337600311","name":"Добровеличківка","population":"5931","region":"Кіровоградська область","koatuu":"3521755100"},"geometry":{"type":"Point","coordinates":[31.17748,48.38791]}},
{"type":"Feature","id":"337524378","properties":{"josm":"n337524378","name":"Козача Лопань","population":"5878","region":"Харківська область","koatuu":"6322055600"},"geometry":{"type":"Point","coordinates":[36.19214,50.32959]}},
{"type":"Feature","id":"337576891","properties":{"josm":"n337576891","name":"Брошнів-Осада","population":"5863","region":"Івано-Франківська область","koatuu":"2624855400"},"geometry":{"type":"Point","coordinates":[24.18601,48.996]}},
{"type":"Feature","id":"337600832","properties":{"josm":"n337600832","name":"Новгородка","population":"5863","region":"Кіровоградська область","koatuu":"3523455100"},"geometry":{"type":"Point","coordinates":[32.6573,48.3658]}},
{"type":"Feature","id":"337565151","properties":{"josm":"n337565151","name":"Білики","population":"5786","region":"Полтавська область","koatuu":"5321855300"},"geometry":{"type":"Point","coordinates":[34.26902,49.25904]}},
{"type":"Feature","id":"1585808480","properties":{"josm":"n1585808480","name":"Димер","population":"5786","region":"Київська область","koatuu":"3221855300"},"geometry":{"type":"Point","coordinates":[30.30764,50.78353]}},
{"type":"Feature","id":"337687732","properties":{"josm":"n337687732","name":"Зеленівка","population":"5785","region":"Херсонська область","koatuu":"6510165600"},"geometry":{"type":"Point","coordinates":[32.64793,46.71661]}},
{"type":"Feature","id":"337683193","properties":{"josm":"n337683193","name":"Велика Михайлівка","population":"5753","region":"Одеська область","koatuu":"5121655100"},"geometry":{"type":"Point","coordinates":[29.85094,47.07754]}},
{"type":"Feature","id":"337535925","properties":{"josm":"n337535925","name":"Чуднів","population":"5752","region":"Житомирська область","koatuu":"1825810100"},"geometry":{"type":"Point","coordinates":[28.11539,50.05234]}},
{"type":"Feature","id":"337539356","properties":{"josm":"n337539356","name":"Гребінки","population":"5736","region":"Київська область","koatuu":"3221455500"},"geometry":{"type":"Point","coordinates":[30.17635,49.95346]}},
{"type":"Feature","id":"337511968","properties":{"josm":"n337511968","name":"Турійськ","population":"5697","region":"Волинська область","koatuu":"0725555100"},"geometry":{"type":"Point","coordinates":[24.52389,51.08299]}},
{"type":"Feature","id":"337544697","properties":{"josm":"n337544697","name":"Велика Багачка","population":"5686","region":"Полтавська область","koatuu":"5320255100"},"geometry":{"type":"Point","coordinates":[33.72139,49.78528]}},
{"type":"Feature","id":"337541954","properties":{"josm":"n337541954","name":"Шишаки","population":"5671","region":"Полтавська область","koatuu":"5325755100"},"geometry":{"type":"Point","coordinates":[34.00693,49.87644]}},
{"type":"Feature","id":"337505163","properties":{"josm":"n337505163","name":"Любешів","population":"5627","region":"Волинська область","koatuu":"0723155100"},"geometry":{"type":"Point","coordinates":[25.50483,51.76328]}},
{"type":"Feature","id":"337659129","properties":{"josm":"n337659129","name":"Просяна","population":"5618","region":"Дніпропетровська область","koatuu":"1224255400"},"geometry":{"type":"Point","coordinates":[36.36921,48.11909]}},
{"type":"Feature","id":"337519932","properties":{"josm":"n337519932","name":"Ворзель","population":"5603","region":"Київська область","koatuu":"3210945600"},"geometry":{"type":"Point","coordinates":[30.15629,50.54573]}},
{"type":"Feature","id":"337553077","properties":{"josm":"n337553077","name":"Стара Синява","population":"5581","region":"Хмельницька область","koatuu":"6824455100"},"geometry":{"type":"Point","coordinates":[27.61582,49.59715]}},
{"type":"Feature","id":"337517582","properties":{"josm":"n337517582","name":"Нова Борова","population":"5572","region":"Житомирська область","koatuu":"1821155700"},"geometry":{"type":"Point","coordinates":[28.6396,50.69333]}},
{"type":"Feature","id":"337584288","properties":{"josm":"n337584288","name":"Брацлав","population":"5557","region":"Вінницька область","koatuu":"0523055300"},"geometry":{"type":"Point","coordinates":[28.93797,48.82687]}},
{"type":"Feature","id":"337594569","properties":{"josm":"n337594569","name":"Томашпіль","population":"5557","region":"Вінницька область","koatuu":"0523955100"},"geometry":{"type":"Point","coordinates":[28.51433,48.54378]}},
{"type":"Feature","id":"337664304","properties":{"josm":"n337664304","name":"Новомиколаївка","population":"5522","region":"Запорізька область","koatuu":"2323655100"},"geometry":{"type":"Point","coordinates":[35.89886,47.97146]}},
{"type":"Feature","id":"1867222449","properties":{"josm":"n1867222449","name":"Короп","population":"5505","region":"Чернігівська область","koatuu":"7422255100"},"geometry":{"type":"Point","coordinates":[32.95205,51.56714]}},
{"type":"Feature","id":"337521296","properties":{"josm":"n337521296","name":"Пулини","population":"5472","region":"Житомирська область","koatuu":"1825455100"},"geometry":{"type":"Point","coordinates":[28.27538,50.46776]}},
{"type":"Feature","id":"337515899","properties":{"josm":"n337515899","name":"Городниця","population":"5470","region":"Житомирська область","koatuu":"1824055600"},"geometry":{"type":"Point","coordinates":[27.31407,50.80627]}},
{"type":"Feature","id":"337587528","properties":{"josm":"n337587528","name":"Отинія","population":"5466","region":"Івано-Франківська область","koatuu":"2623255400"},