{
"type": "FeatureCollection",
"errorDescr": "Border not found",
"features": [
{"type":"Feature","id":"337593968","properties":{"josm":"n337593968","name":"Юбілейне","population":"16723","region":"Луганська область","koatuu":"4410165900"},"geometry":{"type":"Point","coordinates":[39.1786,48.55389]}},
{"type":"Feature","id":"337590198","properties":{"josm":"n337590198","name":"Станиця Луганська","population":"13089","region":"Луганська область","koatuu":"4424855100"},"geometry":{"type":"Point","coordinates":[39.48147,48.6584]}},
{"type":"Feature","id":"337690298","properties":{"josm":"n337690298","name":"Лиманка","population":"13085","region":"Одеська область","koatuu":"5123755802"},"geometry":{"type":"Point","coordinates":[30.69087,46.3731]}},
{"type":"Feature","id":"337523758","properties":{"josm":"n337523758","name":"Лохвиця","population":"12307","region":"Полтавська область","koatuu":"5322610100"},"geometry":{"type":"Point","coordinates":[33.27417,50.35952]}},
{"type":"Feature","id":"337695202","properties":{"josm":"n337695202","name":"Красногвардійське","population":"10742","region":"Автономна Республіка Крим","koatuu":"0122055100"},"geometry":{"type":"Point","coordinates":[34.29509,45.49596]}},
{"type":"Feature","id":"337592920","properties":{"josm":"n337592920","name":"Зимогір’я","population":"10148","region":"Луганська область","koatuu":"4424510300"},"geometry":{"type":"Point","coordinates":[38.92778,48.5856]}},
{"type":"Feature","id":"337664476","properties":{"josm":"n337664476","name":"Великий Бичків","population":"9367","region":"Закарпатська область","koatuu":"2123655500"},"geometry":{"type":"Point","coordinates":[24.01474,47.97355]}},
{"type":"Feature","id":"248778046","properties":{"josm":"n248778046","name":"Христинівка","population":"8671","region":"Черкаська область","koatuu":"7124610100"},"geometry":{"type":"Point","coordinates":[29.96822,48.81824]}},
{"type":"Feature","id":"337542207","properties":{"josm":"n337542207","name":"Південне","population":"8516","region":"Харківська область","koatuu":"6325111000"},"geometry":{"type":"Point","coordinates":[36.06125,49.87175]}},
{"type":"Feature","id":"337588316","properties":{"josm":"n337588316","name":"Слов’яносербськ","population":"8065","region":"Луганська область","koatuu":"4424555100"},"geometry":{"type":"Point","coordinates":[38.98626,48.69466]}},
{"type":"Feature","id":"337598439","properties":{"josm":"n337598439","name":"Артемівськ","population":"7616","region":"Луганська область","koatuu":"4423610300"},"geometry":{"type":"Point","coordinates":[38.72149,48.43879]}},
{"type":"Feature","id":"337550427","properties":{"josm":"n337550427","name":"Чорнобай","population":"7573","region":"Черкаська область","koatuu":"7125155100"},"geometry":{"type":"Point","coordinates":[32.32327,49.67032]}},
{"type":"Feature","id":"337696984","properties":{"josm":"n337696984","name":"Кіровське","population":"7024","region":"Автономна Республіка Крим","koatuu":"0121655100"},"geometry":{"type":"Point","coordinates":[35.20108,45.23065]}},
{"type":"Feature","id":"337560536","properties":{"josm":"n337560536","name":"Савинці","population":"6830","region":"Харківська область","koatuu":"6320255700"},"geometry":{"type":"Point","coordinates":[37.05036,49.39625]}},
{"type":"Feature","id":"337563109","properties":{"josm":"n337563109","name":"Літин","population":"6751","region":"Вінницька область","koatuu":"0522455100"},"geometry":{"type":"Point","coordinates":[28.08376,49.32326]}},
{"type":"Feature","id":"337671314","properties":{"josm":"n337671314","name":"Комишуваха","population":"5406","region":"Запорізька область","koatuu":"2323955400"},"geometry":{"type":"Point","coordinates":[35.5315,47.71362]}},
{"type":"Feature","id":"337584961","properties":{"josm":"n337584961","name":"Петропавлівка","population":"4981","region":"Луганська область","koatuu":"4424855400"},"geometry":{"type":"Point","coordinates":[39.26685,48.80813]}},
{"type":"Feature","id":"337577787","properties":{"josm":"n337577787","name":"Єрки","population":"4360","region":"Черкаська область","koatuu":"7122255400"},"geometry":{"type":"Point","coordinates":[30.99449,48.98357]}},
{"type":"Feature","id":"337573271","properties":{"josm":"n337573271","name":"Цибулів","population":"3800","region":"Черкаська область","koatuu":"7123455500"},"geometry":{"type":"Point","coordinates":[29.84555,49.07544]}},
{"type":"Feature","id":"337598517","properties":{"josm":"n337598517","name":"Южна Ломуватка","population":"3408","region":"Луганська область","koatuu":"4410546500"},"geometry":{"type":"Point","coordinates":[38.53206,48.43785]}},
{"type":"Feature","id":"337590283","properties":{"josm":"n337590283","name":"Сентянівка","population":"3321","region":"Луганська область","koatuu":"4424556200"},"geometry":{"type":"Point","coordinates":[38.76016,48.6694]}},
{"type":"Feature","id":"337509740","properties":{"josm":"n337509740","name":"Гончарівське","population":"3312","region":"Чернігівська область","koatuu":"7425555200"},"geometry":{"type":"Point","coordinates":[30.9276,51.29902]}},
{"type":"Feature","id":"337567024","properties":{"josm":"n337567024","name":"Вільшана","population":"3256","region":"Черкаська область","koatuu":"7120355400"},"geometry":{"type":"Point","coordinates":[31.21204,49.21651]}},
{"type":"Feature","id":"337511569","properties":{"josm":"n337511569","name":"Нові Білокоровичі","population":"3034","region":"Житомирська область","koatuu":"1824456200"},"geometry":{"type":"Point","coordinates":[28.0522,51.11567]}},
{"type":"Feature","id":"337596730","properties":{"josm":"n337596730","name":"Михайлівка","population":"2467","region":"Луганська область","koatuu":"4423656400"},"geometry":{"type":"Point","coordinates":[38.90671,48.49228]}},
{"type":"Feature","id":"337587920","properties":{"josm":"n337587920","name":"Новотошківське","population":"2349","region":"Луганська область","koatuu":"4423857900"},"geometry":{"type":"Point","coordinates":[38.63157,48.7226]}},
{"type":"Feature","id":"337600321","properties":{"josm":"n337600321","name":"Комісарівка","population":"1785","region":"Луганська область","koatuu":"4423656100"},"geometry":{"type":"Point","coordinates":[38.53398,48.39074]}},
{"type":"Feature"}
]}
