{
"type": "FeatureCollection",
"errorDescr": "Border not found",
"features": [
{"type":"Feature","id":"6269253394","properties":{"josm":"n6269253394","name":"","population":"","region":"Автономна Республіка Крим","koatuu":""},"geometry":{"type":"Point","coordinates":[36.41704,45.34358]}},
{"type":"Feature","id":"337566618","properties":{"josm":"n337566618","name":"Сміла","population":"68520","region":"Черкаська область","koatuu":"7110500000"},"geometry":{"type":"Point","coordinates":[31.88271,49.23355]}},
{"type":"Feature","id":"337593968","properties":{"josm":"n337593968","name":"Юбілейне","population":"16723","region":"Луганська область","koatuu":"4410165900"},"geometry":{"type":"Point","coordinates":[39.1786,48.55389]}},
{"type":"Feature","id":"337590198","properties":{"josm":"n337590198","name":"Станиця Луганська","population":"13744","region":"Луганська область","koatuu":"4424855100"},"geometry":{"type":"Point","coordinates":[39.49331,48.64513]}},
{"type":"Feature","id":"337690298","properties":{"josm":"n337690298","name":"Лиманка","population":"13085","region":"Одеська область","koatuu":"5123755802"},"geometry":{"type":"Point","coordinates":[30.69087,46.3731]}},
{"type":"Feature","id":"337523758","properties":{"josm":"n337523758","name":"Лохвиця","population":"12307","region":"Полтавська область","koatuu":"5322610100"},"geometry":{"type":"Point","coordinates":[33.26716,50.35699]}},
{"type":"Feature","id":"256613914","properties":{"josm":"n256613914","name":"Дворец пионеров","population":"11996","region":"Донецька область","koatuu":"1413270600"},"geometry":{"type":"Point","coordinates":[37.20334,48.35431]}},
{"type":"Feature","id":"337592920","properties":{"josm":"n337592920","name":"Зимогір’я","population":"10148","region":"Луганська область","koatuu":"4424510300"},"geometry":{"type":"Point","coordinates":[38.92778,48.5856]}},
{"type":"Feature","id":"248778046","properties":{"josm":"n248778046","name":"Христинівка","population":"8671","region":"Черкаська область","koatuu":"7124610100"},"geometry":{"type":"Point","coordinates":[29.96822,48.81824]}},
{"type":"Feature","id":"337588316","properties":{"josm":"n337588316","name":"Слов’яносербськ","population":"8065","region":"Луганська область","koatuu":"4424555100"},"geometry":{"type":"Point","coordinates":[38.98626,48.69466]}},
{"type":"Feature","id":"337560536","properties":{"josm":"n337560536","name":"Савинці","population":"6830","region":"Харківська область","koatuu":"6320255700"},"geometry":{"type":"Point","coordinates":[37.05036,49.39625]}},
{"type":"Feature","id":"337562386","properties":{"josm":"n337562386","name":"Турбів","population":"6558","region":"Вінницька область","koatuu":"0522255500"},"geometry":{"type":"Point","coordinates":[28.72607,49.33994]}},
{"type":"Feature","id":"337584961","properties":{"josm":"n337584961","name":"Петропавлівка","population":"4981","region":"Луганська область","koatuu":"4424855400"},"geometry":{"type":"Point","coordinates":[39.26685,48.80813]}},
{"type":"Feature","id":"337534123","properties":{"josm":"n337534123","name":"Миропіль","population":"4834","region":"Житомирська область","koatuu":"1821455600"},"geometry":{"type":"Point","coordinates":[27.69746,50.1099]}},
{"type":"Feature","id":"337577787","properties":{"josm":"n337577787","name":"Єрки","population":"4360","region":"Черкаська область","koatuu":"7122255400"},"geometry":{"type":"Point","coordinates":[30.99449,48.98357]}},
{"type":"Feature","id":"337573271","properties":{"josm":"n337573271","name":"Цибулів","population":"3800","region":"Черкаська область","koatuu":"7123455500"},"geometry":{"type":"Point","coordinates":[29.84555,49.07544]}},
{"type":"Feature","id":"337598517","properties":{"josm":"n337598517","name":"Южна Ломуватка","population":"3408","region":"Луганська область","koatuu":"4410546500"},"geometry":{"type":"Point","coordinates":[38.53206,48.43785]}},
{"type":"Feature","id":"337590283","properties":{"josm":"n337590283","name":"Сентянівка","population":"3321","region":"Луганська область","koatuu":"4424556200"},"geometry":{"type":"Point","coordinates":[38.76016,48.6694]}},
{"type":"Feature","id":"337567024","properties":{"josm":"n337567024","name":"Вільшана","population":"3256","region":"Черкаська область","koatuu":"7120355400"},"geometry":{"type":"Point","coordinates":[31.21204,49.21651]}},
{"type":"Feature","id":"337596730","properties":{"josm":"n337596730","name":"Михайлівка","population":"2467","region":"Луганська область","koatuu":"4423656400"},"geometry":{"type":"Point","coordinates":[38.90671,48.49228]}},
{"type":"Feature","id":"337587920","properties":{"josm":"n337587920","name":"Новотошківське","population":"2349","region":"Луганська область","koatuu":"4423857900"},"geometry":{"type":"Point","coordinates":[38.63157,48.7226]}},
{"type":"Feature","id":"337600321","properties":{"josm":"n337600321","name":"Комісарівка","population":"1785","region":"Луганська область","koatuu":"4423656100"},"geometry":{"type":"Point","coordinates":[38.53398,48.39074]}},
{"type":"Feature"}
]}
