{
"type": "FeatureCollection",
"errorDescr": "Border not found",
"features": [
{"type":"Feature","id":"337592920","properties":{"josm":"n337592920","name":"Зимогір’я","population":"10148","region":"Луганська область","koatuu":"4424510300"},"geometry":{"type":"Point","coordinates":[38.92731,48.58566]}},
{"type":"Feature","id":"337588316","properties":{"josm":"n337588316","name":"Слов’яносербськ","population":"8065","region":"Луганська область","koatuu":"4424555100"},"geometry":{"type":"Point","coordinates":[38.98626,48.69466]}},
{"type":"Feature","id":"337537581","properties":{"josm":"n337537581","name":"Білогір’я","population":"5483","region":"Хмельницька область","koatuu":"6820355100"},"geometry":{"type":"Point","coordinates":[26.4198,50.00126]}},
{"type":"Feature","id":"337589041","properties":{"josm":"n337589041","name":"Донецький","population":"3783","region":"Луганська область","koatuu":"4411045300"},"geometry":{"type":"Point","coordinates":[38.65446,48.70301]}},
{"type":"Feature","id":"337590283","properties":{"josm":"n337590283","name":"Фрунзе","population":"3321","region":"Луганська область","koatuu":"4424556200"},"geometry":{"type":"Point","coordinates":[38.76016,48.6694]}},
{"type":"Feature","id":"337587920","properties":{"josm":"n337587920","name":"Новотошківське","population":"2349","region":"Луганська область","koatuu":"4423857900"},"geometry":{"type":"Point","coordinates":[38.63157,48.7226]}},
{"type":"Feature","id":"337592700","properties":{"josm":"n337592700","name":"Червоногвардійське","population":"1444","region":"Луганська область","koatuu":"4411045700"},"geometry":{"type":"Point","coordinates":[38.75303,48.59451]}},
{"type":"Feature","id":"337587221","properties":{"josm":"n337587221","name":"Врубівка","population":"1030","region":"Луганська область","koatuu":"4423856200"},"geometry":{"type":"Point","coordinates":[38.38655,48.73887]}},
{"type":"Feature"}
]}
