{
"type": "FeatureCollection",
"errorDescr": "Highways not found",
"features": [
{"type":"Feature","id":"337524719","properties":{"josm":"n337524719","name":"Хижнякове","population":"","region":"Харківська область","koatuu":"6321686808"},"geometry":{"type":"Point","coordinates":[37.46119,50.31072]}},
{"type":"Feature","id":"337541386","properties":{"josm":"n337541386","name":"Дакалівка","population":"","region":"Полтавська область","koatuu":"5320285303"},"geometry":{"type":"Point","coordinates":[33.78112,49.89353]}},
{"type":"Feature","id":"337594028","properties":{"josm":"n337594028","name":"Береги","population":"211","region":"Закарпатська область","koatuu":"2122487202"},"geometry":{"type":"Point","coordinates":[23.70732,48.55487]}},
{"type":"Feature","id":"337596814","properties":{"josm":"n337596814","name":"Заверхня Кичера","population":"164","region":"Закарпатська область","koatuu":"2122486902"},"geometry":{"type":"Point","coordinates":[23.66695,48.4885]}},
{"type":"Feature","id":"337663702","properties":{"josm":"n337663702","name":"Стовпні","population":"63","region":"Івано-Франківська область","koatuu":"2620886503"},"geometry":{"type":"Point","coordinates":[24.82578,48.00255]}},
{"type":"Feature","id":"337688803","properties":{"josm":"n337688803","name":"Білярі","population":"234","region":"Одеська область","koatuu":"5122755401"},"geometry":{"type":"Point","coordinates":[31.03118,46.6227]}},
{"type":"Feature","id":"337693390","properties":{"josm":"n337693390","name":"Вітвисте","population":"","region":"Автономна Республіка Крим","koatuu":"0121180602"},"geometry":{"type":"Point","coordinates":[34.42687,45.79564]}},
{"type":"Feature","id":"6616977633","properties":{"josm":"n6616977633","name":"Усть-Турбат","population":"","region":"Закарпатська область","koatuu":""},"geometry":{"type":"Point","coordinates":[24.05139,48.41354]}},
{"type":"Feature","id":"6616977634","properties":{"josm":"n6616977634","name":"Гаєнка","population":"","region":"Закарпатська область","koatuu":""},"geometry":{"type":"Point","coordinates":[24.04732,48.42883]}},
{"type":"Feature","id":"6616977635","properties":{"josm":"n6616977635","name":"Усть-Плайська","population":"","region":"Закарпатська область","koatuu":""},"geometry":{"type":"Point","coordinates":[24.04572,48.43795]}},
{"type":"Feature","id":"6616977636","properties":{"josm":"n6616977636","name":"Плайська","population":"","region":"Закарпатська область","koatuu":""},"geometry":{"type":"Point","coordinates":[24.0564,48.44374]}},
{"type":"Feature","id":"6616977637","properties":{"josm":"n6616977637","name":"ур.Мiст-Мармара","population":"","region":"Закарпатська область","koatuu":""},"geometry":{"type":"Point","coordinates":[24.06955,48.45559]}},
{"type":"Feature","id":"6616977638","properties":{"josm":"n6616977638","name":"Podezurnyj","population":"","region":"Закарпатська область","koatuu":""},"geometry":{"type":"Point","coordinates":[24.08894,48.45951]}},
{"type":"Feature","id":"6616977639","properties":{"josm":"n6616977639","name":"Perekrestnyj","population":"","region":"Закарпатська область","koatuu":""},"geometry":{"type":"Point","coordinates":[24.09432,48.46503]}},
{"type":"Feature","id":"6616977640","properties":{"josm":"n6616977640","name":"Komarnik","population":"","region":"Закарпатська область","koatuu":""},"geometry":{"type":"Point","coordinates":[24.10053,48.47476]}},
{"type":"Feature"}
]}
