{
"type": "FeatureCollection",
"errorDescr": "Highways not found",
"features": [
{"type":"Feature","id":"337522064","properties":{"josm":"n337522064","name":"Травневе","population":"151","region":"Рівненська область","koatuu":"5621682609"},"geometry":{"type":"Point","coordinates":[26.06099,50.41842]}},
{"type":"Feature","id":"337528442","properties":{"josm":"n337528442","name":"Луб’янка","population":"280","region":"Київська область","koatuu":"3221484701"},"geometry":{"type":"Point","coordinates":[30.44429,50.14423]}},
{"type":"Feature","id":"337535449","properties":{"josm":"n337535449","name":"Покровщина","population":"232","region":"Полтавська область","koatuu":"5320883704"},"geometry":{"type":"Point","coordinates":[32.44503,50.06744]}},
{"type":"Feature","id":"337545810","properties":{"josm":"n337545810","name":"Красна Чапліївка","population":"39","region":"Луганська область","koatuu":"4425485006"},"geometry":{"type":"Point","coordinates":[38.57059,49.7636]}},
{"type":"Feature","id":"337546811","properties":{"josm":"n337546811","name":"Першотравневе","population":"","region":"Харківська область","koatuu":"6321883504"},"geometry":{"type":"Point","coordinates":[37.91313,49.7406]}},
{"type":"Feature","id":"337553038","properties":{"josm":"n337553038","name":"Тев’яшеве","population":"22","region":"Луганська область","koatuu":"4423384705"},"geometry":{"type":"Point","coordinates":[39.03202,49.60293]}},
{"type":"Feature","id":"337557518","properties":{"josm":"n337557518","name":"Луб’янка","population":"494","region":"Луганська область","koatuu":"4420981503"},"geometry":{"type":"Point","coordinates":[38.76766,49.48345]}},
{"type":"Feature","id":"337563080","properties":{"josm":"n337563080","name":"Пустовійтове","population":"1283","region":"Полтавська область","koatuu":"5320687601"},"geometry":{"type":"Point","coordinates":[33.38004,49.33659]}},
{"type":"Feature","id":"337581891","properties":{"josm":"n337581891","name":"Молодецьке","population":"1714","region":"Черкаська область","koatuu":"7123185501"},"geometry":{"type":"Point","coordinates":[30.38956,48.87783]}},
{"type":"Feature","id":"337582649","properties":{"josm":"n337582649","name":"Зубківка","population":"56","region":"Дніпропетровська область","koatuu":"1225685003"},"geometry":{"type":"Point","coordinates":[34.37108,48.86689]}},
{"type":"Feature","id":"337596619","properties":{"josm":"n337596619","name":"Корнешти","population":"162","region":"Чернівецька область","koatuu":"7325088005"},"geometry":{"type":"Point","coordinates":[26.17733,48.49502]}},
{"type":"Feature","id":"337605802","properties":{"josm":"n337605802","name":"Олександрівка","population":"275","region":"Дніпропетровська область","koatuu":"1222682202"},"geometry":{"type":"Point","coordinates":[36.65109,48.24026]}},
{"type":"Feature","id":"337676289","properties":{"josm":"n337676289","name":"Цеханівка","population":"323","region":"Одеська область","koatuu":"5123185201"},"geometry":{"type":"Point","coordinates":[29.19865,47.44819]}},
{"type":"Feature","id":"337692167","properties":{"josm":"n337692167","name":"Малоярославець Перший","population":"598","region":"Одеська область","koatuu":"5124789402"},"geometry":{"type":"Point","coordinates":[29.00501,46.08117]}},
{"type":"Feature","id":"2906373822","properties":{"josm":"n2906373822","name":"Горб","population":"","region":"Закарпатська область","koatuu":"2122482103"},"geometry":{"type":"Point","coordinates":[23.72512,48.44346]}},
{"type":"Feature","id":"2906820631","properties":{"josm":"n2906820631","name":"Піщане","population":"26","region":"Харківська область","koatuu":"6321684607"},"geometry":{"type":"Point","coordinates":[37.35859,50.42973]}},
{"type":"Feature","id":"2914536980","properties":{"josm":"n2914536980","name":"Новоіванівка","population":"32","region":"Запорізька область","koatuu":"2320683503"},"geometry":{"type":"Point","coordinates":[36.86883,46.98925]}},
{"type":"Feature","id":"2919001072","properties":{"josm":"n2919001072","name":"Іванівка","population":"192","region":"Харківська область","koatuu":"6320888306"},"geometry":{"type":"Point","coordinates":[35.44035,50.28838]}},
{"type":"Feature","id":"2926604005","properties":{"josm":"n2926604005","name":"Новоюр’ївка","population":"","region":"Миколаївська область","koatuu":"4824583401"},"geometry":{"type":"Point","coordinates":[32.68316,47.62936]}},
{"type":"Feature","id":"2926626344","properties":{"josm":"n2926626344","name":"Петроселівка","population":"","region":"Полтавська область","koatuu":"5320480408"},"geometry":{"type":"Point","coordinates":[33.83156,50.33106]}},
{"type":"Feature","id":"2926627090","properties":{"josm":"n2926627090","name":"Тойбік","population":"","region":"Полтавська область","koatuu":"5325481603"},"geometry":{"type":"Point","coordinates":[34.98984,49.63703]}},
{"type":"Feature","id":"2926771659","properties":{"josm":"n2926771659","name":"Нова Гута","population":"","region":"Черкаська область","koatuu":"7122088905"},"geometry":{"type":"Point","coordinates":[31.49052,49.67647]}},
{"type":"Feature"}
]}
