{
"type": "FeatureCollection",
"errorDescr": "Highways not found",
"features": [
{"type":"Feature","id":"337528442","properties":{"josm":"n337528442","name":"Луб’янка","population":"280","region":"Київська область","koatuu":"3221484701"},"geometry":{"type":"Point","coordinates":[30.44429,50.14423]}},
{"type":"Feature","id":"337545810","properties":{"josm":"n337545810","name":"Красна Чапліївка","population":"39","region":"Луганська область","koatuu":"4425485006"},"geometry":{"type":"Point","coordinates":[38.57059,49.7636]}},
{"type":"Feature","id":"337552236","properties":{"josm":"n337552236","name":"Рогове","population":"706","region":"Луганська область","koatuu":"4423387001"},"geometry":{"type":"Point","coordinates":[39.03683,49.62181]}},
{"type":"Feature","id":"337553038","properties":{"josm":"n337553038","name":"Тев’яшеве","population":"22","region":"Луганська область","koatuu":"4423384705"},"geometry":{"type":"Point","coordinates":[39.03202,49.60293]}},
{"type":"Feature","id":"337563080","properties":{"josm":"n337563080","name":"Пустовійтове","population":"1283","region":"Полтавська область","koatuu":"5320687601"},"geometry":{"type":"Point","coordinates":[33.38004,49.33659]}},
{"type":"Feature","id":"337582649","properties":{"josm":"n337582649","name":"Зубківка","population":"56","region":"Дніпропетровська область","koatuu":"1225685003"},"geometry":{"type":"Point","coordinates":[34.37108,48.86689]}},
{"type":"Feature","id":"337605802","properties":{"josm":"n337605802","name":"Олександрівка","population":"275","region":"Дніпропетровська область","koatuu":"1222682202"},"geometry":{"type":"Point","coordinates":[36.65109,48.24026]}},
{"type":"Feature","id":"337661427","properties":{"josm":"n337661427","name":"Замогила","population":"416","region":"Чернівецька область","koatuu":"7323580503"},"geometry":{"type":"Point","coordinates":[25.09552,48.0463]}},
{"type":"Feature","id":"337664897","properties":{"josm":"n337664897","name":"Фошки","population":"417","region":"Чернівецька область","koatuu":"7323585005"},"geometry":{"type":"Point","coordinates":[25.20916,47.95429]}},
{"type":"Feature","id":"2906373822","properties":{"josm":"n2906373822","name":"Горб","population":"","region":"Закарпатська область","koatuu":"2122482103"},"geometry":{"type":"Point","coordinates":[23.72512,48.44346]}},
{"type":"Feature","id":"2914536980","properties":{"josm":"n2914536980","name":"Новоіванівка","population":"32","region":"Запорізька область","koatuu":"2320683503"},"geometry":{"type":"Point","coordinates":[36.86883,46.98925]}},
{"type":"Feature","id":"2926626344","properties":{"josm":"n2926626344","name":"Петроселівка","population":"","region":"Полтавська область","koatuu":"5320480408"},"geometry":{"type":"Point","coordinates":[33.83156,50.33106]}},
{"type":"Feature","id":"2926627090","properties":{"josm":"n2926627090","name":"Тойбік","population":"","region":"Полтавська область","koatuu":"5325481603"},"geometry":{"type":"Point","coordinates":[34.98984,49.63703]}},
{"type":"Feature"}
]}
