{
"type": "FeatureCollection",
"features": [
{"type":"Feature","id":"337509357","properties":{"josm":"n337509357","name":"Сташки"},"geometry":{"type":"Point","coordinates":[28.81977,51.3409]}},
{"type":"Feature","id":"337527740","properties":{"josm":"n337527740","name":"Рідний Край"},"geometry":{"type":"Point","coordinates":[35.89783,50.16254]}},
{"type":"Feature","id":"337551255","properties":{"josm":"n337551255","name":"Мосьпанове"},"geometry":{"type":"Point","coordinates":[36.74892,49.64172]}},
{"type":"Feature","id":"337555664","properties":{"josm":"n337555664","name":"Жовтневе"},"geometry":{"type":"Point","coordinates":[36.71258,49.53307]}},
{"type":"Feature","id":"337696357","properties":{"josm":"n337696357","name":"Рибне"},"geometry":{"type":"Point","coordinates":[35.64174,45.3212]}},
{"type":"Feature","id":"2428501024","properties":{"josm":"n2428501024","name":"Кирдани"},"geometry":{"type":"Point","coordinates":[28.78429,51.34244]}},
{"type":"Feature"}
]}
