{
"type": "FeatureCollection",
"errorDescr": "Highways not found",
"features": [
{"type":"Feature","id":"256614140","properties":{"josm":"n256614140","name":"Кищенко","population":"36","region":"Донецька область","koatuu":"1415390009"},"geometry":{"type":"Point","coordinates":[38.46731,48.08754]}},
{"type":"Feature","id":"337516273","properties":{"josm":"n337516273","name":"Коршаки","population":"36","region":"Чернігівська область","koatuu":"7421784402"},"geometry":{"type":"Point","coordinates":[32.21346,50.80973]}},
{"type":"Feature","id":"337527720","properties":{"josm":"n337527720","name":"Руденька","population":"37","region":"Житомирська область","koatuu":"1822080603"},"geometry":{"type":"Point","coordinates":[28.32962,50.16357]}},
{"type":"Feature","id":"337551806","properties":{"josm":"n337551806","name":"Безпалівка","population":"32","region":"Харківська область","koatuu":"6321786003"},"geometry":{"type":"Point","coordinates":[36.23042,49.63065]}},
{"type":"Feature","id":"337559350","properties":{"josm":"n337559350","name":"Новоплатонівка","population":"460","region":"Харківська область","koatuu":"6321055102"},"geometry":{"type":"Point","coordinates":[37.64534,49.43333]}},
{"type":"Feature","id":"337566792","properties":{"josm":"n337566792","name":"Вільне","population":"22","region":"Харківська область","koatuu":"6323181302"},"geometry":{"type":"Point","coordinates":[35.78213,49.22321]}},
{"type":"Feature","id":"337596814","properties":{"josm":"n337596814","name":"Заверхня Кичера","population":"164","region":"Закарпатська область","koatuu":"2122486902"},"geometry":{"type":"Point","coordinates":[23.66695,48.4885]}},
{"type":"Feature","id":"337669391","properties":{"josm":"n337669391","name":"Андріївка","population":"34","region":"Миколаївська область","koatuu":"4823680803"},"geometry":{"type":"Point","coordinates":[32.63791,47.80381]}},
{"type":"Feature","id":"337671034","properties":{"josm":"n337671034","name":"Юр’ївка","population":"133","region":"Миколаївська область","koatuu":"4822380806"},"geometry":{"type":"Point","coordinates":[30.56507,47.72627]}},
{"type":"Feature","id":"337673757","properties":{"josm":"n337673757","name":"Шевченко","population":"33","region":"Миколаївська область","koatuu":"4822781207"},"geometry":{"type":"Point","coordinates":[30.84703,47.61079]}},
{"type":"Feature","id":"337674882","properties":{"josm":"n337674882","name":"Новоолександрівка","population":"54","region":"Миколаївська область","koatuu":"4820680803"},"geometry":{"type":"Point","coordinates":[32.21803,47.53447]}},
{"type":"Feature","id":"337675402","properties":{"josm":"n337675402","name":"Новоочаків","population":"496","region":"Миколаївська область","koatuu":"4821183801"},"geometry":{"type":"Point","coordinates":[32.81888,47.50701]}},
{"type":"Feature","id":"337675484","properties":{"josm":"n337675484","name":"Старогорожене","population":"1077","region":"Миколаївська область","koatuu":"4820685601"},"geometry":{"type":"Point","coordinates":[32.34291,47.49155]}},
{"type":"Feature","id":"337676415","properties":{"josm":"n337676415","name":"Нововолодимирівка","population":"699","region":"Миколаївська область","koatuu":"4821183550"},"geometry":{"type":"Point","coordinates":[32.72953,47.4443]}},
{"type":"Feature","id":"337678853","properties":{"josm":"n337678853","name":"Новоандріївка","population":"173","region":"Миколаївська область","koatuu":"4824286050"},"geometry":{"type":"Point","coordinates":[31.62837,47.31339]}},
{"type":"Feature","id":"337679563","properties":{"josm":"n337679563","name":"Бондарівка","population":"152","region":"Миколаївська область","koatuu":"4821755501"},"geometry":{"type":"Point","coordinates":[31.05256,47.27519]}},
{"type":"Feature","id":"337679777","properties":{"josm":"n337679777","name":"Висунськ","population":"2191","region":"Миколаївська область","koatuu":"4821180701"},"geometry":{"type":"Point","coordinates":[32.82355,47.2632]}},
{"type":"Feature","id":"337684214","properties":{"josm":"n337684214","name":"Новокондакове","population":"530","region":"Миколаївська область","koatuu":"4825782705"},"geometry":{"type":"Point","coordinates":[32.84105,47.00051]}},
{"type":"Feature","id":"337684862","properties":{"josm":"n337684862","name":"Мирне","population":"285","region":"Миколаївська область","koatuu":"4824282707"},"geometry":{"type":"Point","coordinates":[31.61654,46.94566]}},
{"type":"Feature","id":"337685387","properties":{"josm":"n337685387","name":"Галаганівка","population":"560","region":"Миколаївська область","koatuu":"4825782703"},"geometry":{"type":"Point","coordinates":[32.8269,46.9064]}},
{"type":"Feature","id":"337689662","properties":{"josm":"n337689662","name":"Покровка","population":"229","region":"Миколаївська область","koatuu":"4825183201"},"geometry":{"type":"Point","coordinates":[31.68976,46.48036]}},
{"type":"Feature"}
]}
