{
"type": "FeatureCollection",
"features": [
{"type":"Feature","id":"337526463","properties":{"josm":"n337526463","name":"Руська Гута"},"geometry":{"type":"Point","coordinates":[26.12694,50.22943]}},
{"type":"Feature","id":"337534535","properties":{"josm":"n337534535","name":"Круголець"},"geometry":{"type":"Point","coordinates":[26.09612,50.10061]}},
{"type":"Feature","id":"337535522","properties":{"josm":"n337535522","name":"Соснівка"},"geometry":{"type":"Point","coordinates":[25.99052,50.07863]}},
{"type":"Feature","id":"337535802","properties":{"josm":"n337535802","name":"Куликів"},"geometry":{"type":"Point","coordinates":[25.60052,50.07034]}},
{"type":"Feature","id":"337537370","properties":{"josm":"n337537370","name":"Темногайці"},"geometry":{"type":"Point","coordinates":[25.97422,50.00052]}},
{"type":"Feature","id":"337549238","properties":{"josm":"n337549238","name":"Грабківці"},"geometry":{"type":"Point","coordinates":[25.11439,49.70391]}},
{"type":"Feature","id":"337556991","properties":{"josm":"n337556991","name":"Гиновичі"},"geometry":{"type":"Point","coordinates":[24.93831,49.50066]}},
{"type":"Feature","id":"337557587","properties":{"josm":"n337557587","name":"Чернилівка"},"geometry":{"type":"Point","coordinates":[26.15354,49.4741]}},
{"type":"Feature","id":"337560102","properties":{"josm":"n337560102","name":"Ішків"},"geometry":{"type":"Point","coordinates":[25.3499,49.40696]}},
{"type":"Feature","id":"337561020","properties":{"josm":"n337561020","name":"Червоне"},"geometry":{"type":"Point","coordinates":[24.88953,49.38084]}},
{"type":"Feature","id":"337561166","properties":{"josm":"n337561166","name":"Маковисько"},"geometry":{"type":"Point","coordinates":[25.17639,49.38609]}},
{"type":"Feature","id":"337562206","properties":{"josm":"n337562206","name":"Раковець"},"geometry":{"type":"Point","coordinates":[25.36188,49.34949]}},
{"type":"Feature","id":"337562353","properties":{"josm":"n337562353","name":"Варваринці"},"geometry":{"type":"Point","coordinates":[25.60679,49.34721]}},
{"type":"Feature","id":"337562654","properties":{"josm":"n337562654","name":"Бернадівка"},"geometry":{"type":"Point","coordinates":[25.58471,49.32984]}},
{"type":"Feature","id":"337569336","properties":{"josm":"n337569336","name":"Вербівці"},"geometry":{"type":"Point","coordinates":[25.62274,49.15969]}},
{"type":"Feature","id":"337572142","properties":{"josm":"n337572142","name":"Рукомиш"},"geometry":{"type":"Point","coordinates":[25.38531,49.09788]}},
{"type":"Feature","id":"337594179","properties":{"josm":"n337594179","name":"Дзвенигород"},"geometry":{"type":"Point","coordinates":[26.27454,48.54435]}},
{"type":"Feature","id":"337594254","properties":{"josm":"n337594254","name":"Боришківці"},"geometry":{"type":"Point","coordinates":[26.35722,48.55621]}},
{"type":"Feature","id":"337596494","properties":{"josm":"n337596494","name":"Вила"},"geometry":{"type":"Point","coordinates":[28.42964,48.49304]}},
{"type":"Feature","id":"337600766","properties":{"josm":"n337600766","name":"Голубече"},"geometry":{"type":"Point","coordinates":[28.84618,48.37156]}},
{"type":"Feature","id":"2450407484","properties":{"josm":"n2450407484","name":"Верняки"},"geometry":{"type":"Point","coordinates":[25.74222,49.63889]}},
{"type":"Feature","id":"2450413100","properties":{"josm":"n2450413100","name":"Гаї-Гречинські"},"geometry":{"type":"Point","coordinates":[25.65528,49.57583]}},
{"type":"Feature","id":"2450560723","properties":{"josm":"n2450560723","name":"Плесківці"},"geometry":{"type":"Point","coordinates":[25.43639,49.70028]}},
{"type":"Feature","id":"2473956819","properties":{"josm":"n2473956819","name":"Клепівка"},"geometry":{"type":"Point","coordinates":[26.19959,48.89301]}}
]}
