{
"type": "FeatureCollection",
"features": [
{"type":"Feature","id":"337577557","properties":{"josm":"n337577557","name":"Затишне"},"geometry":{"type":"Point","coordinates":[25.1274,48.99766]}},
{"type":"Feature","id":"337590148","properties":{"josm":"n337590148","name":"Федорівка"},"geometry":{"type":"Point","coordinates":[36.60736,48.67337]}},
{"type":"Feature","id":"337696357","properties":{"josm":"n337696357","name":"Рибне"},"geometry":{"type":"Point","coordinates":[35.64174,45.3212]}},
{"type":"Feature","id":"2640927348","properties":{"josm":"n2640927348","name":"Верхній Росул"},"geometry":{"type":"Point","coordinates":[23.62004,48.11497]}},
{"type":"Feature","id":"2640927349","properties":{"josm":"n2640927349","name":"Нижній Росул"},"geometry":{"type":"Point","coordinates":[23.60358,48.09646]}},
{"type":"Feature"}
]}
