{
"type": "FeatureCollection",
"errorDescr": "Highways not found",
"features": [
{"type":"Feature","id":"256614140","properties":{"josm":"n256614140","name":"Кищенко","population":"36","region":"Донецька область","koatuu":"1415390009"},"geometry":{"type":"Point","coordinates":[38.46731,48.08754]}},
{"type":"Feature","id":"337596814","properties":{"josm":"n337596814","name":"Заверхня Кичера","population":"164","region":"Закарпатська область","koatuu":"2122486902"},"geometry":{"type":"Point","coordinates":[23.66695,48.4885]}},
{"type":"Feature","id":"2218020388","properties":{"josm":"n2218020388","name":"Коліньки","population":"","region":"Полтавська область","koatuu":"5324281506"},"geometry":{"type":"Point","coordinates":[33.94111,49.70139]}},
{"type":"Feature","id":"6616977633","properties":{"josm":"n6616977633","name":"Ust Turbat","population":"","region":"Закарпатська область","koatuu":""},"geometry":{"type":"Point","coordinates":[24.05139,48.41354]}},
{"type":"Feature","id":"6616977634","properties":{"josm":"n6616977634","name":"Hajenka","population":"","region":"Закарпатська область","koatuu":""},"geometry":{"type":"Point","coordinates":[24.04732,48.42883]}},
{"type":"Feature","id":"6616977635","properties":{"josm":"n6616977635","name":"Ust Plajska","population":"","region":"Закарпатська область","koatuu":""},"geometry":{"type":"Point","coordinates":[24.04572,48.43795]}},
{"type":"Feature","id":"6616977636","properties":{"josm":"n6616977636","name":"Plajska","population":"","region":"Закарпатська область","koatuu":""},"geometry":{"type":"Point","coordinates":[24.0564,48.44374]}},
{"type":"Feature","id":"6616977637","properties":{"josm":"n6616977637","name":"Marmur","population":"","region":"Закарпатська область","koatuu":""},"geometry":{"type":"Point","coordinates":[24.06955,48.45559]}},
{"type":"Feature","id":"6616977638","properties":{"josm":"n6616977638","name":"Podezurnyj","population":"","region":"Закарпатська область","koatuu":""},"geometry":{"type":"Point","coordinates":[24.08894,48.45951]}},
{"type":"Feature","id":"6616977639","properties":{"josm":"n6616977639","name":"Perekrestnyj","population":"","region":"Закарпатська область","koatuu":""},"geometry":{"type":"Point","coordinates":[24.09432,48.46503]}},
{"type":"Feature","id":"6616977640","properties":{"josm":"n6616977640","name":"Komarnik","population":"","region":"Закарпатська область","koatuu":""},"geometry":{"type":"Point","coordinates":[24.10053,48.47476]}},
{"type":"Feature"}
]}
