{
"type": "FeatureCollection",
"errorDescr": "Highways not found",
"features": [
{"type":"Feature","id":"337681273","properties":{"josm":"n337681273","name":"Морозівка"},"geometry":{"type":"Point","coordinates":[31.82757,47.17243]}},
{"type":"Feature","id":"1819209280","properties":{"josm":"n1819209280","name":"Переселення"},"geometry":{"type":"Point","coordinates":[30.79089,49.89231]}},
{"type":"Feature","id":"2906373822","properties":{"josm":"n2906373822","name":"Горб"},"geometry":{"type":"Point","coordinates":[23.72512,48.44346]}},
{"type":"Feature","id":"2906405296","properties":{"josm":"n2906405296","name":"Пекалів"},"geometry":{"type":"Point","coordinates":[25.67439,50.45869]}},
{"type":"Feature","id":"2906820631","properties":{"josm":"n2906820631","name":"Піщане"},"geometry":{"type":"Point","coordinates":[37.35859,50.42973]}},
{"type":"Feature"}
]}
