{
"type": "FeatureCollection",
"errorDescr": "Highways not found",
"features": [
{"type":"Feature","id":"337563080","properties":{"josm":"n337563080","name":"Пустовійтове","population":"1283","region":"Полтавська область","koatuu":"5320687601"},"geometry":{"type":"Point","coordinates":[33.38004,49.33659]}},
{"type":"Feature","id":"337524477","properties":{"josm":"n337524477","name":"Дитиничі","population":"489","region":"Рівненська область","koatuu":"5621685205"},"geometry":{"type":"Point","coordinates":[25.73743,50.33443]}},
{"type":"Feature","id":"337687724","properties":{"josm":"n337687724","name":"Дальнє","population":"244","region":"Херсонська область","koatuu":"6523884503"},"geometry":{"type":"Point","coordinates":[34.05933,46.7173]}},
{"type":"Feature","id":"337511536","properties":{"josm":"n337511536","name":"Волоша","population":"220","region":"Рівненська область","koatuu":"5625483902"},"geometry":{"type":"Point","coordinates":[26.41551,51.13027]}},
{"type":"Feature","id":"337518332","properties":{"josm":"n337518332","name":"Яловичі","population":"202","region":"Рівненська область","koatuu":"5623889806"},"geometry":{"type":"Point","coordinates":[25.39024,50.65656]}},
{"type":"Feature","id":"2919001072","properties":{"josm":"n2919001072","name":"Іванівка","population":"192","region":"Харківська область","koatuu":"6320888306"},"geometry":{"type":"Point","coordinates":[35.44035,50.28838]}},
{"type":"Feature","id":"337524078","properties":{"josm":"n337524078","name":"Бондарі","population":"171","region":"Рівненська область","koatuu":"5621688203"},"geometry":{"type":"Point","coordinates":[25.95417,50.34176]}},
{"type":"Feature","id":"337556396","properties":{"josm":"n337556396","name":"Ікове","population":"132","region":"Луганська область","koatuu":"4423384702"},"geometry":{"type":"Point","coordinates":[39.09031,49.52474]}},
{"type":"Feature","id":"337524488","properties":{"josm":"n337524488","name":"Клюки","population":"121","region":"Рівненська область","koatuu":"5621685207"},"geometry":{"type":"Point","coordinates":[25.71363,50.32564]}},
{"type":"Feature","id":"337518443","properties":{"josm":"n337518443","name":"Чекно","population":"100","region":"Рівненська область","koatuu":"5623889807"},"geometry":{"type":"Point","coordinates":[25.38718,50.64591]}},
{"type":"Feature","id":"337586151","properties":{"josm":"n337586151","name":"Трибухівка","population":"81","region":"Хмельницька область","koatuu":"6821880604"},"geometry":{"type":"Point","coordinates":[26.92509,48.78136]}},
{"type":"Feature","id":"337582649","properties":{"josm":"n337582649","name":"Зубківка","population":"56","region":"Дніпропетровська область","koatuu":"1225685003"},"geometry":{"type":"Point","coordinates":[34.37108,48.86689]}},
{"type":"Feature","id":"2936021521","properties":{"josm":"n2936021521","name":"Петриківка","population":"45","region":"Дніпропетровська область","koatuu":"1220755108"},"geometry":{"type":"Point","coordinates":[35.90973,48.21895]}},
{"type":"Feature","id":"337556533","properties":{"josm":"n337556533","name":"Хворостяне","population":"43","region":"Луганська область","koatuu":"4423384706"},"geometry":{"type":"Point","coordinates":[39.05908,49.51647]}},
{"type":"Feature","id":"2914536980","properties":{"josm":"n2914536980","name":"Новоіванівка","population":"32","region":"Запорізька область","koatuu":"2320683503"},"geometry":{"type":"Point","coordinates":[36.86883,46.98925]}},
{"type":"Feature","id":"337523392","properties":{"josm":"n337523392","name":"Ясинівка","population":"28","region":"Рівненська область","koatuu":"5621688209"},"geometry":{"type":"Point","coordinates":[25.92237,50.35788]}},
{"type":"Feature","id":"2906820631","properties":{"josm":"n2906820631","name":"Піщане","population":"26","region":"Харківська область","koatuu":"6321684607"},"geometry":{"type":"Point","coordinates":[37.35859,50.42973]}},
{"type":"Feature","id":"337553038","properties":{"josm":"n337553038","name":"Тев’яшеве","population":"22","region":"Луганська область","koatuu":"4423384705"},"geometry":{"type":"Point","coordinates":[39.03202,49.60293]}},
{"type":"Feature","id":"337663235","properties":{"josm":"n337663235","name":"Новомар’ївка","population":"","region":"Миколаївська область","koatuu":"4821483901"},"geometry":{"type":"Point","coordinates":[31.50011,48.01011]}},
{"type":"Feature","id":"1342166737","properties":{"josm":"n1342166737","name":"Рассейка","population":"","region":"Одеська область","koatuu":""},"geometry":{"type":"Point","coordinates":[29.83767,45.65181]}},
{"type":"Feature","id":"2906373822","properties":{"josm":"n2906373822","name":"Горб","population":"","region":"Закарпатська область","koatuu":"2122482103"},"geometry":{"type":"Point","coordinates":[23.72512,48.44346]}},
{"type":"Feature","id":"2906405296","properties":{"josm":"n2906405296","name":"Пекалів","population":"","region":"Рівненська область","koatuu":"5623889406"},"geometry":{"type":"Point","coordinates":[25.67439,50.45869]}},
{"type":"Feature","id":"2926604005","properties":{"josm":"n2926604005","name":"Новоюр’ївка","population":"","region":"Миколаївська область","koatuu":"4824583401"},"geometry":{"type":"Point","coordinates":[32.68316,47.62936]}},
{"type":"Feature","id":"2926626344","properties":{"josm":"n2926626344","name":"Петроселівка","population":"","region":"Полтавська область","koatuu":"5320480408"},"geometry":{"type":"Point","coordinates":[33.83156,50.33106]}},
{"type":"Feature","id":"2926627090","properties":{"josm":"n2926627090","name":"Тойбік","population":"","region":"Полтавська область","koatuu":"5325481603"},"geometry":{"type":"Point","coordinates":[34.98984,49.63703]}},
{"type":"Feature","id":"2926771659","properties":{"josm":"n2926771659","name":"Нова Гута","population":"","region":"Черкаська область","koatuu":"7122088905"},"geometry":{"type":"Point","coordinates":[31.49052,49.67647]}},
{"type":"Feature"}
]}
