{
"type": "FeatureCollection",
"errorDescr": "Highways not found",
"features": [
{"type":"Feature","id":"256614140","properties":{"josm":"n256614140","name":"Кищенко","population":"36","region":"Донецька область","koatuu":"1415390009"},"geometry":{"type":"Point","coordinates":[38.46731,48.08754]}},
{"type":"Feature","id":"256617534","properties":{"josm":"n256617534","name":"Кузнеці","population":"0026","region":"Донецька область","koatuu":"1423686007"},"geometry":{"type":"Point","coordinates":[38.31916,47.27679]}},
{"type":"Feature","id":"337520810","properties":{"josm":"n337520810","name":"Копани","population":"219","region":"Рівненська область","koatuu":"5621684705"},"geometry":{"type":"Point","coordinates":[26.0424,50.49694]}},
{"type":"Feature","id":"337538233","properties":{"josm":"n337538233","name":"Кусторівка","population":"44","region":"Харківська область","koatuu":"6323581705"},"geometry":{"type":"Point","coordinates":[35.2771,49.98333]}},
{"type":"Feature","id":"337550983","properties":{"josm":"n337550983","name":"Княжне","population":"239","region":"Харківська область","koatuu":"6324284704"},"geometry":{"type":"Point","coordinates":[35.91911,49.64722]}},
{"type":"Feature","id":"337594151","properties":{"josm":"n337594151","name":"Вірне","population":"23","region":"Кіровоградська область","koatuu":"3521781003"},"geometry":{"type":"Point","coordinates":[31.06758,48.55354]}},
{"type":"Feature","id":"337681309","properties":{"josm":"n337681309","name":"Новоолександрівка","population":"961","region":"Миколаївська область","koatuu":"4820683701"},"geometry":{"type":"Point","coordinates":[32.44867,47.16652]}},
{"type":"Feature"}
]}
