{
"type": "FeatureCollection",
"features": [
{"type":"Feature","id":"337521144","properties":{"josm":"n337521144","name":"Бистріївка"},"geometry":{"type":"Point","coordinates":[29.16767,50.476]}},
{"type":"Feature","id":"337522365","properties":{"josm":"n337522365","name":"Широке"},"geometry":{"type":"Point","coordinates":[24.85425,50.4143]}},
{"type":"Feature","id":"337527740","properties":{"josm":"n337527740","name":"Рідний Край"},"geometry":{"type":"Point","coordinates":[35.89783,50.16254]}},
{"type":"Feature","id":"337555664","properties":{"josm":"n337555664","name":"Жовтневе"},"geometry":{"type":"Point","coordinates":[36.71258,49.53307]}},
{"type":"Feature","id":"337563892","properties":{"josm":"n337563892","name":"Островське"},"geometry":{"type":"Point","coordinates":[37.93035,49.29251]}},
{"type":"Feature","id":"337567325","properties":{"josm":"n337567325","name":"Красноярське"},"geometry":{"type":"Point","coordinates":[37.82526,49.20918]}},
{"type":"Feature","id":"337574617","properties":{"josm":"n337574617","name":"Калинівщина"},"geometry":{"type":"Point","coordinates":[25.69991,49.05136]}},
{"type":"Feature","id":"337577557","properties":{"josm":"n337577557","name":"Затишне"},"geometry":{"type":"Point","coordinates":[25.1274,48.99766]}},
{"type":"Feature","id":"337583605","properties":{"josm":"n337583605","name":"Вільне Друге"},"geometry":{"type":"Point","coordinates":[36.58183,48.84437]}},
{"type":"Feature","id":"337584240","properties":{"josm":"n337584240","name":"Слобода-Небилівська"},"geometry":{"type":"Point","coordinates":[24.25663,48.83039]}},
{"type":"Feature","id":"337590148","properties":{"josm":"n337590148","name":"Федорівка"},"geometry":{"type":"Point","coordinates":[36.60736,48.67337]}},
{"type":"Feature","id":"337696357","properties":{"josm":"n337696357","name":"Рибне"},"geometry":{"type":"Point","coordinates":[35.64174,45.3212]}},
{"type":"Feature","id":"2640927348","properties":{"josm":"n2640927348","name":"Верхній Росул"},"geometry":{"type":"Point","coordinates":[23.62004,48.11497]}},
{"type":"Feature","id":"2640927349","properties":{"josm":"n2640927349","name":"Нижній Росул"},"geometry":{"type":"Point","coordinates":[23.60358,48.09646]}},
{"type":"Feature"}
]}
