{
"type": "FeatureCollection",
"errorDescr": "Highways not found",
"features": [
{"type":"Feature","id":"256614140","properties":{"josm":"n256614140","name":"Кищенко","population":"36","region":"Донецька область","koatuu":"1415390009"},"geometry":{"type":"Point","coordinates":[38.46731,48.08754]}},
{"type":"Feature","id":"337527720","properties":{"josm":"n337527720","name":"Руденька","population":"37","region":"Житомирська область","koatuu":"1822080603"},"geometry":{"type":"Point","coordinates":[28.32962,50.16357]}},
{"type":"Feature","id":"337551806","properties":{"josm":"n337551806","name":"Безпалівка","population":"32","region":"Харківська область","koatuu":"6321786003"},"geometry":{"type":"Point","coordinates":[36.23042,49.63065]}},
{"type":"Feature","id":"337559350","properties":{"josm":"n337559350","name":"Новоплатонівка","population":"460","region":"Харківська область","koatuu":"6321055102"},"geometry":{"type":"Point","coordinates":[37.64534,49.43333]}},
{"type":"Feature","id":"337566792","properties":{"josm":"n337566792","name":"Вільне","population":"22","region":"Харківська область","koatuu":"6323181302"},"geometry":{"type":"Point","coordinates":[35.78213,49.22321]}},
{"type":"Feature","id":"337596814","properties":{"josm":"n337596814","name":"Заверхня Кичера","population":"164","region":"Закарпатська область","koatuu":"2122486902"},"geometry":{"type":"Point","coordinates":[23.66695,48.4885]}},
{"type":"Feature","id":"337665851","properties":{"josm":"n337665851","name":"Луканівка","population":"1131","region":"Миколаївська область","koatuu":"4823982201"},"geometry":{"type":"Point","coordinates":[30.45233,47.91826]}},
{"type":"Feature","id":"337669391","properties":{"josm":"n337669391","name":"Андріївка","population":"34","region":"Миколаївська область","koatuu":"4823680803"},"geometry":{"type":"Point","coordinates":[32.63791,47.80381]}},
{"type":"Feature","id":"337679563","properties":{"josm":"n337679563","name":"Бондарівка","population":"152","region":"Миколаївська область","koatuu":"4821755501"},"geometry":{"type":"Point","coordinates":[31.05256,47.27519]}},
{"type":"Feature","id":"337679777","properties":{"josm":"n337679777","name":"Висунськ","population":"2191","region":"Миколаївська область","koatuu":"4821180701"},"geometry":{"type":"Point","coordinates":[32.82355,47.2632]}},
{"type":"Feature","id":"337685387","properties":{"josm":"n337685387","name":"Галаганівка","population":"560","region":"Миколаївська область","koatuu":"4825782703"},"geometry":{"type":"Point","coordinates":[32.8269,46.9064]}},
{"type":"Feature","id":"337689662","properties":{"josm":"n337689662","name":"Покровка","population":"229","region":"Миколаївська область","koatuu":"4825183201"},"geometry":{"type":"Point","coordinates":[31.69384,46.49826]}},
{"type":"Feature"}
]}
