{
"type": "FeatureCollection",
"errorDescr": "Highways not found",
"features": [
{"type":"Feature","id":"27122099","properties":{"josm":"n27122099","name":"Красноград"},"geometry":{"type":"Point","coordinates":[35.44587,49.38007]}},
{"type":"Feature","id":"70950474","properties":{"josm":"n70950474","name":"Курахове"},"geometry":{"type":"Point","coordinates":[37.28264,47.98352]}},
{"type":"Feature","id":"111366726","properties":{"josm":"n111366726","name":"Чоп"},"geometry":{"type":"Point","coordinates":[22.20961,48.4311]}},
{"type":"Feature","id":"227045548","properties":{"josm":"n227045548","name":"Гадяч"},"geometry":{"type":"Point","coordinates":[33.99484,50.37016]}},
{"type":"Feature","id":"243034161","properties":{"josm":"n243034161","name":"Масаны"},"geometry":{"type":"Point","coordinates":[30.02166,51.50883]}},
{"type":"Feature","id":"248778046","properties":{"josm":"n248778046","name":"Христинівка"},"geometry":{"type":"Point","coordinates":[29.96822,48.81824]}},
{"type":"Feature","id":"249634482","properties":{"josm":"n249634482","name":"Мала Севастянівка"},"geometry":{"type":"Point","coordinates":[29.92017,48.79205]}},
{"type":"Feature","id":"249719662","properties":{"josm":"n249719662","name":"Ягубець"},"geometry":{"type":"Point","coordinates":[29.95319,48.7428]}},
{"type":"Feature","id":"249768184","properties":{"josm":"n249768184","name":"Багачівка"},"geometry":{"type":"Point","coordinates":[30.08625,48.86106]}},
{"type":"Feature","id":"249769123","properties":{"josm":"n249769123","name":"Ботвинівка"},"geometry":{"type":"Point","coordinates":[30.02616,48.95606]}},
{"type":"Feature","id":"249769670","properties":{"josm":"n249769670","name":"Гребля"},"geometry":{"type":"Point","coordinates":[30.06255,48.95723]}},
{"type":"Feature","id":"250970957","properties":{"josm":"n250970957","name":"Осітна"},"geometry":{"type":"Point","coordinates":[30.03421,48.65639]}},
{"type":"Feature","id":"252417658","properties":{"josm":"n252417658","name":"Івангород"},"geometry":{"type":"Point","coordinates":[29.81312,48.8023]}},
{"type":"Feature","id":"252417660","properties":{"josm":"n252417660","name":"Козаче"},"geometry":{"type":"Point","coordinates":[29.8962,48.80985]}},
{"type":"Feature","id":"252417663","properties":{"josm":"n252417663","name":"Заячківка"},"geometry":{"type":"Point","coordinates":[29.96212,48.71063]}},
{"type":"Feature","id":"252417664","properties":{"josm":"n252417664","name":"Сичівка"},"geometry":{"type":"Point","coordinates":[29.83747,48.79468]}},
{"type":"Feature","id":"254262743","properties":{"josm":"n254262743","name":"Трускавець"},"geometry":{"type":"Point","coordinates":[23.50634,49.27828]}},
{"type":"Feature","id":"256613669","properties":{"josm":"n256613669","name":"Вербова Балка"},"geometry":{"type":"Point","coordinates":[38.0793,47.83327]}},
{"type":"Feature","id":"256613670","properties":{"josm":"n256613670","name":"Гришки"},"geometry":{"type":"Point","coordinates":[37.99587,47.8791]}},
{"type":"Feature","id":"256613673","properties":{"josm":"n256613673","name":"Октябрське"},"geometry":{"type":"Point","coordinates":[37.99724,47.91172]}},
{"type":"Feature","id":"256613675","properties":{"josm":"n256613675","name":"Темрюк"},"geometry":{"type":"Point","coordinates":[37.98591,47.89558]}},
{"type":"Feature","id":"256613680","properties":{"josm":"n256613680","name":"Красна Гора"},"geometry":{"type":"Point","coordinates":[38.01527,48.66283]}},
{"type":"Feature","id":"256613683","properties":{"josm":"n256613683","name":"Соледар"},"geometry":{"type":"Point","coordinates":[38.115,48.67287]}},
{"type":"Feature","id":"256613746","properties":{"josm":"n256613746","name":"Гладосове"},"geometry":{"type":"Point","coordinates":[38.07655,48.42945]}},
{"type":"Feature","id":"256613750","properties":{"josm":"n256613750","name":"Михайлівка"},"geometry":{"type":"Point","coordinates":[37.97613,48.24474]}},
{"type":"Feature","id":"256613754","properties":{"josm":"n256613754","name":"Ставки"},"geometry":{"type":"Point","coordinates":[37.93613,48.25212]}},
{"type":"Feature","id":"256613798","properties":{"josm":"n256613798","name":"Світлодарськ"},"geometry":{"type":"Point","coordinates":[38.22349,48.43803]}},
{"type":"Feature","id":"256613799","properties":{"josm":"n256613799","name":"Диліївка"},"geometry":{"type":"Point","coordinates":[37.86146,48.43297]}},
{"type":"Feature","id":"256613802","properties":{"josm":"n256613802","name":"Горького"},"geometry":{"type":"Point","coordinates":[37.87519,48.42799]}},
{"type":"Feature","id":"256613804","properties":{"josm":"n256613804","name":"Ленінське"},"geometry":{"type":"Point","coordinates":[37.92077,48.35812]}},
{"type":"Feature","id":"256613809","properties":{"josm":"n256613809","name":"Леонідівка"},"geometry":{"type":"Point","coordinates":[37.79846,48.37151]}},
{"type":"Feature","id":"256613812","properties":{"josm":"n256613812","name":"Петрівка"},"geometry":{"type":"Point","coordinates":[37.78164,48.38585]}},
{"type":"Feature","id":"256613815","properties":{"josm":"n256613815","name":"Юр’ївка"},"geometry":{"type":"Point","coordinates":[37.83326,48.31446]}},
{"type":"Feature","id":"256613816","properties":{"josm":"n256613816","name":"Світле"},"geometry":{"type":"Point","coordinates":[37.22942,48.3048]}},
{"type":"Feature","id":"256613820","properties":{"josm":"n256613820","name":"Білицьке"},"geometry":{"type":"Point","coordinates":[37.1797,48.40819]}},
{"type":"Feature","id":"256613821","properties":{"josm":"n256613821","name":"Новодонецьке"},"geometry":{"type":"Point","coordinates":[36.97964,48.63476]}},
{"type":"Feature","id":"256613822","properties":{"josm":"n256613822","name":"Водянське"},"geometry":{"type":"Point","coordinates":[37.10489,48.4107]}},
{"type":"Feature","id":"256613829","properties":{"josm":"n256613829","name":"Бокове"},"geometry":{"type":"Point","coordinates":[37.02966,48.52155]}},
{"type":"Feature","id":"256613837","properties":{"josm":"n256613837","name":"Булавинське"},"geometry":{"type":"Point","coordinates":[38.3361,48.25298]}},
{"type":"Feature","id":"256613839","properties":{"josm":"n256613839","name":"Дружне"},"geometry":{"type":"Point","coordinates":[38.28186,48.19805]}},
{"type":"Feature","id":"256613841","properties":{"josm":"n256613841","name":"Красний Кут"},"geometry":{"type":"Point","coordinates":[37.40604,48.55751]}},
{"type":"Feature","id":"256613842","properties":{"josm":"n256613842","name":"Старорайське"},"geometry":{"type":"Point","coordinates":[37.44527,48.60927]}},
{"type":"Feature","id":"256613845","properties":{"josm":"n256613845","name":"Верхня Кринка"},"geometry":{"type":"Point","coordinates":[38.13423,48.17814]}},
{"type":"Feature","id":"256613846","properties":{"josm":"n256613846","name":"Петрівське"},"geometry":{"type":"Point","coordinates":[38.04651,48.16466]}},
{"type":"Feature","id":"256613847","properties":{"josm":"n256613847","name":"Путепровід"},"geometry":{"type":"Point","coordinates":[38.052,48.15076]}},
{"type":"Feature","id":"256613848","properties":{"josm":"n256613848","name":"Шевченко"},"geometry":{"type":"Point","coordinates":[38.09046,48.17479]}},
{"type":"Feature","id":"256613850","properties":{"josm":"n256613850","name":"Новоселівка"},"geometry":{"type":"Point","coordinates":[38.11621,48.26457]}},
{"type":"Feature","id":"256613851","properties":{"josm":"n256613851","name":"Старопетрівське"},"geometry":{"type":"Point","coordinates":[38.15594,48.21144]}},
{"type":"Feature","id":"256613853","properties":{"josm":"n256613853","name":"Іллінка"},"geometry":{"type":"Point","coordinates":[38.42625,48.26999]}},
{"type":"Feature","id":"256613860","properties":{"josm":"n256613860","name":"Щебенка"},"geometry":{"type":"Point","coordinates":[38.13912,48.19342]}},
{"type":"Feature","id":"256613862","properties":{"josm":"n256613862","name":"Ольховатка"},"geometry":{"type":"Point","coordinates":[38.40306,48.24026]}},
{"type":"Feature","id":"256613873","properties":{"josm":"n256613873","name":"Прибережне"},"geometry":{"type":"Point","coordinates":[38.32512,48.25745]}},
{"type":"Feature","id":"256613875","properties":{"josm":"n256613875","name":"Булавине"},"geometry":{"type":"Point","coordinates":[38.3567,48.30276]}},
{"type":"Feature","id":"256613877","properties":{"josm":"n256613877","name":"Талаківка"},"geometry":{"type":"Point","coordinates":[37.72527,47.19053]}},
{"type":"Feature","id":"256613889","properties":{"josm":"n256613889","name":"Шапошникове"},"geometry":{"type":"Point","coordinates":[38.15818,48.19221]}},
{"type":"Feature","id":"256613896","properties":{"josm":"n256613896","name":"Олександрівка"},"geometry":{"type":"Point","coordinates":[37.45596,48.7457]}},
{"type":"Feature","id":"256613901","properties":{"josm":"n256613901","name":"Гнутове"},"geometry":{"type":"Point","coordinates":[37.75331,47.20863]}},
{"type":"Feature","id":"256613902","properties":{"josm":"n256613902","name":"Ломакине"},"geometry":{"type":"Point","coordinates":[37.71824,47.17547]}},
{"type":"Feature","id":"256613904","properties":{"josm":"n256613904","name":"Ясна Поляна"},"geometry":{"type":"Point","coordinates":[37.52758,48.74393]}},
{"type":"Feature","id":"256613905","properties":{"josm":"n256613905","name":"Шабельківка"},"geometry":{"type":"Point","coordinates":[37.48605,48.74496]}},
{"type":"Feature","id":"256613906","properties":{"josm":"n256613906","name":"Софіївка"},"geometry":{"type":"Point","coordinates":[37.51555,48.7405]}},
{"type":"Feature","id":"256613908","properties":{"josm":"n256613908","name":"Привілля"},"geometry":{"type":"Point","coordinates":[37.38304,48.71097]}},
{"type":"Feature","id":"256613912","properties":{"josm":"n256613912","name":"Брусівка"},"geometry":{"type":"Point","coordinates":[37.78309,48.91052]}},
{"type":"Feature","id":"256613916","properties":{"josm":"n256613916","name":"Красноармійськ"},"geometry":{"type":"Point","coordinates":[37.17216,48.28087]}},
{"type":"Feature","id":"256613919","properties":{"josm":"n256613919","name":"Лісне"},"geometry":{"type":"Point","coordinates":[38.13492,48.09677]}},
{"type":"Feature","id":"256613920","properties":{"josm":"n256613920","name":"Оріхове"},"geometry":{"type":"Point","coordinates":[38.10968,48.10741]}},
{"type":"Feature","id":"256613921","properties":{"josm":"n256613921","name":"Кринична"},"geometry":{"type":"Point","coordinates":[38.0236,48.13018]}},
{"type":"Feature","id":"256613925","properties":{"josm":"n256613925","name":"Вугляр"},"geometry":{"type":"Point","coordinates":[38.05956,48.01609]}},
{"type":"Feature","id":"256613926","properties":{"josm":"n256613926","name":"Маяк"},"geometry":{"type":"Point","coordinates":[38.01686,47.97139]}},
{"type":"Feature","id":"256613927","properties":{"josm":"n256613927","name":"Щурове"},"geometry":{"type":"Point","coordinates":[37.72576,48.95447]}},
{"type":"Feature","id":"256613928","properties":{"josm":"n256613928","name":"Старий Караван"},"geometry":{"type":"Point","coordinates":[37.78197,48.92186]}},
{"type":"Feature","id":"256613931","properties":{"josm":"n256613931","name":"Велике Оріхове"},"geometry":{"type":"Point","coordinates":[38.13346,48.0863]}},
{"type":"Feature","id":"256613933","properties":{"josm":"n256613933","name":"Липове"},"geometry":{"type":"Point","coordinates":[38.17032,48.08637]}},
{"type":"Feature","id":"256613935","properties":{"josm":"n256613935","name":"Молочарка"},"geometry":{"type":"Point","coordinates":[38.13243,48.00648]}},
{"type":"Feature","id":"256613948","properties":{"josm":"n256613948","name":"Шевченко"},"geometry":{"type":"Point","coordinates":[38.08617,47.99188]}},
{"type":"Feature","id":"256613952","properties":{"josm":"n256613952","name":"Свердлове"},"geometry":{"type":"Point","coordinates":[38.06265,48.02759]}},
{"type":"Feature","id":"256613953","properties":{"josm":"n256613953","name":"Монахове"},"geometry":{"type":"Point","coordinates":[38.1146,48.15016]}},
{"type":"Feature","id":"256613954","properties":{"josm":"n256613954","name":"Верхня Кринка"},"geometry":{"type":"Point","coordinates":[38.15749,48.15505]}},
{"type":"Feature","id":"256613955","properties":{"josm":"n256613955","name":"Алмазне"},"geometry":{"type":"Point","coordinates":[38.13045,48.14278]}},
{"type":"Feature","id":"256613956","properties":{"josm":"n256613956","name":"Красна Зоря"},"geometry":{"type":"Point","coordinates":[38.1146,48.14022]}},
{"type":"Feature","id":"256613958","properties":{"josm":"n256613958","name":"Високе"},"geometry":{"type":"Point","coordinates":[38.0571,47.9449]}},
{"type":"Feature","id":"256613960","properties":{"josm":"n256613960","name":"Холмисте"},"geometry":{"type":"Point","coordinates":[38.10951,47.94056]}},
{"type":"Feature","id":"256613964","properties":{"josm":"n256613964","name":"Гусельське"},"geometry":{"type":"Point","coordinates":[38.11835,47.99506]}},
{"type":"Feature","id":"256613966","properties":{"josm":"n256613966","name":"Межове"},"geometry":{"type":"Point","coordinates":[38.07076,47.96613]}},
{"type":"Feature","id":"256613969","properties":{"josm":"n256613969","name":"Пролетарське"},"geometry":{"type":"Point","coordinates":[38.09454,48.0162]}},
{"type":"Feature","id":"256613982","properties":{"josm":"n256613982","name":"Гостре"},"geometry":{"type":"Point","coordinates":[37.40141,47.99188]}},
{"type":"Feature","id":"256613988","properties":{"josm":"n256613988","name":"Новоселівка"},"geometry":{"type":"Point","coordinates":[38.14145,48.15841]}},
{"type":"Feature","id":"256613989","properties":{"josm":"n256613989","name":"Новомар’ївка"},"geometry":{"type":"Point","coordinates":[38.14178,48.15445]}},
{"type":"Feature","id":"256613990","properties":{"josm":"n256613990","name":"Новий Світ"},"geometry":{"type":"Point","coordinates":[38.10367,48.14793]}},
{"type":"Feature","id":"256613992","properties":{"josm":"n256613992","name":"Комишівка"},"geometry":{"type":"Point","coordinates":[37.46895,48.18062]}},
{"type":"Feature","id":"256613993","properties":{"josm":"n256613993","name":"Вишневе"},"geometry":{"type":"Point","coordinates":[37.24827,48.15037]}},
{"type":"Feature","id":"256614012","properties":{"josm":"n256614012","name":"Залісне"},"geometry":{"type":"Point","coordinates":[38.80981,48.03128]}},
{"type":"Feature","id":"256614036","properties":{"josm":"n256614036","name":"Бражине"},"geometry":{"type":"Point","coordinates":[38.83624,47.99729]}},
{"type":"Feature","id":"256614038","properties":{"josm":"n256614038","name":"Червоний Жовтень"},"geometry":{"type":"Point","coordinates":[38.73625,47.97223]}},
{"type":"Feature","id":"256614039","properties":{"josm":"n256614039","name":"Лиманчук"},"geometry":{"type":"Point","coordinates":[38.82723,48.01317]}},
{"type":"Feature","id":"256614041","properties":{"josm":"n256614041","name":"Цупки"},"geometry":{"type":"Point","coordinates":[38.34499,48.00871]}},
{"type":"Feature","id":"256614050","properties":{"josm":"n256614050","name":"Миколаївка"},"geometry":{"type":"Point","coordinates":[38.2457,48.00114]}},
{"type":"Feature","id":"256614070","properties":{"josm":"n256614070","name":"Вугледар"},"geometry":{"type":"Point","coordinates":[37.24844,47.78051]}},
{"type":"Feature","id":"256614072","properties":{"josm":"n256614072","name":"Войкове"},"geometry":{"type":"Point","coordinates":[38.20495,47.96734]}},
{"type":"Feature","id":"256614084","properties":{"josm":"n256614084","name":"Вінницьке"},"geometry":{"type":"Point","coordinates":[38.45369,48.09663]}},
{"type":"Feature","id":"256614096","properties":{"josm":"n256614096","name":"Ведмеже"},"geometry":{"type":"Point","coordinates":[38.19187,48.03532]}},
{"type":"Feature","id":"256614099","properties":{"josm":"n256614099","name":"Контарне"},"geometry":{"type":"Point","coordinates":[38.51065,48.08941]}},
{"type":"Feature","id":"256614100","properties":{"josm":"n256614100","name":"Софіїно-Лиман"},"geometry":{"type":"Point","coordinates":[36.97723,48.69381]}},
{"type":"Feature","id":"256614101","properties":{"josm":"n256614101","name":"Роздолля"},"geometry":{"type":"Point","coordinates":[37.00401,48.69106]}},
{"type":"Feature","id":"256614102","properties":{"josm":"n256614102","name":"Новостепанівка"},"geometry":{"type":"Point","coordinates":[37.0277,48.68282]}},
{"type":"Feature","id":"256614105","properties":{"josm":"n256614105","name":"Новоандріївка"},"geometry":{"type":"Point","coordinates":[37.05311,48.67939]}},
{"type":"Feature","id":"256614109","properties":{"josm":"n256614109","name":"Дмитроколине"},"geometry":{"type":"Point","coordinates":[36.97655,48.68488]}},
{"type":"Feature","id":"256614114","properties":{"josm":"n256614114","name":"Беззаботівка"},"geometry":{"type":"Point","coordinates":[37.02633,48.68763]}},
{"type":"Feature","id":"256614119","properties":{"josm":"n256614119","name":"Софіївка"},"geometry":{"type":"Point","coordinates":[36.86291,48.70514]}},
{"type":"Feature","id":"256614126","properties":{"josm":"n256614126","name":"Петрівка Перша"},"geometry":{"type":"Point","coordinates":[36.89398,48.70085]}},
{"type":"Feature","id":"256614128","properties":{"josm":"n256614128","name":"Новополтавка"},"geometry":{"type":"Point","coordinates":[36.85827,48.69321]}},
{"type":"Feature","id":"256614129","properties":{"josm":"n256614129","name":"Надеждівка"},"geometry":{"type":"Point","coordinates":[36.97174,48.73947]}},
{"type":"Feature","id":"256614130","properties":{"josm":"n256614130","name":"Левадне"},"geometry":{"type":"Point","coordinates":[36.81656,48.6842]}},
{"type":"Feature","id":"256614131","properties":{"josm":"n256614131","name":"Дмитро-Дар’ївка"},"geometry":{"type":"Point","coordinates":[36.96178,48.76728]}},
{"type":"Feature","id":"256614132","properties":{"josm":"n256614132","name":"Варварівка"},"geometry":{"type":"Point","coordinates":[36.92745,48.77449]}},
{"type":"Feature","id":"256614133","properties":{"josm":"n256614133","name":"Олександрівка"},"geometry":{"type":"Point","coordinates":[36.92078,48.7074]}},
{"type":"Feature","id":"256614140","properties":{"josm":"n256614140","name":"Кищенко"},"geometry":{"type":"Point","coordinates":[38.46668,48.08827]}},
{"type":"Feature","id":"256614141","properties":{"josm":"n256614141","name":"Львівка"},"geometry":{"type":"Point","coordinates":[37.30854,48.76007]}},
{"type":"Feature","id":"256614142","properties":{"josm":"n256614142","name":"Шаврове"},"geometry":{"type":"Point","coordinates":[37.19559,48.73878]}},
{"type":"Feature","id":"256614143","properties":{"josm":"n256614143","name":"Новознаменівка"},"geometry":{"type":"Point","coordinates":[36.83819,48.60351]}},
{"type":"Feature","id":"256614144","properties":{"josm":"n256614144","name":"Михайлівка"},"geometry":{"type":"Point","coordinates":[37.27118,48.74421]}},
{"type":"Feature","id":"256614148","properties":{"josm":"n256614148","name":"Бузинівка"},"geometry":{"type":"Point","coordinates":[36.76334,48.63373]}},
{"type":"Feature","id":"256614151","properties":{"josm":"n256614151","name":"Мар’ївка"},"geometry":{"type":"Point","coordinates":[36.77776,48.61656]}},
{"type":"Feature","id":"256614157","properties":{"josm":"n256614157","name":"Мирна Долина"},"geometry":{"type":"Point","coordinates":[36.8351,48.59905]}},
{"type":"Feature","id":"256614161","properties":{"josm":"n256614161","name":"Криниці"},"geometry":{"type":"Point","coordinates":[37.12306,48.65974]}},
{"type":"Feature","id":"256614165","properties":{"josm":"n256614165","name":"Куроїдівка"},"geometry":{"type":"Point","coordinates":[37.0598,48.62866]}},
{"type":"Feature","id":"256614173","properties":{"josm":"n256614173","name":"Шостаківка"},"geometry":{"type":"Point","coordinates":[36.91578,48.67218]}},
{"type":"Feature","id":"256614177","properties":{"josm":"n256614177","name":"Золоті Пруди"},"geometry":{"type":"Point","coordinates":[37.03594,48.72436]}},
{"type":"Feature","id":"256614180","properties":{"josm":"n256614180","name":"Іверське"},"geometry":{"type":"Point","coordinates":[36.96479,48.63278]}},
{"type":"Feature","id":"256614184","properties":{"josm":"n256614184","name":"Новосамарське"},"geometry":{"type":"Point","coordinates":[36.93775,48.689]}},
{"type":"Feature","id":"256614188","properties":{"josm":"n256614188","name":"Високопілля"},"geometry":{"type":"Point","coordinates":[37.0736,48.77047]}},
{"type":"Feature","id":"256614192","properties":{"josm":"n256614192","name":"Запаро-Мар’ївка"},"geometry":{"type":"Point","coordinates":[37.04771,48.80023]}},
{"type":"Feature","id":"256614196","properties":{"josm":"n256614196","name":"Спасько-Михайлівка"},"geometry":{"type":"Point","coordinates":[36.9405,48.57365]}},
{"type":"Feature","id":"256614200","properties":{"josm":"n256614200","name":"Новоявленка"},"geometry":{"type":"Point","coordinates":[37.19696,48.63665]}},
{"type":"Feature","id":"256614204","properties":{"josm":"n256614204","name":"Весела Гора"},"geometry":{"type":"Point","coordinates":[37.1228,48.61862]}},
{"type":"Feature","id":"256614210","properties":{"josm":"n256614210","name":"Самарське"},"geometry":{"type":"Point","coordinates":[37.10976,48.63167]}},
{"type":"Feature","id":"256614217","properties":{"josm":"n256614217","name":"Новопетрівка"},"geometry":{"type":"Point","coordinates":[36.8726,48.59364]}},
{"type":"Feature","id":"256614221","properties":{"josm":"n256614221","name":"Курицине"},"geometry":{"type":"Point","coordinates":[36.99303,48.56197]}},
{"type":"Feature","id":"256614225","properties":{"josm":"n256614225","name":"Катеринівка"},"geometry":{"type":"Point","coordinates":[36.90333,48.58017]}},
{"type":"Feature","id":"256614229","properties":{"josm":"n256614229","name":"Новопавлівка"},"geometry":{"type":"Point","coordinates":[37.02736,48.58429]}},
{"type":"Feature","id":"256614240","properties":{"josm":"n256614240","name":"Новоіверське"},"geometry":{"type":"Point","coordinates":[36.96041,48.60111]}},
{"type":"Feature","id":"256614248","properties":{"josm":"n256614248","name":"Степанівка"},"geometry":{"type":"Point","coordinates":[37.02495,48.61038]}},
{"type":"Feature","id":"256614253","properties":{"josm":"n256614253","name":"Шевченко"},"geometry":{"type":"Point","coordinates":[36.86291,48.6224]}},
{"type":"Feature","id":"256614261","properties":{"josm":"n256614261","name":"Яковлівка"},"geometry":{"type":"Point","coordinates":[37.24743,48.70273]}},
{"type":"Feature","id":"256614265","properties":{"josm":"n256614265","name":"Староварварівка"},"geometry":{"type":"Point","coordinates":[37.23095,48.68179]}},
{"type":"Feature","id":"256614269","properties":{"josm":"n256614269","name":"Самійлівка"},"geometry":{"type":"Point","coordinates":[36.98427,48.5897]}},
{"type":"Feature","id":"256614273","properties":{"josm":"n256614273","name":"Знаменівка"},"geometry":{"type":"Point","coordinates":[36.7285,48.66695]}},
{"type":"Feature","id":"256614277","properties":{"josm":"n256614277","name":"Пасічне"},"geometry":{"type":"Point","coordinates":[36.7963,48.6993]}},
{"type":"Feature","id":"256614284","properties":{"josm":"n256614284","name":"Микільське"},"geometry":{"type":"Point","coordinates":[36.77845,48.68763]}},
{"type":"Feature","id":"256614291","properties":{"josm":"n256614291","name":"Зелений Брід"},"geometry":{"type":"Point","coordinates":[36.74721,48.69518]}},
{"type":"Feature","id":"256614295","properties":{"josm":"n256614295","name":"Новоолександрівка"},"geometry":{"type":"Point","coordinates":[36.84334,48.76865]}},
{"type":"Feature","id":"256614299","properties":{"josm":"n256614299","name":"Єлизаветівка"},"geometry":{"type":"Point","coordinates":[36.84797,48.77655]}},
{"type":"Feature","id":"256614303","properties":{"josm":"n256614303","name":"Петрівка Друга"},"geometry":{"type":"Point","coordinates":[36.78154,48.6787]}},
{"type":"Feature","id":"256614307","properties":{"josm":"n256614307","name":"Некременне"},"geometry":{"type":"Point","coordinates":[37.13516,48.82187]}},
{"type":"Feature","id":"256614311","properties":{"josm":"n256614311","name":"Новий Кавказ"},"geometry":{"type":"Point","coordinates":[36.8502,48.75423]}},
{"type":"Feature","id":"256614315","properties":{"josm":"n256614315","name":"Новобахметьєве"},"geometry":{"type":"Point","coordinates":[36.83578,48.74084]}},
{"type":"Feature","id":"256614319","properties":{"josm":"n256614319","name":"Зелене"},"geometry":{"type":"Point","coordinates":[36.78326,48.7635]}},
{"type":"Feature","id":"256614322","properties":{"josm":"n256614322","name":"Карпівка"},"geometry":{"type":"Point","coordinates":[36.74068,48.79749]}},
{"type":"Feature","id":"256614326","properties":{"josm":"n256614326","name":"Голубівка"},"geometry":{"type":"Point","coordinates":[37.13173,48.69964]}},
{"type":"Feature","id":"256614329","properties":{"josm":"n256614329","name":"Громова Балка"},"geometry":{"type":"Point","coordinates":[37.08469,48.71406]}},
{"type":"Feature","id":"256614333","properties":{"josm":"n256614333","name":"Новопригоже"},"geometry":{"type":"Point","coordinates":[36.76918,48.78359]}},
{"type":"Feature","id":"256614337","properties":{"josm":"n256614337","name":"Очеретине"},"geometry":{"type":"Point","coordinates":[37.12383,48.73981]}},
{"type":"Feature","id":"256614368","properties":{"josm":"n256614368","name":"Котовського"},"geometry":{"type":"Point","coordinates":[38.41507,47.85198]}},
{"type":"Feature","id":"256614396","properties":{"josm":"n256614396","name":"Сіятель"},"geometry":{"type":"Point","coordinates":[38.52106,47.89085]}},
{"type":"Feature","id":"256614404","properties":{"josm":"n256614404","name":"Кошарне"},"geometry":{"type":"Point","coordinates":[38.44854,47.67002]}},
{"type":"Feature","id":"256614411","properties":{"josm":"n256614411","name":"Войковський"},"geometry":{"type":"Point","coordinates":[38.33816,47.75997]}},
{"type":"Feature","id":"256614414","properties":{"josm":"n256614414","name":"Обрізне"},"geometry":{"type":"Point","coordinates":[38.28461,47.70744]}},
{"type":"Feature","id":"256614438","properties":{"josm":"n256614438","name":"Новопетрівське"},"geometry":{"type":"Point","coordinates":[38.81245,47.848]}},
{"type":"Feature","id":"256614462","properties":{"josm":"n256614462","name":"Кринички"},"geometry":{"type":"Point","coordinates":[38.70213,47.86541]}},
{"type":"Feature","id":"256614510","properties":{"josm":"n256614510","name":"Харківське"},"geometry":{"type":"Point","coordinates":[38.55907,47.7443]}},
{"type":"Feature","id":"256614513","properties":{"josm":"n256614513","name":"Новоєланчик"},"geometry":{"type":"Point","coordinates":[38.43748,47.77889]}},
{"type":"Feature","id":"256614524","properties":{"josm":"n256614524","name":"Киселівка"},"geometry":{"type":"Point","coordinates":[38.46,47.74984]}},
{"type":"Feature","id":"256614543","properties":{"josm":"n256614543","name":"Придорожнє"},"geometry":{"type":"Point","coordinates":[38.16985,47.91824]}},
{"type":"Feature","id":"256614557","properties":{"josm":"n256614557","name":"Кобзарі"},"geometry":{"type":"Point","coordinates":[38.15234,47.91979]}},
{"type":"Feature","id":"256614567","properties":{"josm":"n256614567","name":"Садове"},"geometry":{"type":"Point","coordinates":[38.17165,47.96931]}},
{"type":"Feature","id":"256614577","properties":{"josm":"n256614577","name":"Зелене"},"geometry":{"type":"Point","coordinates":[38.1726,47.94605]}},
{"type":"Feature","id":"256614579","properties":{"josm":"n256614579","name":"Вербівка"},"geometry":{"type":"Point","coordinates":[38.13809,47.97146]}},
{"type":"Feature","id":"256614581","properties":{"josm":"n256614581","name":"Трепельне"},"geometry":{"type":"Point","coordinates":[38.37913,47.82016]}},
{"type":"Feature","id":"256614591","properties":{"josm":"n256614591","name":"Побєда"},"geometry":{"type":"Point","coordinates":[38.14616,47.74349]}},
{"type":"Feature","id":"256614593","properties":{"josm":"n256614593","name":"Мережки"},"geometry":{"type":"Point","coordinates":[38.24638,47.75467]}},
{"type":"Feature","id":"256614594","properties":{"josm":"n256614594","name":"Петренки"},"geometry":{"type":"Point","coordinates":[38.22321,47.72678]}},
{"type":"Feature","id":"256614597","properties":{"josm":"n256614597","name":"Підгородне"},"geometry":{"type":"Point","coordinates":[38.03089,48.63467]}},
{"type":"Feature","id":"256614598","properties":{"josm":"n256614598","name":"Бахмутське"},"geometry":{"type":"Point","coordinates":[38.09681,48.66085]}},
{"type":"Feature","id":"256614599","properties":{"josm":"n256614599","name":"Виїмка"},"geometry":{"type":"Point","coordinates":[38.14762,48.80462]}},
{"type":"Feature","id":"256614600","properties":{"josm":"n256614600","name":"Берестове"},"geometry":{"type":"Point","coordinates":[38.25268,48.75612]}},
{"type":"Feature","id":"256614601","properties":{"josm":"n256614601","name":"Миронівка"},"geometry":{"type":"Point","coordinates":[38.25371,48.48575]}},
{"type":"Feature","id":"256614602","properties":{"josm":"n256614602","name":"Лозове"},"geometry":{"type":"Point","coordinates":[38.23053,48.3843]}},
{"type":"Feature","id":"256614604","properties":{"josm":"n256614604","name":"Розсадки"},"geometry":{"type":"Point","coordinates":[38.3519,48.43117]}},
{"type":"Feature","id":"256614607","properties":{"josm":"n256614607","name":"Хромівка"},"geometry":{"type":"Point","coordinates":[37.94454,48.74625]}},
{"type":"Feature","id":"256614608","properties":{"josm":"n256614608","name":"Федорівка"},"geometry":{"type":"Point","coordinates":[38.04531,48.76625]}},
{"type":"Feature","id":"256614609","properties":{"josm":"n256614609","name":"Спірне"},"geometry":{"type":"Point","coordinates":[38.24736,48.80942]}},
{"type":"Feature","id":"256614619","properties":{"josm":"n256614619","name":"Бондарне"},"geometry":{"type":"Point","coordinates":[37.92488,48.74522]}},
{"type":"Feature","id":"256614620","properties":{"josm":"n256614620","name":"Васюківка"},"geometry":{"type":"Point","coordinates":[37.9957,48.74042]}},
{"type":"Feature","id":"256614621","properties":{"josm":"n256614621","name":"Покровка"},"geometry":{"type":"Point","coordinates":[38.33422,47.91129]}},
{"type":"Feature","id":"256614622","properties":{"josm":"n256614622","name":"Русько-Орлівка"},"geometry":{"type":"Point","coordinates":[38.37868,47.95223]}},
{"type":"Feature","id":"256614644","properties":{"josm":"n256614644","name":"Луганське"},"geometry":{"type":"Point","coordinates":[38.25542,48.43048]}},
{"type":"Feature","id":"256614650","properties":{"josm":"n256614650","name":"Красний Пахар"},"geometry":{"type":"Point","coordinates":[38.2907,48.49296]}},
{"type":"Feature","id":"256614651","properties":{"josm":"n256614651","name":"Криничне"},"geometry":{"type":"Point","coordinates":[38.27122,48.51065]}},
{"type":"Feature","id":"256614654","properties":{"josm":"n256614654","name":"Манич"},"geometry":{"type":"Point","coordinates":[38.74457,47.75568]}},
{"type":"Feature","id":"256614657","properties":{"josm":"n256614657","name":"Калинівка"},"geometry":{"type":"Point","coordinates":[38.30117,48.35194]}},
{"type":"Feature","id":"256614660","properties":{"josm":"n256614660","name":"Андріївка"},"geometry":{"type":"Point","coordinates":[37.96695,48.50138]}},
{"type":"Feature","id":"256614664","properties":{"josm":"n256614664","name":"Клинове"},"geometry":{"type":"Point","coordinates":[38.15895,48.56026]}},
{"type":"Feature","id":"256614666","properties":{"josm":"n256614666","name":"Відродження"},"geometry":{"type":"Point","coordinates":[38.21731,48.53176]}},
{"type":"Feature","id":"256614675","properties":{"josm":"n256614675","name":"Дача"},"geometry":{"type":"Point","coordinates":[38.04325,48.44181]}},
{"type":"Feature","id":"256614682","properties":{"josm":"n256614682","name":"Весела Долина"},"geometry":{"type":"Point","coordinates":[38.06309,48.55001]}},
{"type":"Feature","id":"256614683","properties":{"josm":"n256614683","name":"Вершина"},"geometry":{"type":"Point","coordinates":[38.11947,48.5188]}},
{"type":"Feature","id":"256614684","properties":{"josm":"n256614684","name":"Зайцеве"},"geometry":{"type":"Point","coordinates":[38.07072,48.52386]}},
{"type":"Feature","id":"256614685","properties":{"josm":"n256614685","name":"Платонівка"},"geometry":{"type":"Point","coordinates":[38.0163,48.89787]}},
{"type":"Feature","id":"256614687","properties":{"josm":"n256614687","name":"Переїзне"},"geometry":{"type":"Point","coordinates":[38.06351,48.77174]}},
{"type":"Feature","id":"256614688","properties":{"josm":"n256614688","name":"Кузьминівка"},"geometry":{"type":"Point","coordinates":[38.06978,48.79423]}},
{"type":"Feature","id":"256614689","properties":{"josm":"n256614689","name":"Званівка"},"geometry":{"type":"Point","coordinates":[38.07604,48.81431]}},
{"type":"Feature","id":"256614690","properties":{"josm":"n256614690","name":"Володимирівка"},"geometry":{"type":"Point","coordinates":[38.19019,48.66188]}},
{"type":"Feature","id":"256614697","properties":{"josm":"n256614697","name":"Івано-Дар’ївка"},"geometry":{"type":"Point","coordinates":[38.19749,48.81431]}},
{"type":"Feature","id":"256614698","properties":{"josm":"n256614698","name":"Верхньокам’янське"},"geometry":{"type":"Point","coordinates":[38.19157,48.86066]}},
{"type":"Feature","id":"256614699","properties":{"josm":"n256614699","name":"Дронівка"},"geometry":{"type":"Point","coordinates":[38.04256,48.92074]}},
{"type":"Feature","id":"256614700","properties":{"josm":"n256614700","name":"Трипілля"},"geometry":{"type":"Point","coordinates":[38.26366,48.67527]}},
{"type":"Feature","id":"256614701","properties":{"josm":"n256614701","name":"Стряпівка"},"geometry":{"type":"Point","coordinates":[38.1538,48.67115]}},
{"type":"Feature","id":"256614706","properties":{"josm":"n256614706","name":"Покровське"},"geometry":{"type":"Point","coordinates":[38.13114,48.62858]}},
{"type":"Feature","id":"256614708","properties":{"josm":"n256614708","name":"Роздолівка"},"geometry":{"type":"Point","coordinates":[38.07415,48.75595]}},
{"type":"Feature","id":"256614709","properties":{"josm":"n256614709","name":"Краснополівка"},"geometry":{"type":"Point","coordinates":[38.05218,48.73226]}},
{"type":"Feature","id":"256614710","properties":{"josm":"n256614710","name":"Миколаївка"},"geometry":{"type":"Point","coordinates":[38.05149,48.74359]}},
{"type":"Feature","id":"256614711","properties":{"josm":"n256614711","name":"Різниківка"},"geometry":{"type":"Point","coordinates":[37.97295,48.83843]}},
{"type":"Feature","id":"256614712","properties":{"josm":"n256614712","name":"Кірове"},"geometry":{"type":"Point","coordinates":[38.05698,48.82839]}},
{"type":"Feature","id":"256614717","properties":{"josm":"n256614717","name":"Іванград"},"geometry":{"type":"Point","coordinates":[38.02677,48.55957]}},
{"type":"Feature","id":"256614721","properties":{"josm":"n256614721","name":"Благодатне"},"geometry":{"type":"Point","coordinates":[38.01613,48.69587]}},
{"type":"Feature","id":"256614723","properties":{"josm":"n256614723","name":"Діброва"},"geometry":{"type":"Point","coordinates":[37.83365,48.76462]}},
{"type":"Feature","id":"256614726","properties":{"josm":"n256614726","name":"Федорівка Друга"},"geometry":{"type":"Point","coordinates":[37.85518,48.76041]}},
{"type":"Feature","id":"256614737","properties":{"josm":"n256614737","name":"Никифорівка"},"geometry":{"type":"Point","coordinates":[37.89733,48.77141]}},
{"type":"Feature","id":"256614738","properties":{"josm":"n256614738","name":"Привілля"},"geometry":{"type":"Point","coordinates":[37.86884,48.72505]}},
{"type":"Feature","id":"256614739","properties":{"josm":"n256614739","name":"Новоочеретувате"},"geometry":{"type":"Point","coordinates":[36.81338,47.89507]}},
{"type":"Feature","id":"256614740","properties":{"josm":"n256614740","name":"Федорівка"},"geometry":{"type":"Point","coordinates":[36.75682,47.95163]}},
{"type":"Feature","id":"256614741","properties":{"josm":"n256614741","name":"Дніпроенергія"},"geometry":{"type":"Point","coordinates":[36.79845,47.92116]}},
{"type":"Feature","id":"256614742","properties":{"josm":"n256614742","name":"Запоріжжя"},"geometry":{"type":"Point","coordinates":[36.76266,48.0336]}},
{"type":"Feature","id":"256614744","properties":{"josm":"n256614744","name":"Веселе"},"geometry":{"type":"Point","coordinates":[36.76718,47.93328]}},
{"type":"Feature","id":"256614746","properties":{"josm":"n256614746","name":"Зелений Гай"},"geometry":{"type":"Point","coordinates":[36.65183,48.07]}},
{"type":"Feature","id":"256614747","properties":{"josm":"n256614747","name":"Новопіль"},"geometry":{"type":"Point","coordinates":[36.62155,47.80924]}},
{"type":"Feature","id":"256614748","properties":{"josm":"n256614748","name":"Новосілка"},"geometry":{"type":"Point","coordinates":[36.68738,47.83867]}},
{"type":"Feature","id":"256614749","properties":{"josm":"n256614749","name":"Євгенівка"},"geometry":{"type":"Point","coordinates":[37.08546,47.67097]}},
{"type":"Feature","id":"256614750","properties":{"josm":"n256614750","name":"Зелене Поле"},"geometry":{"type":"Point","coordinates":[36.62368,47.82984]}},
{"type":"Feature","id":"256614751","properties":{"josm":"n256614751","name":"Новоукраїнка"},"geometry":{"type":"Point","coordinates":[36.86729,48.02948]}},
{"type":"Feature","id":"256614752","properties":{"josm":"n256614752","name":"Олексіївка"},"geometry":{"type":"Point","coordinates":[36.93638,48.01815]}},
{"type":"Feature","id":"256614754","properties":{"josm":"n256614754","name":"Багатир"},"geometry":{"type":"Point","coordinates":[36.93923,47.99263]}},
{"type":"Feature","id":"256614787","properties":{"josm":"n256614787","name":"Зелений Кут"},"geometry":{"type":"Point","coordinates":[36.89655,48.02158]}},
{"type":"Feature","id":"256614791","properties":{"josm":"n256614791","name":"Андріївка"},"geometry":{"type":"Point","coordinates":[37.07027,48.01884]}},
{"type":"Feature","id":"256614792","properties":{"josm":"n256614792","name":"Октябр"},"geometry":{"type":"Point","coordinates":[36.81407,47.79636]}},
{"type":"Feature","id":"256614793","properties":{"josm":"n256614793","name":"Новий Комар"},"geometry":{"type":"Point","coordinates":[36.83767,47.88082]}},
{"type":"Feature","id":"256614798","properties":{"josm":"n256614798","name":"Липове"},"geometry":{"type":"Point","coordinates":[38.30315,48.72436]}},
{"type":"Feature","id":"256614799","properties":{"josm":"n256614799","name":"Веселе"},"geometry":{"type":"Point","coordinates":[38.15134,48.74416]}},
{"type":"Feature","id":"256614800","properties":{"josm":"n256614800","name":"Василівка"},"geometry":{"type":"Point","coordinates":[38.2592,48.72539]}},
{"type":"Feature","id":"256614801","properties":{"josm":"n256614801","name":"Білогорівка"},"geometry":{"type":"Point","coordinates":[38.218,48.73363]}},
{"type":"Feature","id":"256614802","properties":{"josm":"n256614802","name":"Яковлівка"},"geometry":{"type":"Point","coordinates":[38.14805,48.70643]}},
{"type":"Feature","id":"256614803","properties":{"josm":"n256614803","name":"Григорівка"},"geometry":{"type":"Point","coordinates":[38.18642,48.92452]}},
{"type":"Feature","id":"256614804","properties":{"josm":"n256614804","name":"Серебрянка"},"geometry":{"type":"Point","coordinates":[38.12805,48.92074]}},
{"type":"Feature","id":"256614805","properties":{"josm":"n256614805","name":"Володине"},"geometry":{"type":"Point","coordinates":[36.74978,47.69569]}},
{"type":"Feature","id":"256614806","properties":{"josm":"n256614806","name":"Завітне Бажання"},"geometry":{"type":"Point","coordinates":[36.81628,47.72072]}},
{"type":"Feature","id":"256614807","properties":{"josm":"n256614807","name":"Ключове"},"geometry":{"type":"Point","coordinates":[36.86523,47.6762]}},
{"type":"Feature","id":"256614808","properties":{"josm":"n256614808","name":"Орлинське"},"geometry":{"type":"Point","coordinates":[36.76447,47.65072]}},
{"type":"Feature","id":"256614809","properties":{"josm":"n256614809","name":"Рівнопіль"},"geometry":{"type":"Point","coordinates":[36.69923,47.78701]}},
{"type":"Feature","id":"256614810","properties":{"josm":"n256614810","name":"Сторожеве"},"geometry":{"type":"Point","coordinates":[36.79953,47.79899]}},
{"type":"Feature","id":"256614823","properties":{"josm":"n256614823","name":"Роздольне"},"geometry":{"type":"Point","coordinates":[36.91744,47.90729]}},
{"type":"Feature","id":"256614824","properties":{"josm":"n256614824","name":"Одрадне"},"geometry":{"type":"Point","coordinates":[36.8573,47.97448]}},
{"type":"Feature","id":"256614826","properties":{"josm":"n256614826","name":"Старомайорське"},"geometry":{"type":"Point","coordinates":[36.7933,47.75293]}},
{"type":"Feature","id":"256614827","properties":{"josm":"n256614827","name":"Макарівка"},"geometry":{"type":"Point","coordinates":[36.80136,47.77793]}},
{"type":"Feature","id":"256614828","properties":{"josm":"n256614828","name":"Карла Маркса"},"geometry":{"type":"Point","coordinates":[36.70618,47.98614]}},
{"type":"Feature","id":"256614829","properties":{"josm":"n256614829","name":"Новохатське"},"geometry":{"type":"Point","coordinates":[36.68713,48.06278]}},
{"type":"Feature","id":"256614830","properties":{"josm":"n256614830","name":"Перебудова"},"geometry":{"type":"Point","coordinates":[36.73931,47.98502]}},
{"type":"Feature","id":"256614831","properties":{"josm":"n256614831","name":"Толстой"},"geometry":{"type":"Point","coordinates":[36.68525,48.03804]}},
{"type":"Feature","id":"256614832","properties":{"josm":"n256614832","name":"Новомайорське"},"geometry":{"type":"Point","coordinates":[37.04006,47.73182]}},
{"type":"Feature","id":"256614833","properties":{"josm":"n256614833","name":"Новодонецьке"},"geometry":{"type":"Point","coordinates":[36.95861,47.75586]}},
{"type":"Feature","id":"256614835","properties":{"josm":"n256614835","name":"Піддубне"},"geometry":{"type":"Point","coordinates":[36.69399,48.01266]}},
{"type":"Feature","id":"256614836","properties":{"josm":"n256614836","name":"Малий Керменчик"},"geometry":{"type":"Point","coordinates":[36.99536,47.63038]}},
{"type":"Feature","id":"256614837","properties":{"josm":"n256614837","name":"Георгіївка"},"geometry":{"type":"Point","coordinates":[36.89906,47.65802]}},
{"type":"Feature","id":"256614838","properties":{"josm":"n256614838","name":"Октябрське"},"geometry":{"type":"Point","coordinates":[36.94074,47.70965]}},
{"type":"Feature","id":"256614839","properties":{"josm":"n256614839","name":"Ялинське"},"geometry":{"type":"Point","coordinates":[36.93351,47.64319]}},
{"type":"Feature","id":"256614840","properties":{"josm":"n256614840","name":"Улакли"},"geometry":{"type":"Point","coordinates":[37.08564,47.99763]}},
{"type":"Feature","id":"256614844","properties":{"josm":"n256614844","name":"Розлив"},"geometry":{"type":"Point","coordinates":[37.00153,47.97271]}},
{"type":"Feature","id":"256614851","properties":{"josm":"n256614851","name":"Новопетриківка"},"geometry":{"type":"Point","coordinates":[36.93556,47.62752]}},
{"type":"Feature","id":"256614855","properties":{"josm":"n256614855","name":"Красна Поляна"},"geometry":{"type":"Point","coordinates":[37.07233,47.56007]}},
{"type":"Feature","id":"256614860","properties":{"josm":"n256614860","name":"Ялта"},"geometry":{"type":"Point","coordinates":[36.7494,48.04407]}},
{"type":"Feature","id":"256614865","properties":{"josm":"n256614865","name":"Червона Зірка"},"geometry":{"type":"Point","coordinates":[36.72027,48.03494]}},
{"type":"Feature","id":"256614871","properties":{"josm":"n256614871","name":"Костянтинопіль"},"geometry":{"type":"Point","coordinates":[37.04212,48.00012]}},
{"type":"Feature","id":"256614875","properties":{"josm":"n256614875","name":"Скудне"},"geometry":{"type":"Point","coordinates":[36.79845,47.90949]}},
{"type":"Feature","id":"256614880","properties":{"josm":"n256614880","name":"Зачатівка"},"geometry":{"type":"Point","coordinates":[37.14821,47.49493]}},
{"type":"Feature","id":"256614885","properties":{"josm":"n256614885","name":"Зачатівка"},"geometry":{"type":"Point","coordinates":[37.20211,47.47227]}},
{"type":"Feature","id":"256614901","properties":{"josm":"n256614901","name":"Шевченко"},"geometry":{"type":"Point","coordinates":[37.15044,47.72735]}},
{"type":"Feature","id":"256614909","properties":{"josm":"n256614909","name":"Вільне"},"geometry":{"type":"Point","coordinates":[37.18426,47.52891]}},
{"type":"Feature","id":"256614973","properties":{"josm":"n256614973","name":"Златоустівка"},"geometry":{"type":"Point","coordinates":[37.32854,47.48892]}},
{"type":"Feature","id":"256614994","properties":{"josm":"n256614994","name":"Бугас"},"geometry":{"type":"Point","coordinates":[37.56097,47.63423]}},
{"type":"Feature","id":"256615090","properties":{"josm":"n256615090","name":"Бурлацьке"},"geometry":{"type":"Point","coordinates":[36.74111,47.89017]}},
{"type":"Feature","id":"256615091","properties":{"josm":"n256615091","name":"Вільне Поле"},"geometry":{"type":"Point","coordinates":[36.68429,47.87662]}},
{"type":"Feature","id":"256615095","properties":{"josm":"n256615095","name":"Комишуваха"},"geometry":{"type":"Point","coordinates":[36.59033,47.88834]}},
{"type":"Feature","id":"256615101","properties":{"josm":"n256615101","name":"Ясна Поляна"},"geometry":{"type":"Point","coordinates":[37.03122,47.87816]}},
{"type":"Feature","id":"256615103","properties":{"josm":"n256615103","name":"Шевченко"},"geometry":{"type":"Point","coordinates":[36.67703,47.90081]}},
{"type":"Feature","id":"256615112","properties":{"josm":"n256615112","name":"Олександроград"},"geometry":{"type":"Point","coordinates":[36.60401,47.97677]}},
{"type":"Feature","id":"256615115","properties":{"josm":"n256615115","name":"Привільне"},"geometry":{"type":"Point","coordinates":[36.71122,47.87034]}},
{"type":"Feature","id":"256615174","properties":{"josm":"n256615174","name":"Лугове"},"geometry":{"type":"Point","coordinates":[36.8865,47.17748]}},
{"type":"Feature","id":"256615176","properties":{"josm":"n256615176","name":"Садове"},"geometry":{"type":"Point","coordinates":[36.93302,47.19195]}},
{"type":"Feature","id":"256615185","properties":{"josm":"n256615185","name":"Зелений Яр"},"geometry":{"type":"Point","coordinates":[37.05019,47.20293]}},
{"type":"Feature","id":"256615187","properties":{"josm":"n256615187","name":"Веселе"},"geometry":{"type":"Point","coordinates":[36.97085,47.18525]}},
{"type":"Feature","id":"256615189","properties":{"josm":"n256615189","name":"Кирилівка"},"geometry":{"type":"Point","coordinates":[37.67349,47.3164]}},
{"type":"Feature","id":"256615192","properties":{"josm":"n256615192","name":"Федорівка"},"geometry":{"type":"Point","coordinates":[37.12425,47.21064]}},
{"type":"Feature","id":"256615196","properties":{"josm":"n256615196","name":"Ключове"},"geometry":{"type":"Point","coordinates":[37.52003,47.26492]}},
{"type":"Feature","id":"256615201","properties":{"josm":"n256615201","name":"Македонівка"},"geometry":{"type":"Point","coordinates":[37.55298,47.2437]}},
{"type":"Feature","id":"256615208","properties":{"josm":"n256615208","name":"Херсонес"},"geometry":{"type":"Point","coordinates":[37.55067,47.22877]}},
{"type":"Feature","id":"256615210","properties":{"josm":"n256615210","name":"Назарівка"},"geometry":{"type":"Point","coordinates":[37.11401,47.32833]}},
{"type":"Feature","id":"256615212","properties":{"josm":"n256615212","name":"Кальчинівка"},"geometry":{"type":"Point","coordinates":[37.13988,47.35562]}},
{"type":"Feature","id":"256615214","properties":{"josm":"n256615214","name":"Новокраснівка"},"geometry":{"type":"Point","coordinates":[37.15799,47.31528]}},
{"type":"Feature","id":"256615217","properties":{"josm":"n256615217","name":"Новороманівка"},"geometry":{"type":"Point","coordinates":[37.17515,47.22176]}},
{"type":"Feature","id":"256615218","properties":{"josm":"n256615218","name":"Ксенівка"},"geometry":{"type":"Point","coordinates":[37.18185,47.26868]}},
{"type":"Feature","id":"256615219","properties":{"josm":"n256615219","name":"Республіка"},"geometry":{"type":"Point","coordinates":[37.20185,47.2546]}},
{"type":"Feature","id":"256615220","properties":{"josm":"n256615220","name":"Українка"},"geometry":{"type":"Point","coordinates":[37.09234,47.27704]}},
{"type":"Feature","id":"256615223","properties":{"josm":"n256615223","name":"Старченкове"},"geometry":{"type":"Point","coordinates":[36.97918,47.26863]}},
{"type":"Feature","id":"256615226","properties":{"josm":"n256615226","name":"Сергіївка"},"geometry":{"type":"Point","coordinates":[37.21035,47.27219]}},
{"type":"Feature","id":"256615229","properties":{"josm":"n256615229","name":"Святогорівка"},"geometry":{"type":"Point","coordinates":[37.03393,48.48439]}},
{"type":"Feature","id":"256615246","properties":{"josm":"n256615246","name":"Петрівське"},"geometry":{"type":"Point","coordinates":[37.16434,47.66006]}},
{"type":"Feature","id":"256615264","properties":{"josm":"n256615264","name":"Передове"},"geometry":{"type":"Point","coordinates":[37.16177,47.57003]}},
{"type":"Feature","id":"256615269","properties":{"josm":"n256615269","name":"Василівка"},"geometry":{"type":"Point","coordinates":[37.67849,47.57738]}},
{"type":"Feature","id":"256615271","properties":{"josm":"n256615271","name":"Трудівське"},"geometry":{"type":"Point","coordinates":[37.6576,47.58441]}},
{"type":"Feature","id":"256615272","properties":{"josm":"n256615272","name":"Степне"},"geometry":{"type":"Point","coordinates":[37.13456,47.61457]}},
{"type":"Feature","id":"256615278","properties":{"josm":"n256615278","name":"Кропивницьке"},"geometry":{"type":"Point","coordinates":[37.20975,47.62238]}},
{"type":"Feature","id":"256615298","properties":{"josm":"n256615298","name":"Приовражне"},"geometry":{"type":"Point","coordinates":[37.63487,47.26078]}},
{"type":"Feature","id":"256615300","properties":{"josm":"n256615300","name":"Гранітне"},"geometry":{"type":"Point","coordinates":[37.55154,47.32062]}},
{"type":"Feature","id":"256615305","properties":{"josm":"n256615305","name":"Октябрське"},"geometry":{"type":"Point","coordinates":[37.34905,48.45932]}},
{"type":"Feature","id":"256615311","properties":{"josm":"n256615311","name":"Панківка"},"geometry":{"type":"Point","coordinates":[37.3312,48.43803]}},
{"type":"Feature","id":"256615324","properties":{"josm":"n256615324","name":"Коптєве"},"geometry":{"type":"Point","coordinates":[37.36519,48.38138]}},
{"type":"Feature","id":"256615332","properties":{"josm":"n256615332","name":"Новоторецьке"},"geometry":{"type":"Point","coordinates":[37.32193,48.4025]}},
{"type":"Feature","id":"256615334","properties":{"josm":"n256615334","name":"Урицьке"},"geometry":{"type":"Point","coordinates":[37.07165,48.58738]}},
{"type":"Feature","id":"256615337","properties":{"josm":"n256615337","name":"Первомайське"},"geometry":{"type":"Point","coordinates":[37.08057,48.54034]}},
{"type":"Feature","id":"256615339","properties":{"josm":"n256615339","name":"Веселе Поле"},"geometry":{"type":"Point","coordinates":[37.10512,48.53854]}},
{"type":"Feature","id":"256615342","properties":{"josm":"n256615342","name":"Благодать"},"geometry":{"type":"Point","coordinates":[37.12182,48.57735]}},
{"type":"Feature","id":"256615344","properties":{"josm":"n256615344","name":"Нововодяне"},"geometry":{"type":"Point","coordinates":[37.14163,48.54569]}},
{"type":"Feature","id":"256615346","properties":{"josm":"n256615346","name":"Маяк"},"geometry":{"type":"Point","coordinates":[37.32156,48.42662]}},
{"type":"Feature","id":"256615347","properties":{"josm":"n256615347","name":"Суворове"},"geometry":{"type":"Point","coordinates":[37.25498,48.38756]}},
{"type":"Feature","id":"256615349","properties":{"josm":"n256615349","name":"Рози Люксембург"},"geometry":{"type":"Point","coordinates":[37.23626,48.45248]}},
{"type":"Feature","id":"256615351","properties":{"josm":"n256615351","name":"Іванівка"},"geometry":{"type":"Point","coordinates":[37.22904,48.43941]}},
{"type":"Feature","id":"256615353","properties":{"josm":"n256615353","name":"Дорожнє"},"geometry":{"type":"Point","coordinates":[37.22254,48.42445]}},
{"type":"Feature","id":"256615355","properties":{"josm":"n256615355","name":"Яблунівка"},"geometry":{"type":"Point","coordinates":[37.66027,48.42344]}},
{"type":"Feature","id":"256615358","properties":{"josm":"n256615358","name":"Юр’ївка"},"geometry":{"type":"Point","coordinates":[36.89475,48.38722]}},
{"type":"Feature","id":"256615360","properties":{"josm":"n256615360","name":"Олександро-Калинове"},"geometry":{"type":"Point","coordinates":[37.67195,48.41383]}},
{"type":"Feature","id":"256615362","properties":{"josm":"n256615362","name":"Новоолександрівка"},"geometry":{"type":"Point","coordinates":[37.06941,48.35512]}},
{"type":"Feature","id":"256615365","properties":{"josm":"n256615365","name":"Леніна"},"geometry":{"type":"Point","coordinates":[37.00839,48.36559]}},
{"type":"Feature","id":"256615367","properties":{"josm":"n256615367","name":"Лиман"},"geometry":{"type":"Point","coordinates":[36.86737,48.41228]}},
{"type":"Feature","id":"256615369","properties":{"josm":"n256615369","name":"Гуліве"},"geometry":{"type":"Point","coordinates":[36.97174,48.37177]}},
{"type":"Feature","id":"256615373","properties":{"josm":"n256615373","name":"Кам’янка"},"geometry":{"type":"Point","coordinates":[36.84926,48.36654]}},
{"type":"Feature","id":"256615375","properties":{"josm":"n256615375","name":"Шилівка"},"geometry":{"type":"Point","coordinates":[36.94084,48.37932]}},
{"type":"Feature","id":"256615377","properties":{"josm":"n256615377","name":"Василівка"},"geometry":{"type":"Point","coordinates":[37.03985,48.35744]}},
{"type":"Feature","id":"256615379","properties":{"josm":"n256615379","name":"Новий Донбас"},"geometry":{"type":"Point","coordinates":[37.17745,48.45158]}},
{"type":"Feature","id":"256615381","properties":{"josm":"n256615381","name":"Шевченко"},"geometry":{"type":"Point","coordinates":[37.1101,48.38276]}},
{"type":"Feature","id":"256615385","properties":{"josm":"n256615385","name":"Світле"},"geometry":{"type":"Point","coordinates":[37.11696,48.40472]}},
{"type":"Feature","id":"256615388","properties":{"josm":"n256615388","name":"Красноярське"},"geometry":{"type":"Point","coordinates":[37.12877,48.42151]}},
{"type":"Feature","id":"256615389","properties":{"josm":"n256615389","name":"Веселе"},"geometry":{"type":"Point","coordinates":[37.27077,48.54266]}},
{"type":"Feature","id":"256615391","properties":{"josm":"n256615391","name":"Золотий Колодязь"},"geometry":{"type":"Point","coordinates":[37.23472,48.52764]}},
{"type":"Feature","id":"256615394","properties":{"josm":"n256615394","name":"Лідине"},"geometry":{"type":"Point","coordinates":[37.186,48.59374]}},
{"type":"Feature","id":"256615398","properties":{"josm":"n256615398","name":"Грузьке"},"geometry":{"type":"Point","coordinates":[37.29532,48.54987]}},
{"type":"Feature","id":"256615400","properties":{"josm":"n256615400","name":"Красноподілля"},"geometry":{"type":"Point","coordinates":[37.09181,48.42012]}},
{"type":"Feature","id":"256615402","properties":{"josm":"n256615402","name":"Добропілля"},"geometry":{"type":"Point","coordinates":[37.04847,48.42128]}},
{"type":"Feature","id":"256615404","properties":{"josm":"n256615404","name":"Новогришине"},"geometry":{"type":"Point","coordinates":[37.02633,48.41649]}},
{"type":"Feature","id":"256615407","properties":{"josm":"n256615407","name":"Матяшеве"},"geometry":{"type":"Point","coordinates":[37.06236,48.41024]}},
{"type":"Feature","id":"256615415","properties":{"josm":"n256615415","name":"Новоукраїнка"},"geometry":{"type":"Point","coordinates":[37.02392,48.54515]}},
{"type":"Feature","id":"256615443","properties":{"josm":"n256615443","name":"Рубіжне"},"geometry":{"type":"Point","coordinates":[37.19617,48.51193]}},
{"type":"Feature","id":"256615445","properties":{"josm":"n256615445","name":"Кутузовка"},"geometry":{"type":"Point","coordinates":[37.18681,48.48961]}},
{"type":"Feature","id":"256615447","properties":{"josm":"n256615447","name":"Вірівка"},"geometry":{"type":"Point","coordinates":[36.97758,48.48232]}},
{"type":"Feature","id":"256615449","properties":{"josm":"n256615449","name":"Вікторівка"},"geometry":{"type":"Point","coordinates":[36.95972,48.53107]}},
{"type":"Feature","id":"256615452","properties":{"josm":"n256615452","name":"Нововікторівка"},"geometry":{"type":"Point","coordinates":[36.98067,48.53382]}},
{"type":"Feature","id":"256615454","properties":{"josm":"n256615454","name":"Копані"},"geometry":{"type":"Point","coordinates":[37.04087,48.54661]}},
{"type":"Feature","id":"256615456","properties":{"josm":"n256615456","name":"Ракша"},"geometry":{"type":"Point","coordinates":[36.97732,48.47451]}},
{"type":"Feature","id":"256615462","properties":{"josm":"n256615462","name":"Никанорівка"},"geometry":{"type":"Point","coordinates":[37.2567,48.41778]}},
{"type":"Feature","id":"256615465","properties":{"josm":"n256615465","name":"Бойківка"},"geometry":{"type":"Point","coordinates":[37.30811,48.40181]}},
{"type":"Feature","id":"256615467","properties":{"josm":"n256615467","name":"Вільне"},"geometry":{"type":"Point","coordinates":[37.22391,48.47228]}},
{"type":"Feature","id":"256615469","properties":{"josm":"n256615469","name":"Зелене"},"geometry":{"type":"Point","coordinates":[36.85289,48.47031]}},
{"type":"Feature","id":"256615481","properties":{"josm":"n256615481","name":"Новокриворіжжя"},"geometry":{"type":"Point","coordinates":[36.89518,48.4885]}},
{"type":"Feature","id":"256615485","properties":{"josm":"n256615485","name":"Новофедорівка"},"geometry":{"type":"Point","coordinates":[36.97217,48.43254]}},
{"type":"Feature","id":"256615488","properties":{"josm":"n256615488","name":"Криворіжжя"},"geometry":{"type":"Point","coordinates":[36.91789,48.44522]}},
{"type":"Feature","id":"256615490","properties":{"josm":"n256615490","name":"Артема"},"geometry":{"type":"Point","coordinates":[37.00539,48.42241]}},
{"type":"Feature","id":"256615491","properties":{"josm":"n256615491","name":"Завидо-Борзенка"},"geometry":{"type":"Point","coordinates":[36.92024,48.51185]}},
{"type":"Feature","id":"256615492","properties":{"josm":"n256615492","name":"Завидо-Кудашеве"},"geometry":{"type":"Point","coordinates":[36.93775,48.46722]}},
{"type":"Feature","id":"256615493","properties":{"josm":"n256615493","name":"Кучерів Яр"},"geometry":{"type":"Point","coordinates":[37.27578,48.50903]}},
{"type":"Feature","id":"256615495","properties":{"josm":"n256615495","name":"Новотроїцьке"},"geometry":{"type":"Point","coordinates":[37.21953,48.57698]}},
{"type":"Feature","id":"256615497","properties":{"josm":"n256615497","name":"Мар’ївка"},"geometry":{"type":"Point","coordinates":[37.17125,48.56547]}},
{"type":"Feature","id":"256615499","properties":{"josm":"n256615499","name":"Петрівське"},"geometry":{"type":"Point","coordinates":[37.19696,48.56678]}},
{"type":"Feature","id":"256615500","properties":{"josm":"n256615500","name":"Ступочки"},"geometry":{"type":"Point","coordinates":[37.8285,48.54017]}},
{"type":"Feature","id":"256615506","properties":{"josm":"n256615506","name":"Калинове"},"geometry":{"type":"Point","coordinates":[37.65461,48.29899]}},
{"type":"Feature","id":"256615509","properties":{"josm":"n256615509","name":"Водяне Друге"},"geometry":{"type":"Point","coordinates":[37.50578,48.33564]}},
{"type":"Feature","id":"256615511","properties":{"josm":"n256615511","name":"Березівка"},"geometry":{"type":"Point","coordinates":[37.50947,48.34705]}},
{"type":"Feature","id":"256615514","properties":{"josm":"n256615514","name":"Полтавка"},"geometry":{"type":"Point","coordinates":[37.46578,48.43666]}},
{"type":"Feature","id":"256615520","properties":{"josm":"n256615520","name":"Червоне"},"geometry":{"type":"Point","coordinates":[37.78584,48.56326]}},
{"type":"Feature","id":"256615522","properties":{"josm":"n256615522","name":"Гнатівка"},"geometry":{"type":"Point","coordinates":[37.66199,48.33641]}},
{"type":"Feature","id":"256615523","properties":{"josm":"n256615523","name":"Правдівка"},"geometry":{"type":"Point","coordinates":[37.67864,48.32886]}},
{"type":"Feature","id":"256615524","properties":{"josm":"n256615524","name":"Русин Яр"},"geometry":{"type":"Point","coordinates":[37.50775,48.4473]}},
{"type":"Feature","id":"256615525","properties":{"josm":"n256615525","name":"Попів Яр"},"geometry":{"type":"Point","coordinates":[37.45891,48.41915]}},
{"type":"Feature","id":"256615526","properties":{"josm":"n256615526","name":"Журавка"},"geometry":{"type":"Point","coordinates":[37.3651,48.22594]}},
{"type":"Feature","id":"256615529","properties":{"josm":"n256615529","name":"Гродівка"},"geometry":{"type":"Point","coordinates":[37.37892,48.26294]}},
{"type":"Feature","id":"256615531","properties":{"josm":"n256615531","name":"Московське"},"geometry":{"type":"Point","coordinates":[37.30923,48.27993]}},
{"type":"Feature","id":"256615533","properties":{"josm":"n256615533","name":"Промінь"},"geometry":{"type":"Point","coordinates":[37.31609,48.26817]}},
{"type":"Feature","id":"256615541","properties":{"josm":"n256615541","name":"Новооленівка"},"geometry":{"type":"Point","coordinates":[37.5402,48.39314]}},
{"type":"Feature","id":"256615563","properties":{"josm":"n256615563","name":"Катеринівка"},"geometry":{"type":"Point","coordinates":[37.75632,48.41898]}},
{"type":"Feature","id":"256615566","properties":{"josm":"n256615566","name":"Степанівка"},"geometry":{"type":"Point","coordinates":[37.6153,48.46739]}},
{"type":"Feature","id":"256615571","properties":{"josm":"n256615571","name":"Віролюбівка"},"geometry":{"type":"Point","coordinates":[37.71409,48.6129]}},
{"type":"Feature","id":"256615575","properties":{"josm":"n256615575","name":"Клинове"},"geometry":{"type":"Point","coordinates":[37.67521,48.61587]}},
{"type":"Feature","id":"256615639","properties":{"josm":"n256615639","name":"Попасне"},"geometry":{"type":"Point","coordinates":[37.70192,48.59554]}},
{"type":"Feature","id":"256615729","properties":{"josm":"n256615729","name":"Миколаївка"},"geometry":{"type":"Point","coordinates":[37.78644,48.57922]}},
{"type":"Feature","id":"256615731","properties":{"josm":"n256615731","name":"Подільське"},"geometry":{"type":"Point","coordinates":[37.76645,48.57193]}},
{"type":"Feature","id":"256615735","properties":{"josm":"n256615735","name":"Іжевка"},"geometry":{"type":"Point","coordinates":[37.67097,48.58629]}},
{"type":"Feature","id":"256615738","properties":{"josm":"n256615738","name":"Молочарка"},"geometry":{"type":"Point","coordinates":[37.71098,48.55947]}},
{"type":"Feature","id":"256615739","properties":{"josm":"n256615739","name":"Стінки"},"geometry":{"type":"Point","coordinates":[37.73804,48.5788]}},
{"type":"Feature","id":"256615741","properties":{"josm":"n256615741","name":"Клебан-Бик"},"geometry":{"type":"Point","coordinates":[37.76627,48.42525]}},
{"type":"Feature","id":"256615753","properties":{"josm":"n256615753","name":"Новомаркове"},"geometry":{"type":"Point","coordinates":[37.82593,48.67072]}},
{"type":"Feature","id":"256615755","properties":{"josm":"n256615755","name":"Надеждинка"},"geometry":{"type":"Point","coordinates":[37.00736,48.14329]}},
{"type":"Feature","id":"256615757","properties":{"josm":"n256615757","name":"Котлярівка"},"geometry":{"type":"Point","coordinates":[36.93407,48.14127]}},
{"type":"Feature","id":"256615766","properties":{"josm":"n256615766","name":"Пушкіне"},"geometry":{"type":"Point","coordinates":[37.13921,48.13513]}},
{"type":"Feature","id":"256615779","properties":{"josm":"n256615779","name":"Воздвиженка"},"geometry":{"type":"Point","coordinates":[37.51728,48.30311]}},
{"type":"Feature","id":"256615781","properties":{"josm":"n256615781","name":"Баранівка"},"geometry":{"type":"Point","coordinates":[37.53702,48.31821]}},
{"type":"Feature","id":"256615789","properties":{"josm":"n256615789","name":"Новоєлизаветівка"},"geometry":{"type":"Point","coordinates":[37.04062,48.13643]}},
{"type":"Feature","id":"256615792","properties":{"josm":"n256615792","name":"Успенівка"},"geometry":{"type":"Point","coordinates":[37.01868,48.20027]}},
{"type":"Feature","id":"256615794","properties":{"josm":"n256615794","name":"Новопустинка"},"geometry":{"type":"Point","coordinates":[37.11789,48.19516]}},
{"type":"Feature","id":"256615796","properties":{"josm":"n256615796","name":"Вовкове"},"geometry":{"type":"Point","coordinates":[37.08083,48.22972]}},
{"type":"Feature","id":"256615800","properties":{"josm":"n256615800","name":"Нововасилівка"},"geometry":{"type":"Point","coordinates":[37.0418,48.20449]}},
{"type":"Feature","id":"256615802","properties":{"josm":"n256615802","name":"Жовте"},"geometry":{"type":"Point","coordinates":[37.14783,48.18578]}},
{"type":"Feature","id":"256615805","properties":{"josm":"n256615805","name":"Новоолександрівка"},"geometry":{"type":"Point","coordinates":[36.99251,48.18955]}},
{"type":"Feature","id":"256615807","properties":{"josm":"n256615807","name":"Миролюбівка"},"geometry":{"type":"Point","coordinates":[37.37348,48.30145]}},
{"type":"Feature","id":"256615809","properties":{"josm":"n256615809","name":"Єлизаветівка"},"geometry":{"type":"Point","coordinates":[37.45066,48.30384]}},
{"type":"Feature","id":"256615815","properties":{"josm":"n256615815","name":"Новоукраїнка"},"geometry":{"type":"Point","coordinates":[37.19825,48.22766]}},
{"type":"Feature","id":"256615818","properties":{"josm":"n256615818","name":"Сухий Яр"},"geometry":{"type":"Point","coordinates":[37.26974,48.23273]}},
{"type":"Feature","id":"256615821","properties":{"josm":"n256615821","name":"Чунишине"},"geometry":{"type":"Point","coordinates":[37.20537,48.23418]}},
{"type":"Feature","id":"256615823","properties":{"josm":"n256615823","name":"Новожеланне"},"geometry":{"type":"Point","coordinates":[37.44003,48.185]}},
{"type":"Feature","id":"256615825","properties":{"josm":"n256615825","name":"Орлівка"},"geometry":{"type":"Point","coordinates":[37.37983,48.21347]}},
{"type":"Feature","id":"256615826","properties":{"josm":"n256615826","name":"Птиче"},"geometry":{"type":"Point","coordinates":[37.44999,48.16749]}},
{"type":"Feature","id":"256615828","properties":{"josm":"n256615828","name":"Новоолександрівка"},"geometry":{"type":"Point","coordinates":[37.55908,48.27985]}},
{"type":"Feature","id":"256615831","properties":{"josm":"n256615831","name":"Миколаївка"},"geometry":{"type":"Point","coordinates":[37.38922,48.185]}},
{"type":"Feature","id":"256615833","properties":{"josm":"n256615833","name":"Завітне"},"geometry":{"type":"Point","coordinates":[37.43497,48.17745]}},
{"type":"Feature","id":"256615836","properties":{"josm":"n256615836","name":"Калинове"},"geometry":{"type":"Point","coordinates":[37.44235,48.13951]}},
{"type":"Feature","id":"256615843","properties":{"josm":"n256615843","name":"Сергіївка"},"geometry":{"type":"Point","coordinates":[37.41085,48.22208]}},
{"type":"Feature","id":"256615845","properties":{"josm":"n256615845","name":"Свиридонівка"},"geometry":{"type":"Point","coordinates":[37.44673,48.28277]}},
{"type":"Feature","id":"256615847","properties":{"josm":"n256615847","name":"Прогрес"},"geometry":{"type":"Point","coordinates":[37.49359,48.2444]}},
{"type":"Feature","id":"256615849","properties":{"josm":"n256615849","name":"Новоторецьке"},"geometry":{"type":"Point","coordinates":[37.41257,48.28766]}},
{"type":"Feature","id":"256615854","properties":{"josm":"n256615854","name":"Новопавлівка"},"geometry":{"type":"Point","coordinates":[37.22614,48.24869]}},
{"type":"Feature","id":"256615856","properties":{"josm":"n256615856","name":"Новий Труд"},"geometry":{"type":"Point","coordinates":[37.17226,48.21329]}},
{"type":"Feature","id":"256615875","properties":{"josm":"n256615875","name":"Зелене"},"geometry":{"type":"Point","coordinates":[37.20005,48.21376]}},
{"type":"Feature","id":"256615878","properties":{"josm":"n256615878","name":"Даченське"},"geometry":{"type":"Point","coordinates":[37.21953,48.21298]}},
{"type":"Feature","id":"256615881","properties":{"josm":"n256615881","name":"Лисівка"},"geometry":{"type":"Point","coordinates":[37.26511,48.22491]}},
{"type":"Feature","id":"256615885","properties":{"josm":"n256615885","name":"Зоря"},"geometry":{"type":"Point","coordinates":[37.1822,48.08166]}},
{"type":"Feature","id":"256615890","properties":{"josm":"n256615890","name":"Михайлівка"},"geometry":{"type":"Point","coordinates":[37.3644,48.30156]}},
{"type":"Feature","id":"256615892","properties":{"josm":"n256615892","name":"Разіне"},"geometry":{"type":"Point","coordinates":[37.31223,48.36654]}},
{"type":"Feature","id":"256615893","properties":{"josm":"n256615893","name":"Луначарське"},"geometry":{"type":"Point","coordinates":[37.29,48.38173]}},
{"type":"Feature","id":"256615901","properties":{"josm":"n256615901","name":"Миколаївка"},"geometry":{"type":"Point","coordinates":[37.35248,48.31924]}},
{"type":"Feature","id":"256615905","properties":{"josm":"n256615905","name":"Новоекономічне"},"geometry":{"type":"Point","coordinates":[37.33223,48.32577]}},
{"type":"Feature","id":"256615909","properties":{"josm":"n256615909","name":"Балаган"},"geometry":{"type":"Point","coordinates":[37.29738,48.28989]}},
{"type":"Feature","id":"256615914","properties":{"josm":"n256615914","name":"Вовче"},"geometry":{"type":"Point","coordinates":[37.48878,48.23616]}},
{"type":"Feature","id":"256615918","properties":{"josm":"n256615918","name":"Євгенівка"},"geometry":{"type":"Point","coordinates":[37.52621,48.23273]}},
{"type":"Feature","id":"256615922","properties":{"josm":"n256615922","name":"Іванівка"},"geometry":{"type":"Point","coordinates":[37.44724,48.26165]}},
{"type":"Feature","id":"256615928","properties":{"josm":"n256615928","name":"Веселе"},"geometry":{"type":"Point","coordinates":[37.43471,48.23882]}},
{"type":"Feature","id":"256615932","properties":{"josm":"n256615932","name":"Новосергіївка"},"geometry":{"type":"Point","coordinates":[36.97303,48.20028]}},
{"type":"Feature","id":"256615935","properties":{"josm":"n256615935","name":"Гришине"},"geometry":{"type":"Point","coordinates":[37.0768,48.33092]}},
{"type":"Feature","id":"256615940","properties":{"josm":"n256615940","name":"Муравка"},"geometry":{"type":"Point","coordinates":[36.89724,48.17737]}},
{"type":"Feature","id":"256615946","properties":{"josm":"n256615946","name":"Новомиколаївка"},"geometry":{"type":"Point","coordinates":[36.92676,48.18638]}},
{"type":"Feature","id":"256615951","properties":{"josm":"n256615951","name":"Рубці"},"geometry":{"type":"Point","coordinates":[37.5729,49.17171]}},
{"type":"Feature","id":"256615955","properties":{"josm":"n256615955","name":"Новомихайлівка"},"geometry":{"type":"Point","coordinates":[37.87159,49.20296]}},
{"type":"Feature","id":"256615960","properties":{"josm":"n256615960","name":"Лозове"},"geometry":{"type":"Point","coordinates":[37.5959,49.2112]}},
{"type":"Feature","id":"256615967","properties":{"josm":"n256615967","name":"Вовчий Яр"},"geometry":{"type":"Point","coordinates":[37.67143,49.2009]}},
{"type":"Feature","id":"256615981","properties":{"josm":"n256615981","name":"Терни"},"geometry":{"type":"Point","coordinates":[37.96257,49.09721]}},
{"type":"Feature","id":"256615986","properties":{"josm":"n256615986","name":"Іванівка"},"geometry":{"type":"Point","coordinates":[37.94686,49.1094]}},
{"type":"Feature","id":"256616010","properties":{"josm":"n256616010","name":"Новосадове"},"geometry":{"type":"Point","coordinates":[37.97047,49.12674]}},
{"type":"Feature","id":"256616018","properties":{"josm":"n256616018","name":"Колодязі"},"geometry":{"type":"Point","coordinates":[37.88154,49.08314]}},
{"type":"Feature","id":"256616082","properties":{"josm":"n256616082","name":"Ямпіль"},"geometry":{"type":"Point","coordinates":[37.94437,48.93173]}},
{"type":"Feature","id":"256616090","properties":{"josm":"n256616090","name":"Закітне"},"geometry":{"type":"Point","coordinates":[37.94745,48.89809]}},
{"type":"Feature","id":"256616128","properties":{"josm":"n256616128","name":"Крива Лука"},"geometry":{"type":"Point","coordinates":[37.90354,48.87347]}},
{"type":"Feature","id":"256616136","properties":{"josm":"n256616136","name":"Діброва"},"geometry":{"type":"Point","coordinates":[37.85614,48.91834]}},
{"type":"Feature","id":"256616142","properties":{"josm":"n256616142","name":"Іллічівка"},"geometry":{"type":"Point","coordinates":[37.91175,48.89774]}},
{"type":"Feature","id":"256616156","properties":{"josm":"n256616156","name":"Рідкодуб"},"geometry":{"type":"Point","coordinates":[37.8043,49.18167]}},
{"type":"Feature","id":"256616166","properties":{"josm":"n256616166","name":"Карпівка"},"geometry":{"type":"Point","coordinates":[37.73289,49.17789]}},
{"type":"Feature","id":"256616173","properties":{"josm":"n256616173","name":"Катеринівка"},"geometry":{"type":"Point","coordinates":[37.86507,49.1827]}},
{"type":"Feature","id":"256616181","properties":{"josm":"n256616181","name":"Липове"},"geometry":{"type":"Point","coordinates":[37.81013,49.15764]}},
{"type":"Feature","id":"256616199","properties":{"josm":"n256616199","name":"Новоандріївка"},"geometry":{"type":"Point","coordinates":[37.04123,48.10791]}},
{"type":"Feature","id":"256616211","properties":{"josm":"n256616211","name":"Запоріжжя"},"geometry":{"type":"Point","coordinates":[36.99725,48.10569]}},
{"type":"Feature","id":"256616225","properties":{"josm":"n256616225","name":"Богданівка"},"geometry":{"type":"Point","coordinates":[36.96474,48.09155]}},
{"type":"Feature","id":"256616241","properties":{"josm":"n256616241","name":"Срібне"},"geometry":{"type":"Point","coordinates":[37.01503,48.10673]}},
{"type":"Feature","id":"256616251","properties":{"josm":"n256616251","name":"Українка"},"geometry":{"type":"Point","coordinates":[37.09664,48.11519]}},
{"type":"Feature","id":"256616261","properties":{"josm":"n256616261","name":"Троїцьке"},"geometry":{"type":"Point","coordinates":[36.93947,48.10518]}},
{"type":"Feature","id":"256616277","properties":{"josm":"n256616277","name":"Преображенка"},"geometry":{"type":"Point","coordinates":[36.97946,48.11521]}},
{"type":"Feature","id":"256616295","properties":{"josm":"n256616295","name":"Петровського"},"geometry":{"type":"Point","coordinates":[36.91621,48.09857]}},
{"type":"Feature","id":"256616311","properties":{"josm":"n256616311","name":"Шевченко Перше"},"geometry":{"type":"Point","coordinates":[37.40459,48.37117]}},
{"type":"Feature","id":"256616338","properties":{"josm":"n256616338","name":"Улянівка"},"geometry":{"type":"Point","coordinates":[37.41068,48.3328]}},
{"type":"Feature","id":"256616352","properties":{"josm":"n256616352","name":"Ясенове"},"geometry":{"type":"Point","coordinates":[37.06788,48.10625]}},
{"type":"Feature","id":"256616386","properties":{"josm":"n256616386","name":"Перше Травня"},"geometry":{"type":"Point","coordinates":[37.1446,48.2589]}},
{"type":"Feature","id":"256616392","properties":{"josm":"n256616392","name":"Димитрове"},"geometry":{"type":"Point","coordinates":[37.05165,48.24878]}},
{"type":"Feature","id":"256616412","properties":{"josm":"n256616412","name":"Солоне"},"geometry":{"type":"Point","coordinates":[37.05062,48.21239]}},
{"type":"Feature","id":"256616421","properties":{"josm":"n256616421","name":"Петрівка"},"geometry":{"type":"Point","coordinates":[37.20357,48.17222]}},
{"type":"Feature","id":"256616430","properties":{"josm":"n256616430","name":"Воровське"},"geometry":{"type":"Point","coordinates":[37.18949,48.14303]}},
{"type":"Feature","id":"256616445","properties":{"josm":"n256616445","name":"Троянда"},"geometry":{"type":"Point","coordinates":[37.15722,48.26414]}},
{"type":"Feature","id":"256616462","properties":{"josm":"n256616462","name":"Пустинка"},"geometry":{"type":"Point","coordinates":[37.17954,48.16268]}},
{"type":"Feature","id":"256616470","properties":{"josm":"n256616470","name":"Рівне"},"geometry":{"type":"Point","coordinates":[37.22005,48.29976]}},
{"type":"Feature","id":"256616477","properties":{"josm":"n256616477","name":"Ленінське"},"geometry":{"type":"Point","coordinates":[37.23369,48.16366]}},
{"type":"Feature","id":"256616486","properties":{"josm":"n256616486","name":"Новоолексіївка"},"geometry":{"type":"Point","coordinates":[37.20177,48.13213]}},
{"type":"Feature","id":"256616489","properties":{"josm":"n256616489","name":"Сергіївка"},"geometry":{"type":"Point","coordinates":[36.92539,48.31272]}},
{"type":"Feature","id":"256616497","properties":{"josm":"n256616497","name":"Калініне"},"geometry":{"type":"Point","coordinates":[36.82763,48.34542]}},
{"type":"Feature","id":"256616506","properties":{"josm":"n256616506","name":"Красний Лиман"},"geometry":{"type":"Point","coordinates":[37.05002,48.1808]}},
{"type":"Feature","id":"256616515","properties":{"josm":"n256616515","name":"Сухецьке"},"geometry":{"type":"Point","coordinates":[37.22242,48.37642]}},
{"type":"Feature","id":"256616560","properties":{"josm":"n256616560","name":"Трудове"},"geometry":{"type":"Point","coordinates":[37.21558,47.89764]}},
{"type":"Feature","id":"256616589","properties":{"josm":"n256616589","name":"Гусельщикове"},"geometry":{"type":"Point","coordinates":[38.08102,47.16328]}},
{"type":"Feature","id":"256616626","properties":{"josm":"n256616626","name":"Козлівка"},"geometry":{"type":"Point","coordinates":[38.08496,47.17418]}},
{"type":"Feature","id":"256616643","properties":{"josm":"n256616643","name":"Успенівка"},"geometry":{"type":"Point","coordinates":[37.22912,47.91728]}},
{"type":"Feature","id":"256616660","properties":{"josm":"n256616660","name":"Ганнівка"},"geometry":{"type":"Point","coordinates":[37.26462,47.90908]}},
{"type":"Feature","id":"256616692","properties":{"josm":"n256616692","name":"Водяне"},"geometry":{"type":"Point","coordinates":[37.3114,47.82442]}},
{"type":"Feature","id":"256616709","properties":{"josm":"n256616709","name":"Солодке"},"geometry":{"type":"Point","coordinates":[37.49351,47.78898]}},
{"type":"Feature","id":"256616721","properties":{"josm":"n256616721","name":"Максимівка"},"geometry":{"type":"Point","coordinates":[37.10744,47.89138]}},
{"type":"Feature","id":"256616732","properties":{"josm":"n256616732","name":"Новоукраїнка"},"geometry":{"type":"Point","coordinates":[37.10564,47.84022]}},
{"type":"Feature","id":"256616767","properties":{"josm":"n256616767","name":"Вовченка"},"geometry":{"type":"Point","coordinates":[37.35824,48.01257]}},
{"type":"Feature","id":"256616787","properties":{"josm":"n256616787","name":"Ізмайлівка"},"geometry":{"type":"Point","coordinates":[37.34554,48.05518]}},
{"type":"Feature","id":"256616815","properties":{"josm":"n256616815","name":"Новоселидівка"},"geometry":{"type":"Point","coordinates":[37.29206,48.05454]}},
{"type":"Feature","id":"256616829","properties":{"josm":"n256616829","name":"Парасковіївка"},"geometry":{"type":"Point","coordinates":[37.44707,47.86726]}},
{"type":"Feature","id":"256616878","properties":{"josm":"n256616878","name":"Славне"},"geometry":{"type":"Point","coordinates":[37.56843,47.83619]}},
{"type":"Feature","id":"256616914","properties":{"josm":"n256616914","name":"Луганське"},"geometry":{"type":"Point","coordinates":[37.6826,47.89153]}},
{"type":"Feature","id":"256616923","properties":{"josm":"n256616923","name":"Катеринівка"},"geometry":{"type":"Point","coordinates":[37.34459,47.8755]}},
{"type":"Feature","id":"256616932","properties":{"josm":"n256616932","name":"Антонівка"},"geometry":{"type":"Point","coordinates":[37.36347,47.8791]}},
{"type":"Feature","id":"256616949","properties":{"josm":"n256616949","name":"Олександропіль"},"geometry":{"type":"Point","coordinates":[37.39205,48.01257]}},
{"type":"Feature","id":"256616961","properties":{"josm":"n256616961","name":"Зоряне"},"geometry":{"type":"Point","coordinates":[37.4005,48.03804]}},
{"type":"Feature","id":"256616981","properties":{"josm":"n256616981","name":"Іллінка"},"geometry":{"type":"Point","coordinates":[37.31541,47.89215]}},
{"type":"Feature","id":"256616989","properties":{"josm":"n256616989","name":"Романівка"},"geometry":{"type":"Point","coordinates":[37.28451,47.90108]}},
{"type":"Feature","id":"256616996","properties":{"josm":"n256616996","name":"Богоявленка"},"geometry":{"type":"Point","coordinates":[37.21753,47.85597]}},
{"type":"Feature","id":"256617003","properties":{"josm":"n256617003","name":"Єлизаветівка"},"geometry":{"type":"Point","coordinates":[37.29687,47.88975]}},
{"type":"Feature","id":"256617009","properties":{"josm":"n256617009","name":"Сухі Яли"},"geometry":{"type":"Point","coordinates":[37.12162,47.94505]}},
{"type":"Feature","id":"256617019","properties":{"josm":"n256617019","name":"Янтарне"},"geometry":{"type":"Point","coordinates":[37.16555,47.93901]}},
{"type":"Feature","id":"256617031","properties":{"josm":"n256617031","name":"Зеленівка"},"geometry":{"type":"Point","coordinates":[37.09156,47.96854]}},
{"type":"Feature","id":"256617044","properties":{"josm":"n256617044","name":"Островського"},"geometry":{"type":"Point","coordinates":[37.18537,47.92219]}},
{"type":"Feature","id":"256617058","properties":{"josm":"n256617058","name":"Дальнє"},"geometry":{"type":"Point","coordinates":[37.27069,47.94451]}},
{"type":"Feature","id":"256617085","properties":{"josm":"n256617085","name":"Дачне"},"geometry":{"type":"Point","coordinates":[37.17842,47.99335]}},
{"type":"Feature","id":"256617168","properties":{"josm":"n256617168","name":"Степанівка"},"geometry":{"type":"Point","coordinates":[37.32021,48.00159]}},
{"type":"Feature","id":"256617185","properties":{"josm":"n256617185","name":"Острівське"},"geometry":{"type":"Point","coordinates":[37.34567,48.00166]}},
{"type":"Feature","id":"256617228","properties":{"josm":"n256617228","name":"Червоне"},"geometry":{"type":"Point","coordinates":[37.4475,47.01625]}},
{"type":"Feature","id":"256617329","properties":{"josm":"n256617329","name":"Агробаза"},"geometry":{"type":"Point","coordinates":[37.4475,47.09744]}},
{"type":"Feature","id":"256617358","properties":{"josm":"n256617358","name":"Хомутове"},"geometry":{"type":"Point","coordinates":[38.13972,47.25597]}},
{"type":"Feature","id":"256617374","properties":{"josm":"n256617374","name":"Вітава"},"geometry":{"type":"Point","coordinates":[38.15243,47.26799]}},
{"type":"Feature","id":"256617382","properties":{"josm":"n256617382","name":"Бессарабка"},"geometry":{"type":"Point","coordinates":[38.11432,47.26696]}},
{"type":"Feature","id":"256617387","properties":{"josm":"n256617387","name":"Широкине"},"geometry":{"type":"Point","coordinates":[37.81769,47.09822]}},
{"type":"Feature","id":"256617395","properties":{"josm":"n256617395","name":"Сєдово-Василівка"},"geometry":{"type":"Point","coordinates":[38.11123,47.22439]}},
{"type":"Feature","id":"256617416","properties":{"josm":"n256617416","name":"Самійлове"},"geometry":{"type":"Point","coordinates":[38.25113,47.25542]}},
{"type":"Feature","id":"256617475","properties":{"josm":"n256617475","name":"Ванюшкине"},"geometry":{"type":"Point","coordinates":[38.27091,47.25524]}},
{"type":"Feature","id":"256617482","properties":{"josm":"n256617482","name":"Щербак"},"geometry":{"type":"Point","coordinates":[38.20238,47.21752]}},
{"type":"Feature","id":"256617518","properties":{"josm":"n256617518","name":"Рози Люксембург"},"geometry":{"type":"Point","coordinates":[38.10874,47.20851]}},
{"type":"Feature","id":"256617524","properties":{"josm":"n256617524","name":"Первомайське"},"geometry":{"type":"Point","coordinates":[37.95192,47.29271]}},
{"type":"Feature","id":"256617529","properties":{"josm":"n256617529","name":"Соснівське"},"geometry":{"type":"Point","coordinates":[37.90995,47.2981]}},
{"type":"Feature","id":"256617534","properties":{"josm":"n256617534","name":"Кузнеці"},"geometry":{"type":"Point","coordinates":[38.31916,47.27679]}},
{"type":"Feature","id":"256617539","properties":{"josm":"n256617539","name":"Маркине"},"geometry":{"type":"Point","coordinates":[38.18249,47.18904]}},
{"type":"Feature","id":"256617564","properties":{"josm":"n256617564","name":"Павлопіль"},"geometry":{"type":"Point","coordinates":[37.77949,47.26473]}},
{"type":"Feature","id":"256617575","properties":{"josm":"n256617575","name":"Лебединське"},"geometry":{"type":"Point","coordinates":[37.75065,47.12611]}},
{"type":"Feature","id":"256617580","properties":{"josm":"n256617580","name":"Калинівка"},"geometry":{"type":"Point","coordinates":[37.66182,47.14302]}},
{"type":"Feature","id":"256617587","properties":{"josm":"n256617587","name":"Приморське"},"geometry":{"type":"Point","coordinates":[37.9432,47.3153]}},
{"type":"Feature","id":"256617592","properties":{"josm":"n256617592","name":"Набережне"},"geometry":{"type":"Point","coordinates":[37.84541,47.31502]}},
{"type":"Feature","id":"256617671","properties":{"josm":"n256617671","name":"Веденське"},"geometry":{"type":"Point","coordinates":[37.95116,47.19829]}},
{"type":"Feature","id":"256617682","properties":{"josm":"n256617682","name":"Піонерське"},"geometry":{"type":"Point","coordinates":[37.72937,47.09015]}},
{"type":"Feature","id":"256617686","properties":{"josm":"n256617686","name":"Виноградне"},"geometry":{"type":"Point","coordinates":[37.69134,47.09307]}},
{"type":"Feature","id":"256617695","properties":{"josm":"n256617695","name":"Калініна"},"geometry":{"type":"Point","coordinates":[37.98274,47.84374]}},
{"type":"Feature","id":"256617699","properties":{"josm":"n256617699","name":"Кірове"},"geometry":{"type":"Point","coordinates":[38.00821,47.82962]}},
{"type":"Feature","id":"256617722","properties":{"josm":"n256617722","name":"Берестове"},"geometry":{"type":"Point","coordinates":[38.33257,47.58681]}},
{"type":"Feature","id":"256617726","properties":{"josm":"n256617726","name":"Вишневе"},"geometry":{"type":"Point","coordinates":[38.27044,47.67125]}},
{"type":"Feature","id":"256617734","properties":{"josm":"n256617734","name":"Чумаки"},"geometry":{"type":"Point","coordinates":[38.11809,47.78692]}},
{"type":"Feature","id":"256617755","properties":{"josm":"n256617755","name":"Колоски"},"geometry":{"type":"Point","coordinates":[38.20675,47.68826]}},
{"type":"Feature","id":"256617766","properties":{"josm":"n256617766","name":"Веселе"},"geometry":{"type":"Point","coordinates":[38.07526,47.63508]}},
{"type":"Feature","id":"256617771","properties":{"josm":"n256617771","name":"Бурне"},"geometry":{"type":"Point","coordinates":[38.23041,47.69843]}},
{"type":"Feature","id":"256617775","properties":{"josm":"n256617775","name":"Зелене"},"geometry":{"type":"Point","coordinates":[38.10476,47.63412]}},
{"type":"Feature","id":"256617780","properties":{"josm":"n256617780","name":"Войкове"},"geometry":{"type":"Point","coordinates":[38.12779,47.67577]}},
{"type":"Feature","id":"256617792","properties":{"josm":"n256617792","name":"Андріївка"},"geometry":{"type":"Point","coordinates":[38.09014,47.65833]}},
{"type":"Feature","id":"256617796","properties":{"josm":"n256617796","name":"Новозар’ївка"},"geometry":{"type":"Point","coordinates":[38.1356,47.63929]}},
{"type":"Feature","id":"256617817","properties":{"josm":"n256617817","name":"Василівка"},"geometry":{"type":"Point","coordinates":[38.0164,47.59967]}},
{"type":"Feature","id":"256617821","properties":{"josm":"n256617821","name":"Родникове"},"geometry":{"type":"Point","coordinates":[37.94918,47.68374]}},
{"type":"Feature","id":"256617830","properties":{"josm":"n256617830","name":"Підгірне"},"geometry":{"type":"Point","coordinates":[38.069,47.68392]}},
{"type":"Feature","id":"256617843","properties":{"josm":"n256617843","name":"Петрівське"},"geometry":{"type":"Point","coordinates":[38.07991,47.6937]}},
{"type":"Feature","id":"256617847","properties":{"josm":"n256617847","name":"Шевченко"},"geometry":{"type":"Point","coordinates":[38.20874,47.71108]}},
{"type":"Feature","id":"256617851","properties":{"josm":"n256617851","name":"Шмідта"},"geometry":{"type":"Point","coordinates":[38.16895,47.71928]}},
{"type":"Feature","id":"256617859","properties":{"josm":"n256617859","name":"Строїтель"},"geometry":{"type":"Point","coordinates":[38.22079,47.71676]}},
{"type":"Feature","id":"256617863","properties":{"josm":"n256617863","name":"Ленінське"},"geometry":{"type":"Point","coordinates":[38.16144,47.69311]}},
{"type":"Feature","id":"256617867","properties":{"josm":"n256617867","name":"Прохорівське"},"geometry":{"type":"Point","coordinates":[38.14976,47.72362]}},
{"type":"Feature","id":"256617875","properties":{"josm":"n256617875","name":"Берегове"},"geometry":{"type":"Point","coordinates":[38.08762,47.71783]}},
{"type":"Feature","id":"256617917","properties":{"josm":"n256617917","name":"Андріївка"},"geometry":{"type":"Point","coordinates":[37.64929,47.45939]}},
{"type":"Feature","id":"256617921","properties":{"josm":"n256617921","name":"Зернове"},"geometry":{"type":"Point","coordinates":[38.098,47.40399]}},
{"type":"Feature","id":"256617957","properties":{"josm":"n256617957","name":"Стила"},"geometry":{"type":"Point","coordinates":[37.84275,47.69775]}},
{"type":"Feature","id":"256618018","properties":{"josm":"n256618018","name":"Райгородок"},"geometry":{"type":"Point","coordinates":[37.72738,48.89782]}},
{"type":"Feature","id":"256618102","properties":{"josm":"n256618102","name":"Стародубівка"},"geometry":{"type":"Point","coordinates":[37.03929,47.10483]}},
{"type":"Feature","id":"256618113","properties":{"josm":"n256618113","name":"Варварівка"},"geometry":{"type":"Point","coordinates":[37.31258,48.64437]}},
{"type":"Feature","id":"256618122","properties":{"josm":"n256618122","name":"Андріївка"},"geometry":{"type":"Point","coordinates":[37.28657,48.61725]}},
{"type":"Feature","id":"256618127","properties":{"josm":"n256618127","name":"Дмитрівка"},"geometry":{"type":"Point","coordinates":[37.3757,48.7559]}},
{"type":"Feature","id":"256618130","properties":{"josm":"n256618130","name":"Новоандріївка"},"geometry":{"type":"Point","coordinates":[37.34819,48.59888]}},
{"type":"Feature","id":"256618148","properties":{"josm":"n256618148","name":"Краснопілля"},"geometry":{"type":"Point","coordinates":[37.44398,48.98709]}},
{"type":"Feature","id":"256618153","properties":{"josm":"n256618153","name":"Іванівка"},"geometry":{"type":"Point","coordinates":[37.35008,48.91937]}},
{"type":"Feature","id":"256618181","properties":{"josm":"n256618181","name":"Новомиколаївка"},"geometry":{"type":"Point","coordinates":[37.37068,48.88744]}},
{"type":"Feature","id":"256618184","properties":{"josm":"n256618184","name":"Октябрське"},"geometry":{"type":"Point","coordinates":[37.3312,48.7714]}},
{"type":"Feature","id":"256618188","properties":{"josm":"n256618188","name":"Олександрівка"},"geometry":{"type":"Point","coordinates":[37.38734,48.81912]}},
{"type":"Feature","id":"256618197","properties":{"josm":"n256618197","name":"Троїцьке"},"geometry":{"type":"Point","coordinates":[37.32571,48.8277]}},
{"type":"Feature","id":"256618202","properties":{"josm":"n256618202","name":"Юрківка"},"geometry":{"type":"Point","coordinates":[37.79841,48.77746]}},
{"type":"Feature","id":"256618206","properties":{"josm":"n256618206","name":"Маяки"},"geometry":{"type":"Point","coordinates":[37.62894,48.94795]}},
{"type":"Feature","id":"256618221","properties":{"josm":"n256618221","name":"Тихонівка"},"geometry":{"type":"Point","coordinates":[37.78412,48.71801]}},
{"type":"Feature","id":"256618242","properties":{"josm":"n256618242","name":"Глибока Макатиха"},"geometry":{"type":"Point","coordinates":[37.5492,48.90186]}},
{"type":"Feature","id":"256618253","properties":{"josm":"n256618253","name":"Адамівка"},"geometry":{"type":"Point","coordinates":[37.44999,48.94237]}},
{"type":"Feature","id":"256618266","properties":{"josm":"n256618266","name":"Малинівка"},"geometry":{"type":"Point","coordinates":[37.7782,48.73707]}},
{"type":"Feature","id":"256618270","properties":{"josm":"n256618270","name":"Васютинське"},"geometry":{"type":"Point","coordinates":[37.73117,48.71406]}},
{"type":"Feature","id":"256618288","properties":{"josm":"n256618288","name":"Комсомольське"},"geometry":{"type":"Point","coordinates":[38.07392,47.6688]}},
{"type":"Feature","id":"256618293","properties":{"josm":"n256618293","name":"Світле"},"geometry":{"type":"Point","coordinates":[38.09235,47.8138]}},
{"type":"Feature","id":"256618297","properties":{"josm":"n256618297","name":"Горбатенко"},"geometry":{"type":"Point","coordinates":[38.10264,47.76117]}},
{"type":"Feature","id":"256618301","properties":{"josm":"n256618301","name":"Андріївка"},"geometry":{"type":"Point","coordinates":[38.12929,47.82698]}},
{"type":"Feature","id":"256618305","properties":{"josm":"n256618305","name":"Привілля"},"geometry":{"type":"Point","coordinates":[37.26786,48.85989]}},
{"type":"Feature","id":"256618315","properties":{"josm":"n256618315","name":"Роганське"},"geometry":{"type":"Point","coordinates":[37.35763,48.65021]}},
{"type":"Feature","id":"256618317","properties":{"josm":"n256618317","name":"Сергіївка"},"geometry":{"type":"Point","coordinates":[37.37583,48.67321]}},
{"type":"Feature","id":"256618337","properties":{"josm":"n256618337","name":"Новомиколаївка"},"geometry":{"type":"Point","coordinates":[38.17569,47.97815]}},
{"type":"Feature","id":"256618344","properties":{"josm":"n256618344","name":"Кумшацьке"},"geometry":{"type":"Point","coordinates":[38.50588,48.20681]}},
{"type":"Feature","id":"256618357","properties":{"josm":"n256618357","name":"Шевченко"},"geometry":{"type":"Point","coordinates":[38.37104,48.17805]}},
{"type":"Feature","id":"256618413","properties":{"josm":"n256618413","name":"Польове"},"geometry":{"type":"Point","coordinates":[38.46532,48.20531]}},
{"type":"Feature","id":"256618433","properties":{"josm":"n256618433","name":"Розсипне"},"geometry":{"type":"Point","coordinates":[38.57648,48.15057]}},
{"type":"Feature","id":"256618489","properties":{"josm":"n256618489","name":"Зарощенське"},"geometry":{"type":"Point","coordinates":[38.44768,47.98931]}},
{"type":"Feature","id":"256618505","properties":{"josm":"n256618505","name":"Стрюкове"},"geometry":{"type":"Point","coordinates":[38.58879,48.18226]}},
{"type":"Feature","id":"256618513","properties":{"josm":"n256618513","name":"Тимофіївка"},"geometry":{"type":"Point","coordinates":[38.553,48.19625]}},
{"type":"Feature","id":"256618520","properties":{"josm":"n256618520","name":"Червона Зоря"},"geometry":{"type":"Point","coordinates":[38.90567,47.87628]}},
{"type":"Feature","id":"256618521","properties":{"josm":"n256618521","name":"Тарани"},"geometry":{"type":"Point","coordinates":[38.78339,47.88885]}},
{"type":"Feature","id":"256618523","properties":{"josm":"n256618523","name":"Саурівка"},"geometry":{"type":"Point","coordinates":[38.75873,47.90649]}},
{"type":"Feature","id":"256618536","properties":{"josm":"n256618536","name":"Красногорівка"},"geometry":{"type":"Point","coordinates":[37.72447,48.20672]}},
{"type":"Feature","id":"256618552","properties":{"josm":"n256618552","name":"Керамік"},"geometry":{"type":"Point","coordinates":[37.68268,48.25307]}},
{"type":"Feature","id":"256618556","properties":{"josm":"n256618556","name":"Желанне"},"geometry":{"type":"Point","coordinates":[37.43781,48.20786]}},
{"type":"Feature","id":"256618561","properties":{"josm":"n256618561","name":"Красний Партизан"},"geometry":{"type":"Point","coordinates":[37.91493,48.26285]}},
{"type":"Feature","id":"256618574","properties":{"josm":"n256618574","name":"Новопокровське"},"geometry":{"type":"Point","coordinates":[37.56405,48.20419]}},
{"type":"Feature","id":"256618584","properties":{"josm":"n256618584","name":"Новоселівка Перша"},"geometry":{"type":"Point","coordinates":[37.53015,48.1971]}},
{"type":"Feature","id":"256618588","properties":{"josm":"n256618588","name":"Межове"},"geometry":{"type":"Point","coordinates":[37.49222,48.17848]}},
{"type":"Feature","id":"256618593","properties":{"josm":"n256618593","name":"Новоселівка Друга"},"geometry":{"type":"Point","coordinates":[37.79177,48.20852]}},
{"type":"Feature","id":"256618597","properties":{"josm":"n256618597","name":"Новобахмутівка"},"geometry":{"type":"Point","coordinates":[37.79035,48.24954]}},
{"type":"Feature","id":"256618603","properties":{"josm":"n256618603","name":"Веселе"},"geometry":{"type":"Point","coordinates":[37.75503,48.18758]}},
{"type":"Feature","id":"256618617","properties":{"josm":"n256618617","name":"Яснобродівка"},"geometry":{"type":"Point","coordinates":[37.54528,48.13714]}},
{"type":"Feature","id":"256618622","properties":{"josm":"n256618622","name":"Семенівка"},"geometry":{"type":"Point","coordinates":[37.63092,48.1826]}},
{"type":"Feature","id":"256618646","properties":{"josm":"n256618646","name":"Бердичі"},"geometry":{"type":"Point","coordinates":[37.64843,48.1953]}},
{"type":"Feature","id":"256618662","properties":{"josm":"n256618662","name":"Калініне"},"geometry":{"type":"Point","coordinates":[38.10779,47.32189]}},
{"type":"Feature","id":"256618673","properties":{"josm":"n256618673","name":"Самсонове"},"geometry":{"type":"Point","coordinates":[38.15774,47.29234]}},
{"type":"Feature","id":"256618747","properties":{"josm":"n256618747","name":"Зелений Гай"},"geometry":{"type":"Point","coordinates":[38.25748,47.41871]}},
{"type":"Feature","id":"256618751","properties":{"josm":"n256618751","name":"Новоолександрівка"},"geometry":{"type":"Point","coordinates":[38.25388,47.39356]}},
{"type":"Feature","id":"256618753","properties":{"josm":"n256618753","name":"Радянське"},"geometry":{"type":"Point","coordinates":[38.18487,47.36326]}},
{"type":"Feature","id":"256618755","properties":{"josm":"n256618755","name":"Садки"},"geometry":{"type":"Point","coordinates":[38.18985,47.37768]}},
{"type":"Feature","id":"256618757","properties":{"josm":"n256618757","name":"Тернівка"},"geometry":{"type":"Point","coordinates":[38.1272,47.37525]}},
{"type":"Feature","id":"256618772","properties":{"josm":"n256618772","name":"Богданівка"},"geometry":{"type":"Point","coordinates":[38.05027,47.48503]}},
{"type":"Feature","id":"256618779","properties":{"josm":"n256618779","name":"Красний Октябр"},"geometry":{"type":"Point","coordinates":[37.97004,47.49939]}},
{"type":"Feature","id":"256618792","properties":{"josm":"n256618792","name":"Первомайське"},"geometry":{"type":"Point","coordinates":[37.96895,47.48235]}},
{"type":"Feature","id":"256618798","properties":{"josm":"n256618798","name":"Кам’янка"},"geometry":{"type":"Point","coordinates":[37.69349,47.42669]}},
{"type":"Feature","id":"256618807","properties":{"josm":"n256618807","name":"Степанівка"},"geometry":{"type":"Point","coordinates":[37.6365,47.36678]}},
{"type":"Feature","id":"256618808","properties":{"josm":"n256618808","name":"Новоселівка Друга"},"geometry":{"type":"Point","coordinates":[37.75855,47.38174]}},
{"type":"Feature","id":"256618816","properties":{"josm":"n256618816","name":"Свободне"},"geometry":{"type":"Point","coordinates":[38.06243,47.36271]}},
{"type":"Feature","id":"256618866","properties":{"josm":"n256618866","name":"Біла Кам’янка"},"geometry":{"type":"Point","coordinates":[37.86009,47.54342]}},
{"type":"Feature","id":"256618884","properties":{"josm":"n256618884","name":"Староласпа"},"geometry":{"type":"Point","coordinates":[37.98557,47.56093]}},
{"type":"Feature","id":"256618885","properties":{"josm":"n256618885","name":"Новогригорівка"},"geometry":{"type":"Point","coordinates":[37.82738,47.50265]}},
{"type":"Feature","id":"256618893","properties":{"josm":"n256618893","name":"Новоласпа"},"geometry":{"type":"Point","coordinates":[37.88192,47.57262]}},
{"type":"Feature","id":"256618897","properties":{"josm":"n256618897","name":"Рівне"},"geometry":{"type":"Point","coordinates":[38.58322,48.10275]}},
{"type":"Feature","id":"256618909","properties":{"josm":"n256618909","name":"Зрубне"},"geometry":{"type":"Point","coordinates":[38.88542,47.99686]}},
{"type":"Feature","id":"256618911","properties":{"josm":"n256618911","name":"Кожевня"},"geometry":{"type":"Point","coordinates":[38.92688,47.88031]}},
{"type":"Feature","id":"256618914","properties":{"josm":"n256618914","name":"Дібрівка"},"geometry":{"type":"Point","coordinates":[39.03803,47.90116]}},
{"type":"Feature","id":"256618918","properties":{"josm":"n256618918","name":"Чугуно-Крепинка"},"geometry":{"type":"Point","coordinates":[38.9655,47.99626]}},
{"type":"Feature","id":"256618929","properties":{"josm":"n256618929","name":"Крута Балка"},"geometry":{"type":"Point","coordinates":[37.82099,48.14772]}},
{"type":"Feature","id":"256618940","properties":{"josm":"n256618940","name":"Опитне"},"geometry":{"type":"Point","coordinates":[37.71941,48.09669]}},
{"type":"Feature","id":"256618958","properties":{"josm":"n256618958","name":"Сокіл"},"geometry":{"type":"Point","coordinates":[37.55436,48.23273]}},