{
"type": "FeatureCollection",
"errorDescr": "Highways not found",
"features": [
{"type":"Feature","id":"337511127","properties":{"josm":"n337511127","name":"Кам’янка"},"geometry":{"type":"Point","coordinates":[27.50084,51.16505]}},
{"type":"Feature","id":"337527450","properties":{"josm":"n337527450","name":"Гіркани"},"geometry":{"type":"Point","coordinates":[23.55977,50.1775]}},
{"type":"Feature","id":"337681273","properties":{"josm":"n337681273","name":"Морозівка"},"geometry":{"type":"Point","coordinates":[31.82757,47.17243]}},
{"type":"Feature","id":"1819209280","properties":{"josm":"n1819209280","name":"Переселення"},"geometry":{"type":"Point","coordinates":[30.79089,49.89231]}},
{"type":"Feature","id":"2906373822","properties":{"josm":"n2906373822","name":"Горб"},"geometry":{"type":"Point","coordinates":[23.72512,48.44346]}},
{"type":"Feature","id":"2906405296","properties":{"josm":"n2906405296","name":"Пекалів"},"geometry":{"type":"Point","coordinates":[25.67439,50.45869]}},
{"type":"Feature","id":"2906820631","properties":{"josm":"n2906820631","name":"Піщане"},"geometry":{"type":"Point","coordinates":[37.35859,50.42973]}},
{"type":"Feature","id":"2914536980","properties":{"josm":"n2914536980","name":"Новоіванівка"},"geometry":{"type":"Point","coordinates":[36.86883,46.98925]}},
{"type":"Feature","id":"2914563036","properties":{"josm":"n2914563036","name":"Гайки"},"geometry":{"type":"Point","coordinates":[33.0842,50.2531]}},
{"type":"Feature","id":"2919001072","properties":{"josm":"n2919001072","name":"Іванівка"},"geometry":{"type":"Point","coordinates":[35.44035,50.28838]}},
{"type":"Feature"}
]}
