{
"type": "FeatureCollection",
"errorDescr": "Highways not found",
"features": [
{"type":"Feature","id":"256614140","properties":{"josm":"n256614140","name":"Кищенко","population":"36","region":"Донецька область","koatuu":"1415390009"},"geometry":{"type":"Point","coordinates":[38.46731,48.08754]}},
{"type":"Feature","id":"337537854","properties":{"josm":"n337537854","name":"Копанка","population":"25","region":"Львівська область","koatuu":"4622785903"},"geometry":{"type":"Point","coordinates":[23.92722,49.99294]}},
{"type":"Feature","id":"337566792","properties":{"josm":"n337566792","name":"Вільне","population":"22","region":"Харківська область","koatuu":"6323181302"},"geometry":{"type":"Point","coordinates":[35.78213,49.22321]}},
{"type":"Feature","id":"337594151","properties":{"josm":"n337594151","name":"Вірне","population":"23","region":"Кіровоградська область","koatuu":"3521781003"},"geometry":{"type":"Point","coordinates":[31.06758,48.55354]}},
{"type":"Feature","id":"337596814","properties":{"josm":"n337596814","name":"Заверхня Кичера","population":"164","region":"Закарпатська область","koatuu":"2122486902"},"geometry":{"type":"Point","coordinates":[23.66695,48.4885]}},
{"type":"Feature","id":"337670923","properties":{"josm":"n337670923","name":"Братолюбівка","population":"490","region":"Миколаївська область","koatuu":"4823055101"},"geometry":{"type":"Point","coordinates":[31.94851,47.7512]}},
{"type":"Feature"}
]}
