{
"type": "FeatureCollection",
"features": [
{"type":"Feature","id":"337527740","properties":{"josm":"n337527740","name":"Рідний Край"},"geometry":{"type":"Point","coordinates":[35.89783,50.16254]}},
{"type":"Feature","id":"337537152","properties":{"josm":"n337537152","name":"Тури"},"geometry":{"type":"Point","coordinates":[26.06294,50.02136]}},
{"type":"Feature","id":"337561534","properties":{"josm":"n337561534","name":"Вигнанка"},"geometry":{"type":"Point","coordinates":[26.41833,49.36016]}},
{"type":"Feature","id":"337563256","properties":{"josm":"n337563256","name":"Остапківці"},"geometry":{"type":"Point","coordinates":[26.53024,49.31098]}},
{"type":"Feature","id":"337600211","properties":{"josm":"n337600211","name":"Нова Слобода"},"geometry":{"type":"Point","coordinates":[27.18327,48.3934]}},
{"type":"Feature","id":"2473956819","properties":{"josm":"n2473956819","name":"Клепівка"},"geometry":{"type":"Point","coordinates":[26.1996,48.89271]}},
{"type":"Feature"}
]}
