{
"type": "FeatureCollection",
"errorDescr": "Highways not found",
"features": [
{"type":"Feature","id":"256614140","properties":{"josm":"n256614140","name":"Кищенко","population":"36","region":"Донецька область","koatuu":"1415390009"},"geometry":{"type":"Point","coordinates":[38.46731,48.08754]}},
{"type":"Feature","id":"337536156","properties":{"josm":"n337536156","name":"Демино-Олександрівка","population":"792","region":"Луганська область","koatuu":"4425482001"},"geometry":{"type":"Point","coordinates":[38.23235,50.03404]}},
{"type":"Feature","id":"337537466","properties":{"josm":"n337537466","name":"Бузове","population":"33","region":"Харківська область","koatuu":"6323581702"},"geometry":{"type":"Point","coordinates":[35.25272,50.00564]}},
{"type":"Feature","id":"337681309","properties":{"josm":"n337681309","name":"Новоолександрівка","population":"961","region":"Миколаївська область","koatuu":"4820683701"},"geometry":{"type":"Point","coordinates":[32.44867,47.16652]}},
{"type":"Feature","id":"4574343803","properties":{"josm":"n4574343803","name":"Марки Хутір","population":"","region":"Житомирська область","koatuu":""},"geometry":{"type":"Point","coordinates":[29.06215,51.35627]}},
{"type":"Feature","id":"4691310167","properties":{"josm":"n4691310167","name":"Кульчин","population":"864","region":"Волинська область","koatuu":"0721882703"},"geometry":{"type":"Point","coordinates":[25.36637,50.90293]}},
{"type":"Feature"}
]}
