{
"type": "FeatureCollection",
"features": [
{"type":"Feature","id":"337506091","properties":{"josm":"n337506091","name":"Лобна"},"geometry":{"type":"Point","coordinates":[25.57652,51.6481]}},
{"type":"Feature","id":"337509357","properties":{"josm":"n337509357","name":"Сташки"},"geometry":{"type":"Point","coordinates":[28.81977,51.3409]}},
{"type":"Feature","id":"337512549","properties":{"josm":"n337512549","name":"Барди"},"geometry":{"type":"Point","coordinates":[28.74985,51.02978]}},
{"type":"Feature","id":"337513009","properties":{"josm":"n337513009","name":"Кожухівка"},"geometry":{"type":"Point","coordinates":[28.57663,50.99126]}},
{"type":"Feature","id":"337521144","properties":{"josm":"n337521144","name":"Бистріївка"},"geometry":{"type":"Point","coordinates":[29.16767,50.476]}},
{"type":"Feature","id":"337527740","properties":{"josm":"n337527740","name":"Рідний Край"},"geometry":{"type":"Point","coordinates":[35.89783,50.16254]}},
{"type":"Feature","id":"337555664","properties":{"josm":"n337555664","name":"Жовтневе"},"geometry":{"type":"Point","coordinates":[36.71258,49.53307]}},
{"type":"Feature","id":"337574967","properties":{"josm":"n337574967","name":"Боднарівка"},"geometry":{"type":"Point","coordinates":[26.22,49.03882]}},
{"type":"Feature","id":"337583605","properties":{"josm":"n337583605","name":"Вільне Друге"},"geometry":{"type":"Point","coordinates":[36.58183,48.84437]}},
{"type":"Feature","id":"337590148","properties":{"josm":"n337590148","name":"Федорівка"},"geometry":{"type":"Point","coordinates":[36.60736,48.67337]}},
{"type":"Feature","id":"337696357","properties":{"josm":"n337696357","name":"Рыбное"},"geometry":{"type":"Point","coordinates":[35.64174,45.3212]}},
{"type":"Feature","id":"2640927348","properties":{"josm":"n2640927348","name":"Верхній Росул"},"geometry":{"type":"Point","coordinates":[23.62004,48.11497]}},
{"type":"Feature","id":"2640927349","properties":{"josm":"n2640927349","name":"Нижній Росул"},"geometry":{"type":"Point","coordinates":[23.60358,48.09646]}},
{"type":"Feature"}
]}
