{
"type": "FeatureCollection",
"errorDescr": "Highways not found",
"features": [
{"type":"Feature","id":"256613855","properties":{"josm":"n256613855","name":"Рідкодуб","population":"26","region":"Донецька область","koatuu":"1425285606"},"geometry":{"type":"Point","coordinates":[38.52295,48.27514]}},
{"type":"Feature","id":"256613873","properties":{"josm":"n256613873","name":"Прибережне","population":"157","region":"Донецька область","koatuu":"1412047900"},"geometry":{"type":"Point","coordinates":[38.32371,48.24652]}},
{"type":"Feature","id":"256614036","properties":{"josm":"n256614036","name":"Бражине","population":"328","region":"Донецька область","koatuu":"1414445600"},"geometry":{"type":"Point","coordinates":[38.82663,47.99616]}},
{"type":"Feature","id":"256614091","properties":{"josm":"n256614091","name":"Лобанівка","population":"24","region":"Донецька область","koatuu":"1415346003"},"geometry":{"type":"Point","coordinates":[38.37279,48.07213]}},
{"type":"Feature","id":"256614379","properties":{"josm":"n256614379","name":"Мала Шишівка","population":"142","region":"Донецька область","koatuu":"1420682005"},"geometry":{"type":"Point","coordinates":[38.48884,47.91919]}},
{"type":"Feature","id":"256614657","properties":{"josm":"n256614657","name":"Калинівка","population":"112","region":"Донецька область","koatuu":"1420985202"},"geometry":{"type":"Point","coordinates":[38.32068,48.34163]}},
{"type":"Feature","id":"256615752","properties":{"josm":"n256615752","name":"Майське","population":"104","region":"Донецька область","koatuu":"1422483703"},"geometry":{"type":"Point","coordinates":[37.77671,48.62445]}},
{"type":"Feature","id":"337518332","properties":{"josm":"n337518332","name":"Яловичі","population":"202","region":"Рівненська область","koatuu":"5623889806"},"geometry":{"type":"Point","coordinates":[25.39024,50.65656]}},
{"type":"Feature","id":"337518443","properties":{"josm":"n337518443","name":"Чекно","population":"100","region":"Рівненська область","koatuu":"5623889807"},"geometry":{"type":"Point","coordinates":[25.38718,50.64591]}},
{"type":"Feature","id":"337524477","properties":{"josm":"n337524477","name":"Дитиничі","population":"489","region":"Рівненська область","koatuu":"5621685205"},"geometry":{"type":"Point","coordinates":[25.73743,50.33443]}},
{"type":"Feature","id":"337524488","properties":{"josm":"n337524488","name":"Клюки","population":"121","region":"Рівненська область","koatuu":"5621685207"},"geometry":{"type":"Point","coordinates":[25.71363,50.32564]}},
{"type":"Feature","id":"337544920","properties":{"josm":"n337544920","name":"Канівщина","population":"218","region":"Черкаська область","koatuu":"7121582002"},"geometry":{"type":"Point","coordinates":[32.18793,49.7862]}},
{"type":"Feature","id":"337548563","properties":{"josm":"n337548563","name":"Рідкодуб","population":"105","region":"Хмельницька область","koatuu":"6824485503"},"geometry":{"type":"Point","coordinates":[27.53068,49.70528]}},
{"type":"Feature","id":"337575326","properties":{"josm":"n337575326","name":"Триліси","population":"398","region":"Кіровоградська область","koatuu":"3520588001"},"geometry":{"type":"Point","coordinates":[32.37726,49.02307]}},
{"type":"Feature","id":"337576908","properties":{"josm":"n337576908","name":"Северинівка","population":"49","region":"Кіровоградська область","koatuu":"3520555105"},"geometry":{"type":"Point","coordinates":[32.3167,49.00034]}},
{"type":"Feature","id":"337577145","properties":{"josm":"n337577145","name":"Китайгород","population":"120","region":"Кіровоградська область","koatuu":"3520555101"},"geometry":{"type":"Point","coordinates":[32.32755,48.98713]}},
{"type":"Feature","id":"337586151","properties":{"josm":"n337586151","name":"Трибухівка","population":"81","region":"Хмельницька область","koatuu":"6821880604"},"geometry":{"type":"Point","coordinates":[26.92509,48.78136]}},
{"type":"Feature","id":"337589632","properties":{"josm":"n337589632","name":"Дачне","population":"26","region":"Луганська область","koatuu":"4424556201"},"geometry":{"type":"Point","coordinates":[38.70483,48.68008]}},
{"type":"Feature","id":"337593290","properties":{"josm":"n337593290","name":"Малий Гвіздець","population":"1084","region":"Івано-Франківська область","koatuu":"2623286703"},"geometry":{"type":"Point","coordinates":[25.27379,48.57125]}},
{"type":"Feature","id":"337603843","properties":{"josm":"n337603843","name":"Дубівка","population":"26","region":"Вінницька область","koatuu":"0524185302"},"geometry":{"type":"Point","coordinates":[29.12441,48.28869]}},
{"type":"Feature","id":"337605399","properties":{"josm":"n337605399","name":"Волова","population":"230","region":"Івано-Франківська область","koatuu":"2620885002"},"geometry":{"type":"Point","coordinates":[24.70046,48.2389]}},
{"type":"Feature","id":"337657610","properties":{"josm":"n337657610","name":"Черемшине","population":"182","region":"Луганська область","koatuu":"4424287705"},"geometry":{"type":"Point","coordinates":[39.85668,48.16818]}},
{"type":"Feature","id":"337658241","properties":{"josm":"n337658241","name":"Провалля","population":"841","region":"Луганська область","koatuu":"4424287701"},"geometry":{"type":"Point","coordinates":[39.82784,48.14758]}},
{"type":"Feature","id":"337658729","properties":{"josm":"n337658729","name":"Бобриківка","population":"379","region":"Луганська область","koatuu":"4424287702"},"geometry":{"type":"Point","coordinates":[39.72072,48.13282]}},
{"type":"Feature","id":"337658816","properties":{"josm":"n337658816","name":"Маяк","population":"196","region":"Луганська область","koatuu":"4424287704"},"geometry":{"type":"Point","coordinates":[39.77017,48.13099]}},
{"type":"Feature","id":"337660787","properties":{"josm":"n337660787","name":"Греблина","population":"295","region":"Чернівецька область","koatuu":"7323580502"},"geometry":{"type":"Point","coordinates":[25.02866,48.06209]}},
{"type":"Feature","id":"337661055","properties":{"josm":"n337661055","name":"Великий Липовець","population":"167","region":"Чернівецька область","koatuu":"7323582002"},"geometry":{"type":"Point","coordinates":[24.98138,48.0536]}},
{"type":"Feature","id":"337661320","properties":{"josm":"n337661320","name":"Малий Дихтинець","population":"330","region":"Чернівецька область","koatuu":"7323580504"},"geometry":{"type":"Point","coordinates":[25.02548,48.04905]}},
{"type":"Feature","id":"337663235","properties":{"josm":"n337663235","name":"Новомар’ївка","population":"","region":"Миколаївська область","koatuu":"4821483901"},"geometry":{"type":"Point","coordinates":[31.50011,48.01011]}},
{"type":"Feature","id":"337663662","properties":{"josm":"n337663662","name":"Гробище","population":"301","region":"Чернівецька область","koatuu":"7323581502"},"geometry":{"type":"Point","coordinates":[25.03802,47.99079]}},
{"type":"Feature","id":"337664695","properties":{"josm":"n337664695","name":"Рижа","population":"682","region":"Чернівецька область","koatuu":"7323555102"},"geometry":{"type":"Point","coordinates":[25.06359,47.95978]}},
{"type":"Feature","id":"337669362","properties":{"josm":"n337669362","name":"Маковіївка","population":"122","region":"Кіровоградська область","koatuu":"3520881202"},"geometry":{"type":"Point","coordinates":[31.87796,47.79512]}},
{"type":"Feature","id":"337682278","properties":{"josm":"n337682278","name":"Путилівка","population":"85","region":"Одеська область","koatuu":"5121683008"},"geometry":{"type":"Point","coordinates":[29.96796,47.12894]}},
{"type":"Feature","id":"337687724","properties":{"josm":"n337687724","name":"Дальнє","population":"244","region":"Херсонська область","koatuu":"6523884503"},"geometry":{"type":"Point","coordinates":[34.05933,46.7173]}},
{"type":"Feature","id":"1342166737","properties":{"josm":"n1342166737","name":"Рассейка","population":"","region":"Одеська область","koatuu":""},"geometry":{"type":"Point","coordinates":[29.83767,45.65181]}},
{"type":"Feature","id":"2906373822","properties":{"josm":"n2906373822","name":"Горб","population":"","region":"Закарпатська область","koatuu":"2122482103"},"geometry":{"type":"Point","coordinates":[23.72512,48.44346]}},
{"type":"Feature","id":"2906405296","properties":{"josm":"n2906405296","name":"Пекалів","population":"","region":"Рівненська область","koatuu":"5623889406"},"geometry":{"type":"Point","coordinates":[25.67439,50.45869]}},
{"type":"Feature","id":"2906820631","properties":{"josm":"n2906820631","name":"Піщане","population":"26","region":"Харківська область","koatuu":"6321684607"},"geometry":{"type":"Point","coordinates":[37.35859,50.42973]}},
{"type":"Feature","id":"2914536980","properties":{"josm":"n2914536980","name":"Новоіванівка","population":"32","region":"Запорізька область","koatuu":"2320683503"},"geometry":{"type":"Point","coordinates":[36.86883,46.98925]}},
{"type":"Feature","id":"2919001072","properties":{"josm":"n2919001072","name":"Іванівка","population":"192","region":"Харківська область","koatuu":"6320888306"},"geometry":{"type":"Point","coordinates":[35.44035,50.28838]}},
{"type":"Feature","id":"2926604005","properties":{"josm":"n2926604005","name":"Новоюр’ївка","population":"","region":"Миколаївська область","koatuu":"4824583401"},"geometry":{"type":"Point","coordinates":[32.68316,47.62936]}},
{"type":"Feature","id":"2926626344","properties":{"josm":"n2926626344","name":"Петроселівка","population":"","region":"Полтавська область","koatuu":"5320480408"},"geometry":{"type":"Point","coordinates":[33.83156,50.33106]}},
{"type":"Feature","id":"2926627090","properties":{"josm":"n2926627090","name":"Тойбік","population":"","region":"Полтавська область","koatuu":"5325481603"},"geometry":{"type":"Point","coordinates":[34.98984,49.63703]}},
{"type":"Feature","id":"2926768282","properties":{"josm":"n2926768282","name":"Мелесівка","population":"516","region":"Черкаська область","koatuu":"7121587804"},"geometry":{"type":"Point","coordinates":[31.98937,49.66497]}},
{"type":"Feature","id":"2926771659","properties":{"josm":"n2926771659","name":"Нова Гута","population":"","region":"Черкаська область","koatuu":"7122088905"},"geometry":{"type":"Point","coordinates":[31.49052,49.67647]}},
{"type":"Feature","id":"2936021521","properties":{"josm":"n2936021521","name":"Петриківка","population":"45","region":"Дніпропетровська область","koatuu":"1220755108"},"geometry":{"type":"Point","coordinates":[35.90973,48.21895]}},
{"type":"Feature","id":"2943024941","properties":{"josm":"n2943024941","name":"Лисичанський","population":"714","region":"Луганська область","koatuu":"4423857201"},"geometry":{"type":"Point","coordinates":[38.36313,48.91291]}},
{"type":"Feature","id":"3213846901","properties":{"josm":"n3213846901","name":"Буковина","population":"","region":"Івано-Франківська область","koatuu":""},"geometry":{"type":"Point","coordinates":[24.61792,48.26441]}},
{"type":"Feature","id":"3213846904","properties":{"josm":"n3213846904","name":"Чертіж","population":"","region":"Івано-Франківська область","koatuu":""},"geometry":{"type":"Point","coordinates":[24.62564,48.26239]}},
{"type":"Feature","id":"3245992561","properties":{"josm":"n3245992561","name":"Вільне","population":"","region":"Київська область","koatuu":""},"geometry":{"type":"Point","coordinates":[31.99085,50.49687]}},
{"type":"Feature"}
]}
