{
"type": "FeatureCollection",
"errorDescr": "Highways not found",
"features": [
{"type":"Feature","id":"256613855","properties":{"josm":"n256613855","name":"Рідкодуб","population":"26","region":"Донецька область","koatuu":"1425285606"},"geometry":{"type":"Point","coordinates":[38.52295,48.27514]}},
{"type":"Feature","id":"256613873","properties":{"josm":"n256613873","name":"Прибережне","population":"157","region":"Донецька область","koatuu":"1412047900"},"geometry":{"type":"Point","coordinates":[38.32371,48.24652]}},
{"type":"Feature","id":"256614036","properties":{"josm":"n256614036","name":"Бражине","population":"328","region":"Донецька область","koatuu":"1414445600"},"geometry":{"type":"Point","coordinates":[38.82663,47.99616]}},
{"type":"Feature","id":"256614091","properties":{"josm":"n256614091","name":"Лобанівка","population":"24","region":"Донецька область","koatuu":"1415346003"},"geometry":{"type":"Point","coordinates":[38.37279,48.07213]}},
{"type":"Feature","id":"256614379","properties":{"josm":"n256614379","name":"Мала Шишівка","population":"142","region":"Донецька область","koatuu":"1420682005"},"geometry":{"type":"Point","coordinates":[38.48884,47.91919]}},
{"type":"Feature","id":"256614657","properties":{"josm":"n256614657","name":"Калинівка","population":"112","region":"Донецька область","koatuu":"1420985202"},"geometry":{"type":"Point","coordinates":[38.32068,48.34163]}},
{"type":"Feature","id":"256615752","properties":{"josm":"n256615752","name":"Майське","population":"104","region":"Донецька область","koatuu":"1422483703"},"geometry":{"type":"Point","coordinates":[37.77671,48.62445]}},
{"type":"Feature","id":"337544920","properties":{"josm":"n337544920","name":"Канівщина","population":"218","region":"Черкаська область","koatuu":"7121582002"},"geometry":{"type":"Point","coordinates":[32.18793,49.7862]}},
{"type":"Feature","id":"337574607","properties":{"josm":"n337574607","name":"Подорожнє","population":"1742","region":"Кіровоградська область","koatuu":"3525287601"},"geometry":{"type":"Point","coordinates":[33.06287,49.04704]}},
{"type":"Feature","id":"337589632","properties":{"josm":"n337589632","name":"Дачне","population":"26","region":"Луганська область","koatuu":"4424556201"},"geometry":{"type":"Point","coordinates":[38.70483,48.68008]}},
{"type":"Feature","id":"337603135","properties":{"josm":"n337603135","name":"Новоголованівськ","population":"","region":"Кіровоградська область","koatuu":"3521487003"},"geometry":{"type":"Point","coordinates":[30.52586,48.30517]}},
{"type":"Feature","id":"337657610","properties":{"josm":"n337657610","name":"Черемшине","population":"182","region":"Луганська область","koatuu":"4424287705"},"geometry":{"type":"Point","coordinates":[39.85668,48.16818]}},
{"type":"Feature","id":"337658241","properties":{"josm":"n337658241","name":"Провалля","population":"841","region":"Луганська область","koatuu":"4424287701"},"geometry":{"type":"Point","coordinates":[39.82784,48.14758]}},
{"type":"Feature","id":"337658729","properties":{"josm":"n337658729","name":"Бобриківка","population":"379","region":"Луганська область","koatuu":"4424287702"},"geometry":{"type":"Point","coordinates":[39.72072,48.13282]}},
{"type":"Feature","id":"337658816","properties":{"josm":"n337658816","name":"Маяк","population":"196","region":"Луганська область","koatuu":"4424287704"},"geometry":{"type":"Point","coordinates":[39.77017,48.13099]}},
{"type":"Feature","id":"337659359","properties":{"josm":"n337659359","name":"Брусівка","population":"384","region":"Кіровоградська область","koatuu":"3525881601"},"geometry":{"type":"Point","coordinates":[32.44777,48.10404]}},
{"type":"Feature","id":"337663235","properties":{"josm":"n337663235","name":"Новомар’ївка","population":"","region":"Миколаївська область","koatuu":"4821483901"},"geometry":{"type":"Point","coordinates":[31.50011,48.01011]}},
{"type":"Feature","id":"1819209280","properties":{"josm":"n1819209280","name":"Переселення","population":"1741","region":"Київська область","koatuu":"3222286001"},"geometry":{"type":"Point","coordinates":[30.79089,49.89231]}},
{"type":"Feature","id":"2906373822","properties":{"josm":"n2906373822","name":"Горб","population":"","region":"Закарпатська область","koatuu":"2122482103"},"geometry":{"type":"Point","coordinates":[23.72512,48.44346]}},
{"type":"Feature","id":"2906405296","properties":{"josm":"n2906405296","name":"Пекалів","population":"","region":"Рівненська область","koatuu":"5623889406"},"geometry":{"type":"Point","coordinates":[25.67439,50.45869]}},
{"type":"Feature","id":"2906820631","properties":{"josm":"n2906820631","name":"Піщане","population":"26","region":"Харківська область","koatuu":"6321684607"},"geometry":{"type":"Point","coordinates":[37.35859,50.42973]}},
{"type":"Feature","id":"2914536980","properties":{"josm":"n2914536980","name":"Новоіванівка","population":"32","region":"Запорізька область","koatuu":"2320683503"},"geometry":{"type":"Point","coordinates":[36.86883,46.98925]}},
{"type":"Feature","id":"2919001072","properties":{"josm":"n2919001072","name":"Іванівка","population":"192","region":"Харківська область","koatuu":"6320888306"},"geometry":{"type":"Point","coordinates":[35.44035,50.28838]}},
{"type":"Feature","id":"2926604005","properties":{"josm":"n2926604005","name":"Новоюр’ївка","population":"","region":"Миколаївська область","koatuu":"4824583401"},"geometry":{"type":"Point","coordinates":[32.68316,47.62936]}},
{"type":"Feature","id":"2926626344","properties":{"josm":"n2926626344","name":"Петроселівка","population":"","region":"Полтавська область","koatuu":"5320480408"},"geometry":{"type":"Point","coordinates":[33.83156,50.33106]}},
{"type":"Feature","id":"2926627090","properties":{"josm":"n2926627090","name":"Тойбік","population":"","region":"Полтавська область","koatuu":"5325481603"},"geometry":{"type":"Point","coordinates":[34.98984,49.63703]}},
{"type":"Feature","id":"2926768282","properties":{"josm":"n2926768282","name":"Мелесівка","population":"516","region":"Черкаська область","koatuu":"7121587804"},"geometry":{"type":"Point","coordinates":[31.98937,49.66497]}},
{"type":"Feature","id":"2926771659","properties":{"josm":"n2926771659","name":"Нова Гута","population":"","region":"Черкаська область","koatuu":"7122088905"},"geometry":{"type":"Point","coordinates":[31.49052,49.67647]}},
{"type":"Feature","id":"2936021521","properties":{"josm":"n2936021521","name":"Петриківка","population":"45","region":"Дніпропетровська область","koatuu":"1220755108"},"geometry":{"type":"Point","coordinates":[35.90973,48.21895]}},
{"type":"Feature","id":"2943024941","properties":{"josm":"n2943024941","name":"Лисичанський","population":"714","region":"Луганська область","koatuu":"4423857201"},"geometry":{"type":"Point","coordinates":[38.36313,48.91291]}},
{"type":"Feature","id":"3047812929","properties":{"josm":"n3047812929","name":"Котички","population":"","region":"Львівська область","koatuu":""},"geometry":{"type":"Point","coordinates":[23.4975,49.44943]}},
{"type":"Feature","id":"3047812930","properties":{"josm":"n3047812930","name":"Тожів","population":"","region":"Львівська область","koatuu":""},"geometry":{"type":"Point","coordinates":[23.49636,49.45071]}},
{"type":"Feature","id":"3092873910","properties":{"josm":"n3092873910","name":"Раковець","population":"","region":"Львівська область","koatuu":""},"geometry":{"type":"Point","coordinates":[23.52643,49.42552]}},
{"type":"Feature"}
]}
