{
"type": "FeatureCollection",
"errorDescr": "Highways not found",
"features": [
{"type":"Feature","id":"337563080","properties":{"josm":"n337563080","name":"Пустовійтове","population":"1283","region":"Полтавська область","koatuu":"5320687601"},"geometry":{"type":"Point","coordinates":[33.38004,49.33659]}},
{"type":"Feature","id":"337687724","properties":{"josm":"n337687724","name":"Дальнє","population":"244","region":"Херсонська область","koatuu":"6523884503"},"geometry":{"type":"Point","coordinates":[34.05933,46.7173]}},
{"type":"Feature","id":"337586151","properties":{"josm":"n337586151","name":"Трибухівка","population":"81","region":"Хмельницька область","koatuu":"6821880604"},"geometry":{"type":"Point","coordinates":[26.92509,48.78136]}},
{"type":"Feature","id":"337582649","properties":{"josm":"n337582649","name":"Зубківка","population":"56","region":"Дніпропетровська область","koatuu":"1225685003"},"geometry":{"type":"Point","coordinates":[34.37108,48.86689]}},
{"type":"Feature","id":"2936021521","properties":{"josm":"n2936021521","name":"Петриківка","population":"45","region":"Дніпропетровська область","koatuu":"1220755108"},"geometry":{"type":"Point","coordinates":[35.90973,48.21895]}},
{"type":"Feature","id":"2914536980","properties":{"josm":"n2914536980","name":"Новоіванівка","population":"32","region":"Запорізька область","koatuu":"2320683503"},"geometry":{"type":"Point","coordinates":[36.86883,46.98925]}},
{"type":"Feature","id":"337663235","properties":{"josm":"n337663235","name":"Новомар’ївка","population":"","region":"Миколаївська область","koatuu":"4821483901"},"geometry":{"type":"Point","coordinates":[31.50011,48.01011]}},
{"type":"Feature","id":"2926604005","properties":{"josm":"n2926604005","name":"Новоюр’ївка","population":"","region":"Миколаївська область","koatuu":"4824583401"},"geometry":{"type":"Point","coordinates":[32.68316,47.62936]}},
{"type":"Feature","id":"2926626344","properties":{"josm":"n2926626344","name":"Петроселівка","population":"","region":"Полтавська область","koatuu":"5320480408"},"geometry":{"type":"Point","coordinates":[33.83156,50.33106]}},
{"type":"Feature","id":"2926627090","properties":{"josm":"n2926627090","name":"Тойбік","population":"","region":"Полтавська область","koatuu":"5325481603"},"geometry":{"type":"Point","coordinates":[34.98984,49.63703]}},
{"type":"Feature","id":"2926771659","properties":{"josm":"n2926771659","name":"Нова Гута","population":"","region":"Черкаська область","koatuu":"7122088905"},"geometry":{"type":"Point","coordinates":[31.49052,49.67647]}},
{"type":"Feature"}
]}
