{
"type": "FeatureCollection",
"errorDescr": "Highways not found",
"features": [
{"type":"Feature","id":"256613889","properties":{"josm":"n256613889","name":"Шапошникове","population":"27","region":"Донецька область","koatuu":"1412090003"},"geometry":{"type":"Point","coordinates":[38.15862,48.192]}},
{"type":"Feature","id":"337504347","properties":{"josm":"n337504347","name":"Горошківка","population":"87","region":"Чернігівська область","koatuu":"7421483202"},"geometry":{"type":"Point","coordinates":[31.53454,51.85924]}},
{"type":"Feature","id":"337504488","properties":{"josm":"n337504488","name":"Стовпівка","population":"115","region":"Чернігівська область","koatuu":"7421483203"},"geometry":{"type":"Point","coordinates":[31.51909,51.84414]}},
{"type":"Feature","id":"337525265","properties":{"josm":"n337525265","name":"Гур’їв","population":"26","region":"Харківська область","koatuu":"6322685002"},"geometry":{"type":"Point","coordinates":[35.71415,50.28305]}},
{"type":"Feature","id":"337526163","properties":{"josm":"n337526163","name":"Посива","population":"31","region":"Рівненська область","koatuu":"5624286002"},"geometry":{"type":"Point","coordinates":[26.21726,50.24506]}},
{"type":"Feature","id":"337593670","properties":{"josm":"n337593670","name":"Загорб","population":"75","region":"Закарпатська область","koatuu":"2122487203"},"geometry":{"type":"Point","coordinates":[23.68378,48.56506]}},
{"type":"Feature","id":"337594028","properties":{"josm":"n337594028","name":"Береги","population":"211","region":"Закарпатська область","koatuu":"2122487202"},"geometry":{"type":"Point","coordinates":[23.70732,48.55487]}},
{"type":"Feature","id":"337596814","properties":{"josm":"n337596814","name":"Заверхня Кичера","population":"164","region":"Закарпатська область","koatuu":"2122486902"},"geometry":{"type":"Point","coordinates":[23.66695,48.4885]}},
{"type":"Feature","id":"337663702","properties":{"josm":"n337663702","name":"Стовпні","population":"63","region":"Івано-Франківська область","koatuu":"2620886503"},"geometry":{"type":"Point","coordinates":[24.82578,48.00255]}},
{"type":"Feature","id":"337693390","properties":{"josm":"n337693390","name":"Вітвисте","population":"","region":"Автономна Республіка Крим","koatuu":"0121180602"},"geometry":{"type":"Point","coordinates":[34.42687,45.79564]}},
{"type":"Feature","id":"6616977633","properties":{"josm":"n6616977633","name":"Усть-Турбат","population":"","region":"Закарпатська область","koatuu":""},"geometry":{"type":"Point","coordinates":[24.05139,48.41354]}},
{"type":"Feature","id":"6616977634","properties":{"josm":"n6616977634","name":"Гаєнка","population":"","region":"Закарпатська область","koatuu":""},"geometry":{"type":"Point","coordinates":[24.04732,48.42883]}},
{"type":"Feature","id":"6616977635","properties":{"josm":"n6616977635","name":"Усть-Плайська","population":"","region":"Закарпатська область","koatuu":""},"geometry":{"type":"Point","coordinates":[24.04572,48.43795]}},
{"type":"Feature","id":"6616977636","properties":{"josm":"n6616977636","name":"Плайська","population":"","region":"Закарпатська область","koatuu":""},"geometry":{"type":"Point","coordinates":[24.0564,48.44374]}},
{"type":"Feature","id":"6616977637","properties":{"josm":"n6616977637","name":"Marmur","population":"","region":"Закарпатська область","koatuu":""},"geometry":{"type":"Point","coordinates":[24.06955,48.45559]}},
{"type":"Feature","id":"6616977638","properties":{"josm":"n6616977638","name":"Podezurnyj","population":"","region":"Закарпатська область","koatuu":""},"geometry":{"type":"Point","coordinates":[24.08894,48.45951]}},
{"type":"Feature","id":"6616977639","properties":{"josm":"n6616977639","name":"Perekrestnyj","population":"","region":"Закарпатська область","koatuu":""},"geometry":{"type":"Point","coordinates":[24.09432,48.46503]}},
{"type":"Feature","id":"6616977640","properties":{"josm":"n6616977640","name":"Komarnik","population":"","region":"Закарпатська область","koatuu":""},"geometry":{"type":"Point","coordinates":[24.10053,48.47476]}},
{"type":"Feature","id":"7907821635","properties":{"josm":"n7907821635","name":"Гутярі","population":"","region":"Львівська область","koatuu":""},"geometry":{"type":"Point","coordinates":[24.10062,50.12463]}},
{"type":"Feature"}
]}
