{
"type": "FeatureCollection",
"errorDescr": "Highways not found",
"features": [
{"type":"Feature","id":"256613889","properties":{"josm":"n256613889","name":"Шапошникове","population":"27","region":"Донецька область","koatuu":"1412090003"},"geometry":{"type":"Point","coordinates":[38.15862,48.192]}},
{"type":"Feature","id":"337504347","properties":{"josm":"n337504347","name":"Горошківка","population":"87","region":"Чернігівська область","koatuu":"7421483202"},"geometry":{"type":"Point","coordinates":[31.53454,51.85924]}},
{"type":"Feature","id":"337504488","properties":{"josm":"n337504488","name":"Стовпівка","population":"115","region":"Чернігівська область","koatuu":"7421483203"},"geometry":{"type":"Point","coordinates":[31.51909,51.84414]}},
{"type":"Feature","id":"337526163","properties":{"josm":"n337526163","name":"Посива","population":"31","region":"Рівненська область","koatuu":"5624286002"},"geometry":{"type":"Point","coordinates":[26.21726,50.24506]}},
{"type":"Feature","id":"337585284","properties":{"josm":"n337585284","name":"Запоріжжя","population":"54","region":"Дніпропетровська область","koatuu":"1222380503"},"geometry":{"type":"Point","coordinates":[34.96025,48.78981]}},
{"type":"Feature","id":"337693390","properties":{"josm":"n337693390","name":"Вітвисте","population":"","region":"Автономна Республіка Крим","koatuu":"0121180602"},"geometry":{"type":"Point","coordinates":[34.42687,45.79564]}},
{"type":"Feature"}
]}
