{
"type": "FeatureCollection",
"features": [
{"type":"Feature","id":"29980666","properties":{"josm":"n29980666","name":"Маріуполь"},"geometry":{"type":"Point","coordinates":[37.59685,47.1248]}},
{"type":"Feature","id":"337561534","properties":{"josm":"n337561534","name":"Вигнанка"},"geometry":{"type":"Point","coordinates":[26.41833,49.36016]}},
{"type":"Feature","id":"337563256","properties":{"josm":"n337563256","name":"Остапківці"},"geometry":{"type":"Point","coordinates":[26.53024,49.31098]}},
{"type":"Feature","id":"337591029","properties":{"josm":"n337591029","name":"Мінеральні Води"},"geometry":{"type":"Point","coordinates":[35.5624,48.64059]}},
{"type":"Feature","id":"337593418","properties":{"josm":"n337593418","name":"Вільховець"},"geometry":{"type":"Point","coordinates":[26.15158,48.57193]}},
{"type":"Feature","id":"337600211","properties":{"josm":"n337600211","name":"Нова Слобода"},"geometry":{"type":"Point","coordinates":[27.18327,48.3934]}},
{"type":"Feature","id":"2473956819","properties":{"josm":"n2473956819","name":"Клепівка"},"geometry":{"type":"Point","coordinates":[26.1996,48.89271]}},
{"type":"Feature"}
]}
