{
"type": "FeatureCollection",
"errorDescr": "Highways not found",
"features": [
{"type":"Feature","id":"256613845","properties":{"josm":"n256613845","name":"Верхня Кринка","population":"119","region":"Донецька область","koatuu":"1412046801"},"geometry":{"type":"Point","coordinates":[38.13325,48.17777]}},
{"type":"Feature","id":"256613860","properties":{"josm":"n256613860","name":"Щебенка","population":"357","region":"Донецька область","koatuu":"1412046809"},"geometry":{"type":"Point","coordinates":[38.14158,48.19213]}},
{"type":"Feature","id":"256614140","properties":{"josm":"n256614140","name":"Кищенко","population":"36","region":"Донецька область","koatuu":"1415390009"},"geometry":{"type":"Point","coordinates":[38.46731,48.08754]}},
{"type":"Feature","id":"337505074","properties":{"josm":"n337505074","name":"Шишка","population":"79","region":"Чернігівська область","koatuu":"7422482006"},"geometry":{"type":"Point","coordinates":[32.09312,51.76586]}},
{"type":"Feature","id":"337515580","properties":{"josm":"n337515580","name":"Платонівка","population":"195","region":"Чернігівська область","koatuu":"7423886004"},"geometry":{"type":"Point","coordinates":[31.64737,50.82082]}},
{"type":"Feature","id":"337544998","properties":{"josm":"n337544998","name":"Калинове","population":"","region":"Харківська область","koatuu":"6323783003"},"geometry":{"type":"Point","coordinates":[37.63512,49.79052]}},
{"type":"Feature","id":"337551806","properties":{"josm":"n337551806","name":"Безпалівка","population":"32","region":"Харківська область","koatuu":"6321786003"},"geometry":{"type":"Point","coordinates":[36.23042,49.63065]}},
{"type":"Feature","id":"337566792","properties":{"josm":"n337566792","name":"Вільне","population":"22","region":"Харківська область","koatuu":"6323181302"},"geometry":{"type":"Point","coordinates":[35.78213,49.22321]}},
{"type":"Feature","id":"337596814","properties":{"josm":"n337596814","name":"Заверхня Кичера","population":"164","region":"Закарпатська область","koatuu":"2122486902"},"geometry":{"type":"Point","coordinates":[23.66695,48.4885]}},
{"type":"Feature","id":"337603786","properties":{"josm":"n337603786","name":"Вороненко","population":"421","region":"Івано-Франківська область","koatuu":"2611093003"},"geometry":{"type":"Point","coordinates":[24.49717,48.29475]}},
{"type":"Feature","id":"337669391","properties":{"josm":"n337669391","name":"Андріївка","population":"34","region":"Миколаївська область","koatuu":"4823680803"},"geometry":{"type":"Point","coordinates":[32.63791,47.80381]}},
{"type":"Feature","id":"337671034","properties":{"josm":"n337671034","name":"Юр’ївка","population":"133","region":"Миколаївська область","koatuu":"4822380806"},"geometry":{"type":"Point","coordinates":[30.56507,47.72627]}},
{"type":"Feature","id":"337674882","properties":{"josm":"n337674882","name":"Новоолександрівка","population":"54","region":"Миколаївська область","koatuu":"4820680803"},"geometry":{"type":"Point","coordinates":[32.21803,47.53447]}},
{"type":"Feature","id":"337675084","properties":{"josm":"n337675084","name":"Кам’янка","population":"85","region":"Миколаївська область","koatuu":"4824884203"},"geometry":{"type":"Point","coordinates":[31.79022,47.52685]}},
{"type":"Feature","id":"337675402","properties":{"josm":"n337675402","name":"Новоочаків","population":"496","region":"Миколаївська область","koatuu":"4821183801"},"geometry":{"type":"Point","coordinates":[32.81888,47.50701]}},
{"type":"Feature","id":"337678853","properties":{"josm":"n337678853","name":"Новоандріївка","population":"173","region":"Миколаївська область","koatuu":"4824286050"},"geometry":{"type":"Point","coordinates":[31.62837,47.31339]}},
{"type":"Feature","id":"337679563","properties":{"josm":"n337679563","name":"Бондарівка","population":"152","region":"Миколаївська область","koatuu":"4821755501"},"geometry":{"type":"Point","coordinates":[31.05256,47.27519]}},
{"type":"Feature","id":"6424312036","properties":{"josm":"n6424312036","name":"Пожарниця","population":"","region":"Львівська область","koatuu":""},"geometry":{"type":"Point","coordinates":[24.56867,50.03193]}},
{"type":"Feature","id":"6518024667","properties":{"josm":"n6518024667","name":"","population":"","region":"Донецька область","koatuu":""},"geometry":{"type":"Point","coordinates":[37.33259,47.15415]}},
{"type":"Feature","id":"6518024668","properties":{"josm":"n6518024668","name":"","population":"","region":"Донецька область","koatuu":""},"geometry":{"type":"Point","coordinates":[37.33266,47.15417]}},
{"type":"Feature","id":"6518024669","properties":{"josm":"n6518024669","name":"","population":"","region":"Донецька область","koatuu":""},"geometry":{"type":"Point","coordinates":[37.33256,47.15413]}},
{"type":"Feature","id":"6616977633","properties":{"josm":"n6616977633","name":"Ust Turbat","population":"","region":"Закарпатська область","koatuu":""},"geometry":{"type":"Point","coordinates":[24.05139,48.41354]}},
{"type":"Feature","id":"6616977634","properties":{"josm":"n6616977634","name":"Hajenka","population":"","region":"Закарпатська область","koatuu":""},"geometry":{"type":"Point","coordinates":[24.04732,48.42883]}},
{"type":"Feature","id":"6616977635","properties":{"josm":"n6616977635","name":"Ust Plajska","population":"","region":"Закарпатська область","koatuu":""},"geometry":{"type":"Point","coordinates":[24.04572,48.43795]}},
{"type":"Feature","id":"6616977636","properties":{"josm":"n6616977636","name":"Plajska","population":"","region":"Закарпатська область","koatuu":""},"geometry":{"type":"Point","coordinates":[24.0564,48.44374]}},
{"type":"Feature","id":"6616977637","properties":{"josm":"n6616977637","name":"Marmur","population":"","region":"Закарпатська область","koatuu":""},"geometry":{"type":"Point","coordinates":[24.06955,48.45559]}},
{"type":"Feature","id":"6616977638","properties":{"josm":"n6616977638","name":"Podezurnyj","population":"","region":"Закарпатська область","koatuu":""},"geometry":{"type":"Point","coordinates":[24.08894,48.45951]}},
{"type":"Feature","id":"6616977639","properties":{"josm":"n6616977639","name":"Perekrestnyj","population":"","region":"Закарпатська область","koatuu":""},"geometry":{"type":"Point","coordinates":[24.09432,48.46503]}},
{"type":"Feature","id":"6616977640","properties":{"josm":"n6616977640","name":"Komarnik","population":"","region":"Закарпатська область","koatuu":""},"geometry":{"type":"Point","coordinates":[24.10053,48.47476]}},
{"type":"Feature"}
]}
