{
"type": "FeatureCollection",
"errorDescr": "Highways not found",
"features": [
{"type":"Feature","id":"337510466","properties":{"josm":"n337510466","name":"Тепениця"},"geometry":{"type":"Point","coordinates":[27.72011,51.24732]}},
{"type":"Feature","id":"337511127","properties":{"josm":"n337511127","name":"Кам’янка"},"geometry":{"type":"Point","coordinates":[27.50084,51.16505]}},
{"type":"Feature","id":"337544920","properties":{"josm":"n337544920","name":"Канівщина"},"geometry":{"type":"Point","coordinates":[32.18793,49.7862]}},
{"type":"Feature","id":"337574607","properties":{"josm":"n337574607","name":"Подорожнє"},"geometry":{"type":"Point","coordinates":[33.06287,49.04704]}},
{"type":"Feature","id":"337603135","properties":{"josm":"n337603135","name":"Новоголованівськ"},"geometry":{"type":"Point","coordinates":[30.52586,48.30517]}},
{"type":"Feature","id":"337657610","properties":{"josm":"n337657610","name":"Черемшине"},"geometry":{"type":"Point","coordinates":[39.85668,48.16818]}},
{"type":"Feature","id":"337658241","properties":{"josm":"n337658241","name":"Провалля"},"geometry":{"type":"Point","coordinates":[39.82784,48.14758]}},
{"type":"Feature","id":"337658729","properties":{"josm":"n337658729","name":"Бобриківка"},"geometry":{"type":"Point","coordinates":[39.72072,48.13282]}},
{"type":"Feature","id":"337658816","properties":{"josm":"n337658816","name":"Маяк"},"geometry":{"type":"Point","coordinates":[39.77017,48.13099]}},
{"type":"Feature","id":"337663235","properties":{"josm":"n337663235","name":"Новомар’ївка"},"geometry":{"type":"Point","coordinates":[31.50011,48.01011]}},
{"type":"Feature","id":"1819209280","properties":{"josm":"n1819209280","name":"Переселення"},"geometry":{"type":"Point","coordinates":[30.79089,49.89231]}},
{"type":"Feature","id":"2906373822","properties":{"josm":"n2906373822","name":"Горб"},"geometry":{"type":"Point","coordinates":[23.72512,48.44346]}},
{"type":"Feature","id":"2906405296","properties":{"josm":"n2906405296","name":"Пекалів"},"geometry":{"type":"Point","coordinates":[25.67439,50.45869]}},
{"type":"Feature","id":"2906820631","properties":{"josm":"n2906820631","name":"Піщане"},"geometry":{"type":"Point","coordinates":[37.35859,50.42973]}},
{"type":"Feature","id":"2914536980","properties":{"josm":"n2914536980","name":"Новоіванівка"},"geometry":{"type":"Point","coordinates":[36.86883,46.98925]}},
{"type":"Feature","id":"2919001072","properties":{"josm":"n2919001072","name":"Іванівка"},"geometry":{"type":"Point","coordinates":[35.44035,50.28838]}},
{"type":"Feature","id":"2926604005","properties":{"josm":"n2926604005","name":"Новоюр'ївка"},"geometry":{"type":"Point","coordinates":[32.68316,47.62936]}},
{"type":"Feature","id":"2926626344","properties":{"josm":"n2926626344","name":"Петроселівка"},"geometry":{"type":"Point","coordinates":[33.83156,50.33106]}},
{"type":"Feature","id":"2926627090","properties":{"josm":"n2926627090","name":"Тойбік"},"geometry":{"type":"Point","coordinates":[34.98984,49.63703]}},
{"type":"Feature","id":"2926768282","properties":{"josm":"n2926768282","name":"Мелесівка"},"geometry":{"type":"Point","coordinates":[31.98937,49.66497]}},
{"type":"Feature","id":"2926771659","properties":{"josm":"n2926771659","name":"Нова Гута"},"geometry":{"type":"Point","coordinates":[31.49052,49.67647]}},
{"type":"Feature","id":"2936021521","properties":{"josm":"n2936021521","name":"Петриківка"},"geometry":{"type":"Point","coordinates":[35.90973,48.21895]}},
{"type":"Feature","id":"2943024941","properties":{"josm":"n2943024941","name":"Лисичанський"},"geometry":{"type":"Point","coordinates":[38.36313,48.91291]}},
{"type":"Feature"}
]}
