{
"type": "FeatureCollection",
"errorDescr": "Highways not found",
"features": [
{"type":"Feature","id":"256613889","properties":{"josm":"n256613889","name":"Шапошникове","population":"27","region":"Донецька область","koatuu":"1412090003"},"geometry":{"type":"Point","coordinates":[38.15862,48.192]}},
{"type":"Feature","id":"337514838","properties":{"josm":"n337514838","name":"Винарівка","population":"31","region":"Житомирська область","koatuu":"1822383602"},"geometry":{"type":"Point","coordinates":[28.86658,50.86292]}},
{"type":"Feature","id":"337525265","properties":{"josm":"n337525265","name":"Гур’їв","population":"26","region":"Харківська область","koatuu":"6322685002"},"geometry":{"type":"Point","coordinates":[35.71415,50.28305]}},
{"type":"Feature","id":"337593670","properties":{"josm":"n337593670","name":"Загорб","population":"75","region":"Закарпатська область","koatuu":"2122487203"},"geometry":{"type":"Point","coordinates":[23.68378,48.56506]}},
{"type":"Feature","id":"337594028","properties":{"josm":"n337594028","name":"Береги","population":"211","region":"Закарпатська область","koatuu":"2122487202"},"geometry":{"type":"Point","coordinates":[23.70732,48.55487]}},
{"type":"Feature","id":"337596814","properties":{"josm":"n337596814","name":"Заверхня Кичера","population":"164","region":"Закарпатська область","koatuu":"2122486902"},"geometry":{"type":"Point","coordinates":[23.66695,48.4885]}},
{"type":"Feature","id":"337663702","properties":{"josm":"n337663702","name":"Стовпні","population":"63","region":"Івано-Франківська область","koatuu":"2620886503"},"geometry":{"type":"Point","coordinates":[24.82578,48.00255]}},
{"type":"Feature","id":"337693390","properties":{"josm":"n337693390","name":"Вітвисте","population":"","region":"Автономна Республіка Крим","koatuu":"0121180602"},"geometry":{"type":"Point","coordinates":[34.42687,45.79564]}},
{"type":"Feature","id":"337697202","properties":{"josm":"n337697202","name":"Фронтове","population":"208","region":"Автономна Республіка Крим","koatuu":"0122787506"},"geometry":{"type":"Point","coordinates":[35.45494,45.19535]}},
{"type":"Feature","id":"337697579","properties":{"josm":"n337697579","name":"Южне","population":"120","region":"Автономна Республіка Крим","koatuu":"0122780802"},"geometry":{"type":"Point","coordinates":[35.65974,45.12377]}},
{"type":"Feature","id":"6616977633","properties":{"josm":"n6616977633","name":"Усть-Турбат","population":"","region":"Закарпатська область","koatuu":""},"geometry":{"type":"Point","coordinates":[24.05139,48.41354]}},
{"type":"Feature","id":"6616977634","properties":{"josm":"n6616977634","name":"Гаєнка","population":"","region":"Закарпатська область","koatuu":""},"geometry":{"type":"Point","coordinates":[24.04732,48.42883]}},
{"type":"Feature","id":"6616977635","properties":{"josm":"n6616977635","name":"Усть-Плайська","population":"","region":"Закарпатська область","koatuu":""},"geometry":{"type":"Point","coordinates":[24.04572,48.43795]}},
{"type":"Feature","id":"6616977636","properties":{"josm":"n6616977636","name":"Плайська","population":"","region":"Закарпатська область","koatuu":""},"geometry":{"type":"Point","coordinates":[24.0564,48.44374]}},
{"type":"Feature","id":"6616977637","properties":{"josm":"n6616977637","name":"ур.Мiст-Мармара","population":"","region":"Закарпатська область","koatuu":""},"geometry":{"type":"Point","coordinates":[24.06955,48.45559]}},
{"type":"Feature","id":"6616977638","properties":{"josm":"n6616977638","name":"Podezurnyj","population":"","region":"Закарпатська область","koatuu":""},"geometry":{"type":"Point","coordinates":[24.08894,48.45951]}},
{"type":"Feature","id":"6616977639","properties":{"josm":"n6616977639","name":"Perekrestnyj","population":"","region":"Закарпатська область","koatuu":""},"geometry":{"type":"Point","coordinates":[24.09432,48.46503]}},
{"type":"Feature","id":"6616977640","properties":{"josm":"n6616977640","name":"Komarnik","population":"","region":"Закарпатська область","koatuu":""},"geometry":{"type":"Point","coordinates":[24.10053,48.47476]}},
{"type":"Feature"}
]}
