{
"type": "FeatureCollection",
"errorDescr": "Highways not found",
"features": [
{"type":"Feature","id":"256614140","properties":{"josm":"n256614140","name":"Кищенко","population":"36","region":"Донецька область","koatuu":"1415390009"},"geometry":{"type":"Point","coordinates":[38.46731,48.08754]}},
{"type":"Feature","id":"337536156","properties":{"josm":"n337536156","name":"Демино-Олександрівка","population":"792","region":"Луганська область","koatuu":"4425482001"},"geometry":{"type":"Point","coordinates":[38.23235,50.03404]}},
{"type":"Feature","id":"337572071","properties":{"josm":"n337572071","name":"Женишківці","population":"1366","region":"Хмельницька область","koatuu":"6820683001"},"geometry":{"type":"Point","coordinates":[27.38033,49.10065]}},
{"type":"Feature","id":"337681309","properties":{"josm":"n337681309","name":"Новоолександрівка","population":"961","region":"Миколаївська область","koatuu":"4820683701"},"geometry":{"type":"Point","coordinates":[32.44867,47.16652]}},
{"type":"Feature","id":"4574343803","properties":{"josm":"n4574343803","name":"Марки Хутір","population":"","region":"Житомирська область","koatuu":""},"geometry":{"type":"Point","coordinates":[29.06215,51.35627]}},
{"type":"Feature"}
]}
