{
"type": "FeatureCollection",
"features": [
{"type":"Feature","id":"337509357","properties":{"josm":"n337509357","name":"Сташки"},"geometry":{"type":"Point","coordinates":[28.81977,51.3409]}},
{"type":"Feature","id":"337518051","properties":{"josm":"n337518051","name":"Щенятин"},"geometry":{"type":"Point","coordinates":[24.41108,50.66684]}},
{"type":"Feature","id":"337527740","properties":{"josm":"n337527740","name":"Рідний Край"},"geometry":{"type":"Point","coordinates":[35.89783,50.16254]}},
{"type":"Feature","id":"337537152","properties":{"josm":"n337537152","name":"Тури"},"geometry":{"type":"Point","coordinates":[26.06294,50.02136]}},
{"type":"Feature","id":"337551255","properties":{"josm":"n337551255","name":"Мосьпанове"},"geometry":{"type":"Point","coordinates":[36.74892,49.64172]}},
{"type":"Feature","id":"337555664","properties":{"josm":"n337555664","name":"Жовтневе"},"geometry":{"type":"Point","coordinates":[36.71258,49.53307]}},
{"type":"Feature","id":"337561534","properties":{"josm":"n337561534","name":"Вигнанка"},"geometry":{"type":"Point","coordinates":[26.41833,49.36016]}},
{"type":"Feature","id":"337563256","properties":{"josm":"n337563256","name":"Остапківці"},"geometry":{"type":"Point","coordinates":[26.53024,49.31098]}},
{"type":"Feature","id":"337597490","properties":{"josm":"n337597490","name":"Ятрань"},"geometry":{"type":"Point","coordinates":[30.73383,48.47373]}},
{"type":"Feature","id":"2428501024","properties":{"josm":"n2428501024","name":"Кирдани"},"geometry":{"type":"Point","coordinates":[28.78429,51.34244]}},
{"type":"Feature"}
]}
