{
"type": "FeatureCollection",
"errorDescr": "Incorrect <b>name</b>-tag value",
"features": [
{"type":"Feature","id":"17032467","properties":{"josm":"w17032467","name":"Командарма Уборевича вулиця","nameuk":"Бучми вулиця"},"geometry":{"type":"Point","coordinates":[36.34768,50.02981]}},
{"type":"Feature","id":"33885196","properties":{"josm":"w33885196","name":"Центральний проспект","nameuk":"Радянський проспект"},"geometry":{"type":"Point","coordinates":[38.50196,48.93524]}},
{"type":"Feature","id":"35446506","properties":{"josm":"w35446506","name":"Дружби Народів бульвар","nameuk":"Леніна вулиця"},"geometry":{"type":"Point","coordinates":[38.49317,48.95404]}},
{"type":"Feature","id":"37026467","properties":{"josm":"w37026467","name":"Юності вулиця","nameuk":"Жовтнева вулиця"},"geometry":{"type":"Point","coordinates":[38.48356,48.94708]}},
{"type":"Feature","id":"38169952","properties":{"josm":"w38169952","name":"Симферопольское шоссе 2","nameuk":"Сімферопольське шосе"},"geometry":{"type":"Point","coordinates":[34.20098,44.51376]}},
{"type":"Feature","id":"39624965","properties":{"josm":"w39624965","name":"Бехтерева вулиця","nameuk":"Бехтерєва вулиця"},"geometry":{"type":"Point","coordinates":[35.18558,48.47181]}},
{"type":"Feature","id":"56044279","properties":{"josm":"w56044279","name":"Дружби Народів бульвар","nameuk":"Леніна вулиця"},"geometry":{"type":"Point","coordinates":[38.48567,48.95213]}},
{"type":"Feature","id":"56044281","properties":{"josm":"w56044281","name":"Дружби Народів бульвар","nameuk":"Леніна вулиця"},"geometry":{"type":"Point","coordinates":[38.47375,48.9488]}},
{"type":"Feature","id":"56220948","properties":{"josm":"w56220948","name":"Центральний проспект","nameuk":"Радянський проспект"},"geometry":{"type":"Point","coordinates":[38.49752,48.94271]}},
{"type":"Feature","id":"56220951","properties":{"josm":"w56220951","name":"Центральний проспект","nameuk":"Радянський проспект"},"geometry":{"type":"Point","coordinates":[38.49766,48.93928]}},
{"type":"Feature","id":"56220962","properties":{"josm":"w56220962","name":"Центральний проспект","nameuk":"Радянський проспект"},"geometry":{"type":"Point","coordinates":[38.4984,48.94122]}},
{"type":"Feature","id":"56279848","properties":{"josm":"w56279848","name":"Центральний проспект","nameuk":"Радянський проспект"},"geometry":{"type":"Point","coordinates":[38.49936,48.93641]}},
{"type":"Feature","id":"56279852","properties":{"josm":"w56279852","name":"Центральний проспект","nameuk":"Радянський проспект"},"geometry":{"type":"Point","coordinates":[38.50025,48.9381]}},
{"type":"Feature","id":"56279857","properties":{"josm":"w56279857","name":"Центральний проспект","nameuk":"Радянський проспект"},"geometry":{"type":"Point","coordinates":[38.49468,48.9475]}},
{"type":"Feature","id":"56279889","properties":{"josm":"w56279889","name":"Центральний проспект","nameuk":"Радянський проспект"},"geometry":{"type":"Point","coordinates":[38.49378,48.94582]}},
{"type":"Feature","id":"58657227","properties":{"josm":"w58657227","name":"Центральний проспект","nameuk":"Радянський проспект"},"geometry":{"type":"Point","coordinates":[38.49861,48.93768]}},
{"type":"Feature","id":"58657277","properties":{"josm":"w58657277","name":"Центральний проспект","nameuk":"Радянський проспект"},"geometry":{"type":"Point","coordinates":[38.50063,48.93745]}},
{"type":"Feature","id":"58657278","properties":{"josm":"w58657278","name":"Центральний проспект","nameuk":"Радянський проспект"},"geometry":{"type":"Point","coordinates":[38.50131,48.93633]}},
{"type":"Feature","id":"58657280","properties":{"josm":"w58657280","name":"Центральний проспект","nameuk":"Радянський проспект"},"geometry":{"type":"Point","coordinates":[38.50026,48.93489]}},
{"type":"Feature","id":"91762438","properties":{"josm":"w91762438","name":"Центральний проспект","nameuk":"Радянський проспект"},"geometry":{"type":"Point","coordinates":[38.49592,48.94221]}},
{"type":"Feature","id":"91762452","properties":{"josm":"w91762452","name":"Центральний проспект","nameuk":"Радянський проспект"},"geometry":{"type":"Point","coordinates":[38.49178,48.94919]}},
{"type":"Feature","id":"91762467","properties":{"josm":"w91762467","name":"Центральний проспект","nameuk":"Радянський проспект"},"geometry":{"type":"Point","coordinates":[38.49138,48.95308]}},
{"type":"Feature","id":"97606345","properties":{"josm":"w97606345","name":"К вулиця","nameuk":"Кримська вулиця"},"geometry":{"type":"Point","coordinates":[36.0368,49.81559]}},
{"type":"Feature","id":"102569260","properties":{"josm":"w102569260","name":"Турецькая вулиця","nameuk":"Турецька вулиця"},"geometry":{"type":"Point","coordinates":[34.10164,44.94632]}},
{"type":"Feature","id":"102687592","properties":{"josm":"w102687592","name":"Солікамська вулиця","nameuk":"Соликамская вулиця"},"geometry":{"type":"Point","coordinates":[37.87854,47.98574]}},
{"type":"Feature","id":"102843494","properties":{"josm":"w102843494","name":"Центральний проспект","nameuk":"Радянський проспект"},"geometry":{"type":"Point","coordinates":[38.48974,48.95266]}},
{"type":"Feature","id":"102843516","properties":{"josm":"w102843516","name":"Центральний проспект","nameuk":"Радянський проспект"},"geometry":{"type":"Point","coordinates":[38.48984,48.9557]}},
{"type":"Feature","id":"103065043","properties":{"josm":"w103065043","name":"Дружби Народів бульвар","nameuk":"Леніна вулиця"},"geometry":{"type":"Point","coordinates":[38.49322,48.95393]}},
{"type":"Feature","id":"106089998","properties":{"josm":"w106089998","name":"11-а Лінія","nameuk":"11-а лінія"},"geometry":{"type":"Point","coordinates":[30.27181,50.54138]}},
{"type":"Feature","id":"109209251","properties":{"josm":"w109209251","name":"Василевської вулиця","nameuk":"Василевскої вулиця"},"geometry":{"type":"Point","coordinates":[38.96238,48.13869]}},
{"type":"Feature","id":"112682964","properties":{"josm":"w112682964","name":"Желанна вулиця","nameuk":"Бажана вулиця"},"geometry":{"type":"Point","coordinates":[37.60074,47.97009]}},
{"type":"Feature","id":"114522645","properties":{"josm":"w114522645","name":"Хлібодарна вулиця","nameuk":"Хлебодарная вулиця"},"geometry":{"type":"Point","coordinates":[37.77355,48.00927]}},
{"type":"Feature","id":"114523373","properties":{"josm":"w114523373","name":"Хлібодарна вулиця","nameuk":"Хлебодарная вулиця"},"geometry":{"type":"Point","coordinates":[37.77172,48.01348]}},
{"type":"Feature","id":"114523799","properties":{"josm":"w114523799","name":"Хлібодарна вулиця","nameuk":"Хлебодарная вулиця"},"geometry":{"type":"Point","coordinates":[37.76268,48.01411]}},
{"type":"Feature","id":"115554203","properties":{"josm":"w115554203","name":"Юр’єва вулиця","nameuk":"Юрійова вулиця"},"geometry":{"type":"Point","coordinates":[37.80535,48.06259]}},
{"type":"Feature","id":"116569276","properties":{"josm":"w116569276","name":"Юрія Смирнова вулиця","nameuk":"Юрія Смірнова вулиця"},"geometry":{"type":"Point","coordinates":[37.7662,48.02867]}},
{"type":"Feature","id":"122835271","properties":{"josm":"w122835271","name":"Молодежная улица","nameuk":"Молодіжна вулиця"},"geometry":{"type":"Point","coordinates":[38.44755,47.85554]}},
{"type":"Feature","id":"126632935","properties":{"josm":"w126632935","name":"Магнiтогорська вулиця","nameuk":"Магнітогорська вулиця"},"geometry":{"type":"Point","coordinates":[37.5917,48.75062]}},
{"type":"Feature","id":"129835863","properties":{"josm":"w129835863","name":"Хлібодарна вулиця","nameuk":"Хлебодарная вулиця"},"geometry":{"type":"Point","coordinates":[37.77402,48.00254]}},
{"type":"Feature","id":"132693323","properties":{"josm":"w132693323","name":"Крейсера «Аврора»вулиця","nameuk":"Крейсера «Аврора» вулиця"},"geometry":{"type":"Point","coordinates":[30.46022,50.39517]}},
{"type":"Feature","id":"136438191","properties":{"josm":"w136438191","name":"Желанна вулиця","nameuk":"Бажана вулиця"},"geometry":{"type":"Point","coordinates":[37.58953,47.97192]}},
{"type":"Feature","id":"137572047","properties":{"josm":"w137572047","name":"60-лет СССР улица","nameuk":"60 років СРСР вулиця"},"geometry":{"type":"Point","coordinates":[38.08159,47.11838]}},
{"type":"Feature","id":"137572682","properties":{"josm":"w137572682","name":"Молодежная улица","nameuk":"Молодіжна вулиця"},"geometry":{"type":"Point","coordinates":[38.10788,47.11351]}},
{"type":"Feature","id":"145109061","properties":{"josm":"w145109061","name":"Бакинских Комисаров улица","nameuk":"Бакинських Комісарів вулиця"},"geometry":{"type":"Point","coordinates":[38.46601,48.03765]}},
{"type":"Feature","id":"148112944","properties":{"josm":"w148112944","name":"Щорса вулиця (стор. пос.Дослідної ст.), Степова ввулиця (стор. с.Вигода)","nameuk":"Щорса вулиця"},"geometry":{"type":"Point","coordinates":[30.39234,46.60883]}},
{"type":"Feature","id":"167455343","properties":{"josm":"w167455343","name":"Турунська вулиця","nameuk":"Турунская вулиця"},"geometry":{"type":"Point","coordinates":[37.67136,47.92072]}},
{"type":"Feature","id":"167458567","properties":{"josm":"w167458567","name":"Проїжджа вулиця","nameuk":"Проїздна вулиця"},"geometry":{"type":"Point","coordinates":[37.67472,47.91954]}},
{"type":"Feature","id":"167459059","properties":{"josm":"w167459059","name":"Бринька вулиця","nameuk":"Бринько вулиця"},"geometry":{"type":"Point","coordinates":[37.6785,47.92013]}},
{"type":"Feature","id":"171633340","properties":{"josm":"w171633340","name":"Верхньошевченківський провулок","nameuk":"Верхньошевченківский провулок"},"geometry":{"type":"Point","coordinates":[37.17433,48.41055]}},
{"type":"Feature","id":"174612580","properties":{"josm":"w174612580","name":"Центральний проспект","nameuk":"Радянський проспект"},"geometry":{"type":"Point","coordinates":[38.4993,48.93969]}},
{"type":"Feature","id":"175083114","properties":{"josm":"w175083114","name":"Рози Люксембург переулок","nameuk":"Рози Люксембург вулиця"},"geometry":{"type":"Point","coordinates":[38.56009,48.85844]}},
{"type":"Feature","id":"179312419","properties":{"josm":"w179312419","name":"Озерная улица","nameuk":"Озерна вулиця"},"geometry":{"type":"Point","coordinates":[37.98966,48.27831]}},
{"type":"Feature","id":"183666170","properties":{"josm":"w183666170","name":"Скелевая улица","nameuk":"Смирнова вулиця"},"geometry":{"type":"Point","coordinates":[38.47919,47.89175]}},
{"type":"Feature","id":"194310367","properties":{"josm":"w194310367","name":"улица Ленина","nameuk":"Леніна вулиця"},"geometry":{"type":"Point","coordinates":[39.27637,48.5007]}},
{"type":"Feature","id":"210554239","properties":{"josm":"w210554239","name":"Магеллана Ф. вулиця","nameuk":"Магеллана вулиця"},"geometry":{"type":"Point","coordinates":[37.99315,48.06218]}},
{"type":"Feature","id":"221866353","properties":{"josm":"w221866353","name":"Кухарева вулиця","nameuk":"23 Кухарева вулиця"},"geometry":{"type":"Point","coordinates":[31.76853,47.31415]}},
{"type":"Feature","id":"223049158","properties":{"josm":"w223049158","name":"Кобилянської вулиця","nameuk":"Кобилянської Ольги вулиця"},"geometry":{"type":"Point","coordinates":[30.77084,50.51228]}},
{"type":"Feature","id":"262721205","properties":{"josm":"w262721205","name":"Чайкиної вулиця","nameuk":"Чайкіної вулиця"},"geometry":{"type":"Point","coordinates":[37.52005,47.5843]}},
{"type":"Feature","id":"272921005","properties":{"josm":"w272921005","name":"Матяхина переулок","nameuk":"Матяхіна провулок"},"geometry":{"type":"Point","coordinates":[34.93156,45.33989]}},
{"type":"Feature","id":"279537294","properties":{"josm":"w279537294","name":"Бринька вулиця","nameuk":"Бринько вулиця"},"geometry":{"type":"Point","coordinates":[37.67722,47.91895]}},
{"type":"Feature","id":"294654872","properties":{"josm":"w294654872","name":"Катовицька вулиця","nameuk":"Катовіцька вулиця"},"geometry":{"type":"Point","coordinates":[37.66677,47.93108]}},
{"type":"Feature","id":"294813883","properties":{"josm":"w294813883","name":"Черняхівського вулиця","nameuk":"Черняховського вулиця"},"geometry":{"type":"Point","coordinates":[38.01292,48.3559]}},
{"type":"Feature","id":"295281340","properties":{"josm":"w295281340","name":"Чкалова улица","nameuk":"Садова вулиця"},"geometry":{"type":"Point","coordinates":[30.24314,46.44675]}},
{"type":"Feature","id":"300862645","properties":{"josm":"w300862645","name":"Молодежная улица","nameuk":"Молодіжна вулиця"},"geometry":{"type":"Point","coordinates":[37.39127,47.23169]}},
{"type":"Feature","id":"300870594","properties":{"josm":"w300870594","name":"Сірка вулиця","nameuk":"Сірика вулиця"},"geometry":{"type":"Point","coordinates":[24.56881,48.61471]}},
{"type":"Feature","id":"304386665","properties":{"josm":"w304386665","name":"Молодежная улица","nameuk":"Молодіжна вулиця"},"geometry":{"type":"Point","coordinates":[38.07073,47.67644]}},
{"type":"Feature","id":"304386676","properties":{"josm":"w304386676","name":"Молодежная улица","nameuk":"Молодіжна вулиця"},"geometry":{"type":"Point","coordinates":[38.07138,47.67776]}},
{"type":"Feature","id":"310815955","properties":{"josm":"w310815955","name":"Дружби Народів бульвар","nameuk":"Леніна вулиця"},"geometry":{"type":"Point","coordinates":[38.48082,48.95089]}},
{"type":"Feature","id":"333432096","properties":{"josm":"w333432096","name":"Молодежная улица","nameuk":"Молодіжна вулиця"},"geometry":{"type":"Point","coordinates":[38.07158,47.67763]}},
{"type":"Feature","id":"335392530","properties":{"josm":"w335392530","name":"Молодежная улица","nameuk":"Молодіжна вулиця"},"geometry":{"type":"Point","coordinates":[37.17476,47.98792]}},
{"type":"Feature","id":"335976624","properties":{"josm":"w335976624","name":"Молодежная улица","nameuk":"Молодіжна вулиця"},"geometry":{"type":"Point","coordinates":[38.94028,47.92131]}},
{"type":"Feature","id":"336116218","properties":{"josm":"w336116218","name":"Озерная улица","nameuk":"Озерна вулиця"},"geometry":{"type":"Point","coordinates":[37.44875,48.57493]}},
{"type":"Feature","id":"336603463","properties":{"josm":"w336603463","name":"Молодежная улица","nameuk":"Молодіжна вулиця"},"geometry":{"type":"Point","coordinates":[38.17663,47.94606]}},
{"type":"Feature","id":"380486154","properties":{"josm":"w380486154","name":"Воровського іулиця","nameuk":"Воровського вулиця"},"geometry":{"type":"Point","coordinates":[38.94329,48.14398]}},
{"type":"Feature","id":"380710788","properties":{"josm":"w380710788","name":"brothers Gorynych","nameuk":"Братів Гуріних"},"geometry":{"type":"Point","coordinates":[31.20468,50.32079]}},
{"type":"Feature"}
]}
