{
"type": "FeatureCollection",
"errorDescr": "Incorrect <b>name</b>-tag value",
"features": [
{"type":"Feature","id":"23746914","properties":{"josm":"w23746914","name":"Кузинський міст","nameuk":"Озерянська вулиця"},"geometry":{"type":"Point","coordinates":[36.20181,49.99719]}},
{"type":"Feature","id":"28472062","properties":{"josm":"w28472062","name":"Щёлкина улица","nameuk":"Щолкіна вулиця"},"geometry":{"type":"Point","coordinates":[35.82334,45.42965]}},
{"type":"Feature","id":"28486564","properties":{"josm":"w28486564","name":"аллея №2","nameuk":"алея №1"},"geometry":{"type":"Point","coordinates":[35.82048,45.43057]}},
{"type":"Feature","id":"29454086","properties":{"josm":"w29454086","name":"M4-Граница с Украиной","nameuk":"M4-кордон з Україною"},"geometry":{"type":"Point","coordinates":[28.90224,47.95107]}},
{"type":"Feature","id":"29454088","properties":{"josm":"w29454088","name":"Подъезд к селу Слобода-Рашков","nameuk":"Під'їзд до села Слобода-Рашків"},"geometry":{"type":"Point","coordinates":[28.9293,47.95618]}},
{"type":"Feature","id":"33792913","properties":{"josm":"w33792913","name":"Шевченко улица","nameuk":"Перемоги площа"},"geometry":{"type":"Point","coordinates":[35.26023,48.62784]}},
{"type":"Feature","id":"34203123","properties":{"josm":"w34203123","name":"Лозовська вулиця","nameuk":"Лозівська вулиця"},"geometry":{"type":"Point","coordinates":[36.20294,50.00958]}},
{"type":"Feature","id":"34203129","properties":{"josm":"w34203129","name":"Копиловська вулиця","nameuk":"Першої Маївки вулиця"},"geometry":{"type":"Point","coordinates":[36.2085,50.00102]}},
{"type":"Feature","id":"34572702","properties":{"josm":"w34572702","name":"Калиновий провулок","nameuk":"Вишневий провулок"},"geometry":{"type":"Point","coordinates":[36.20883,50.03467]}},
{"type":"Feature","id":"34572897","properties":{"josm":"w34572897","name":"провулок Шарівський","nameuk":"Спортивна вулиця"},"geometry":{"type":"Point","coordinates":[36.157,49.9808]}},
{"type":"Feature","id":"34679755","properties":{"josm":"w34679755","name":"Терихівська вулиця","nameuk":"Скорохода вулиця"},"geometry":{"type":"Point","coordinates":[36.18191,49.99515]}},
{"type":"Feature","id":"34839561","properties":{"josm":"w34839561","name":"Стара Озерянка вулиця","nameuk":"Аральська вулиця"},"geometry":{"type":"Point","coordinates":[36.33507,50.04493]}},
{"type":"Feature","id":"37718518","properties":{"josm":"w37718518","name":"Серго Орджоникидзе улица","nameuk":"Орджонікідзе вулиця"},"geometry":{"type":"Point","coordinates":[33.50505,44.59062]}},
{"type":"Feature","id":"39273509","properties":{"josm":"w39273509","name":"Розы Люксембург улица","nameuk":"Рози Люксембург вулиця"},"geometry":{"type":"Point","coordinates":[33.54284,44.60959]}},
{"type":"Feature","id":"41081809","properties":{"josm":"w41081809","name":"Трудова вулиця","nameuk":"Джерельна вулиця"},"geometry":{"type":"Point","coordinates":[27.03142,49.4318]}},
{"type":"Feature","id":"42976870","properties":{"josm":"w42976870","name":"Щёлкина улица","nameuk":"Щолкіна вулиця"},"geometry":{"type":"Point","coordinates":[35.82638,45.4275]}},
{"type":"Feature","id":"43513828","properties":{"josm":"w43513828","name":"Тараса Шевченка вулиця","nameuk":"Шевченка вулиця"},"geometry":{"type":"Point","coordinates":[38.21829,49.04498]}},
{"type":"Feature","id":"51575137","properties":{"josm":"w51575137","name":"Вороб'ївська набережна","nameuk":"Вороб’ївська набережна"},"geometry":{"type":"Point","coordinates":[31.89498,51.04996]}},
{"type":"Feature","id":"54412982","properties":{"josm":"w54412982","name":"Біляєва вулиця","nameuk":"Бєляєва вулиця"},"geometry":{"type":"Point","coordinates":[31.84328,51.05056]}},
{"type":"Feature","id":"71865992","properties":{"josm":"w71865992","name":"Братьев Айвазовских","nameuk":"Братів Айвазовських вулиця"},"geometry":{"type":"Point","coordinates":[34.13894,44.9848]}},
{"type":"Feature","id":"81204334","properties":{"josm":"w81204334","name":"Морозова вулиця","nameuk":"Степана Мазурця вулиця"},"geometry":{"type":"Point","coordinates":[25.36354,50.74829]}},
{"type":"Feature","id":"81204408","properties":{"josm":"w81204408","name":"Малинова вулиця","nameuk":"Вулиця Малинова"},"geometry":{"type":"Point","coordinates":[35.24293,48.64065]}},
{"type":"Feature","id":"83296600","properties":{"josm":"w83296600","name":"Чонгарский мост - Чонгарський міст","nameuk":"Чонгарський міст"},"geometry":{"type":"Point","coordinates":[34.55253,45.98796]}},
{"type":"Feature","id":"86267548","properties":{"josm":"w86267548","name":"Парусная улица","nameuk":"Вітрильна вулиця"},"geometry":{"type":"Point","coordinates":[36.76818,46.7618]}},
{"type":"Feature","id":"86463430","properties":{"josm":"w86463430","name":"Терихівська вулиця","nameuk":"Скорохода вулиця"},"geometry":{"type":"Point","coordinates":[36.18417,49.99402]}},
{"type":"Feature","id":"86859486","properties":{"josm":"w86859486","name":"Колійний провулок","nameuk":"Піщаний провулок"},"geometry":{"type":"Point","coordinates":[36.24212,49.95272]}},
{"type":"Feature","id":"89547645","properties":{"josm":"w89547645","name":"Сковороди вулиця","nameuk":"Калініна вулиця"},"geometry":{"type":"Point","coordinates":[36.18791,49.91355]}},
{"type":"Feature","id":"89934667","properties":{"josm":"w89934667","name":"Затишна / Сергія Кірова вулиця","nameuk":"Затишна вулиця"},"geometry":{"type":"Point","coordinates":[36.03185,49.89827]}},
{"type":"Feature","id":"93343803","properties":{"josm":"w93343803","name":"Олександра Ковальчука вулиця","nameuk":"Наркоматівська вулиця"},"geometry":{"type":"Point","coordinates":[28.62264,49.91086]}},
{"type":"Feature","id":"96330098","properties":{"josm":"w96330098","name":"Тенистая улица","nameuk":"Промисловий провулок"},"geometry":{"type":"Point","coordinates":[33.86362,45.71902]}},
{"type":"Feature","id":"96932502","properties":{"josm":"w96932502","name":"Дорога для пограничников","nameuk":"Дорога для прикордонників"},"geometry":{"type":"Point","coordinates":[33.62748,46.13726]}},
{"type":"Feature","id":"97820519","properties":{"josm":"w97820519","name":"Стадіонний в’їзд","nameuk":"Жовтня в’їзд"},"geometry":{"type":"Point","coordinates":[36.29918,49.87312]}},
{"type":"Feature","id":"100604217","properties":{"josm":"w100604217","name":"улица Куприна","nameuk":"Рубцова вулиця"},"geometry":{"type":"Point","coordinates":[33.6017,44.49859]}},
{"type":"Feature","id":"100977886","properties":{"josm":"w100977886","name":"1-го Травня провулок","nameuk":"1-го Травня вулиця"},"geometry":{"type":"Point","coordinates":[30.43224,50.61408]}},
{"type":"Feature","id":"101248203","properties":{"josm":"w101248203","name":"улица Вели Ибрагимова","nameuk":"Велі Ібрагімова вулиця"},"geometry":{"type":"Point","coordinates":[33.87062,44.74095]}},
{"type":"Feature","id":"101325402","properties":{"josm":"w101325402","name":"Тараса Шевченка вулиця","nameuk":"Шевченка вулиця"},"geometry":{"type":"Point","coordinates":[38.20689,49.04999]}},
{"type":"Feature","id":"103150607","properties":{"josm":"w103150607","name":"Молодіжна улица","nameuk":"Молодіжнаї вулиця"},"geometry":{"type":"Point","coordinates":[38.54897,48.87121]}},
{"type":"Feature","id":"103150617","properties":{"josm":"w103150617","name":"Павла Тичини провулок","nameuk":"Калініна провулок"},"geometry":{"type":"Point","coordinates":[38.55559,48.8626]}},
{"type":"Feature","id":"104134992","properties":{"josm":"w104134992","name":"улица Космонавта Волкова","nameuk":"Вінницька вулиця"},"geometry":{"type":"Point","coordinates":[33.6468,44.58404]}},
{"type":"Feature","id":"105015173","properties":{"josm":"w105015173","name":"Оксани Лятуринської вулиця","nameuk":"Лятуринської вулиця"},"geometry":{"type":"Point","coordinates":[26.20851,50.60105]}},
{"type":"Feature","id":"106549356","properties":{"josm":"w106549356","name":"улица Полины Осипенко","nameuk":"Олега Кошового вулиця"},"geometry":{"type":"Point","coordinates":[36.44107,45.30282]}},
{"type":"Feature","id":"107678769","properties":{"josm":"w107678769","name":"Германа Шахли вулиця","nameuk":"Челюскіна вулиця"},"geometry":{"type":"Point","coordinates":[34.51875,49.5875]}},
{"type":"Feature","id":"107678771","properties":{"josm":"w107678771","name":"Германа Шахли вулиця","nameuk":"Герман Шахли провулок"},"geometry":{"type":"Point","coordinates":[34.51303,49.58498]}},
{"type":"Feature","id":"107909033","properties":{"josm":"w107909033","name":"Перемоги вулиця","nameuk":"40 років Перемоги вулиця"},"geometry":{"type":"Point","coordinates":[24.64553,50.73789]}},
{"type":"Feature","id":"107909061","properties":{"josm":"w107909061","name":"Підзамче вулиця","nameuk":"Маяковського вулиця"},"geometry":{"type":"Point","coordinates":[24.65648,50.73612]}},
{"type":"Feature","id":"107909066","properties":{"josm":"w107909066","name":"Героїв Майдану  вулиця","nameuk":"1-го Травня вулиця"},"geometry":{"type":"Point","coordinates":[24.64958,50.73418]}},
{"type":"Feature","id":"107909089","properties":{"josm":"w107909089","name":"Липинського вулиця","nameuk":"Волошина вулиця"},"geometry":{"type":"Point","coordinates":[24.64487,50.73917]}},
{"type":"Feature","id":"107972062","properties":{"josm":"w107972062","name":"улица Ашик Умера","nameuk":"Ашик Умера вулиця"},"geometry":{"type":"Point","coordinates":[34.99419,44.84843]}},
{"type":"Feature","id":"108147741","properties":{"josm":"w108147741","name":"Героїв Майдану вулиця","nameuk":"1-го Травня вулиця"},"geometry":{"type":"Point","coordinates":[24.64712,50.73399]}},
{"type":"Feature","id":"109582437","properties":{"josm":"w109582437","name":"Восьмого Березня вулиця","nameuk":"Першої Маївки вулиця"},"geometry":{"type":"Point","coordinates":[36.20954,49.99917]}},
{"type":"Feature","id":"110359328","properties":{"josm":"w110359328","name":"улица Игнатенко","nameuk":"Графський проїзд"},"geometry":{"type":"Point","coordinates":[34.17048,44.4968]}},
{"type":"Feature","id":"112686219","properties":{"josm":"w112686219","name":"Війскове містечко-33","nameuk":"Військове містечко-33"},"geometry":{"type":"Point","coordinates":[33.49705,47.88573]}},
{"type":"Feature","id":"113555511","properties":{"josm":"w113555511","name":"Морозенка вулиця","nameuk":"Фабрична вулиця"},"geometry":{"type":"Point","coordinates":[25.7559,50.40792]}},
{"type":"Feature","id":"113952439","properties":{"josm":"w113952439","name":"Короленко вулиця","nameuk":"Короленка вулиця"},"geometry":{"type":"Point","coordinates":[36.72402,48.24373]}},
{"type":"Feature","id":"117903194","properties":{"josm":"w117903194","name":"Кленовий провулок","nameuk":"Суворова вулиця"},"geometry":{"type":"Point","coordinates":[34.36991,48.55028]}},
{"type":"Feature","id":"117951254","properties":{"josm":"w117951254","name":"Гравийная велодорожка (П.Поле - Пятихатки)","nameuk":"Гравійна велодоріжка (П.Поле - П'ятихатки)"},"geometry":{"type":"Point","coordinates":[36.24179,50.05862]}},
{"type":"Feature","id":"118077204","properties":{"josm":"w118077204","name":"Нова вулиця","nameuk":"Гагаріна вулиця"},"geometry":{"type":"Point","coordinates":[35.9455,48.49182]}},
{"type":"Feature","id":"120547614","properties":{"josm":"w120547614","name":"переулок Степной","nameuk":"Черняховського провулок"},"geometry":{"type":"Point","coordinates":[36.57243,45.35198]}},
{"type":"Feature","id":"122460153","properties":{"josm":"w122460153","name":"Веселкова вулиця","nameuk":"Ворошилова вулиця"},"geometry":{"type":"Point","coordinates":[39.22249,48.73516]}},
{"type":"Feature","id":"126494391","properties":{"josm":"w126494391","name":"Приозерна вулиця","nameuk":"Колгоспна вулиця"},"geometry":{"type":"Point","coordinates":[25.23469,50.73974]}},
{"type":"Feature","id":"127023719","properties":{"josm":"w127023719","name":"Друга Галатовка вулиця","nameuk":"Коротка вулиця"},"geometry":{"type":"Point","coordinates":[34.32508,48.6511]}},
{"type":"Feature","id":"127025642","properties":{"josm":"w127025642","name":"Перша Галатовка вулиця","nameuk":"1-а Галатовка вулиця"},"geometry":{"type":"Point","coordinates":[34.32464,48.65001]}},
{"type":"Feature","id":"127025646","properties":{"josm":"w127025646","name":"Матросова перевулок","nameuk":"Матросова вулиця"},"geometry":{"type":"Point","coordinates":[34.32135,48.65105]}},
{"type":"Feature","id":"127025648","properties":{"josm":"w127025648","name":"Дніпровська вулиця","nameuk":"Крупської вулиця"},"geometry":{"type":"Point","coordinates":[34.32211,48.65072]}},
{"type":"Feature","id":"127029389","properties":{"josm":"w127029389","name":"Лісна вулиця","nameuk":"Лісова вулиця"},"geometry":{"type":"Point","coordinates":[34.31856,48.65183]}},
{"type":"Feature","id":"127029392","properties":{"josm":"w127029392","name":"Лісна вулиця","nameuk":"Лісова вулиця"},"geometry":{"type":"Point","coordinates":[34.31896,48.65281]}},
{"type":"Feature","id":"127029394","properties":{"josm":"w127029394","name":"Львівська вулиця","nameuk":"Морська вулиця"},"geometry":{"type":"Point","coordinates":[34.31745,48.6512]}},
{"type":"Feature","id":"127029395","properties":{"josm":"w127029395","name":"Верхньодніпровська  вулиця","nameuk":"Харківська вулиця"},"geometry":{"type":"Point","coordinates":[34.31755,48.65011]}},
{"type":"Feature","id":"127029399","properties":{"josm":"w127029399","name":"Галатовський провулок","nameuk":"Базарна вулиця"},"geometry":{"type":"Point","coordinates":[34.32656,48.65062]}},
{"type":"Feature","id":"127628449","properties":{"josm":"w127628449","name":"Богдана Хмельницького вулиця","nameuk":"Леніна вулиця"},"geometry":{"type":"Point","coordinates":[34.37441,48.55064]}},
{"type":"Feature","id":"127628645","properties":{"josm":"w127628645","name":"Ново Степова вулиця","nameuk":"Степова вулиця"},"geometry":{"type":"Point","coordinates":[34.37564,48.54783]}},
{"type":"Feature","id":"127632636","properties":{"josm":"w127632636","name":"Яблунева вулиця","nameuk":"Островського вулиця"},"geometry":{"type":"Point","coordinates":[34.36637,48.55798]}},
{"type":"Feature","id":"127670675","properties":{"josm":"w127670675","name":"Горяна вулиця","nameuk":"Горянська вулиця"},"geometry":{"type":"Point","coordinates":[34.31496,48.54109]}},
{"type":"Feature","id":"129253771","properties":{"josm":"w129253771","name":"Щербицкого площадь","nameuk":"Щербицького площа"},"geometry":{"type":"Point","coordinates":[34.33472,48.65432]}},
{"type":"Feature","id":"129253772","properties":{"josm":"w129253772","name":"Щербицкого площадь","nameuk":"Щербицького площа"},"geometry":{"type":"Point","coordinates":[34.33457,48.65417]}},
{"type":"Feature","id":"130735207","properties":{"josm":"w130735207","name":"Щаслила вулиця","nameuk":"Щаслива вулиця"},"geometry":{"type":"Point","coordinates":[33.70025,47.66965]}},
{"type":"Feature","id":"131654326","properties":{"josm":"w131654326","name":"Григорія Сковороди вулиця","nameuk":"Сковороди вулиця"},"geometry":{"type":"Point","coordinates":[38.42721,48.92228]}},
{"type":"Feature","id":"131654327","properties":{"josm":"w131654327","name":"Ігоря Сікорського вулиця","nameuk":"Сікорського вулиця"},"geometry":{"type":"Point","coordinates":[38.41302,48.91841]}},
{"type":"Feature","id":"131860045","properties":{"josm":"w131860045","name":"Соняшникова вулиця","nameuk":"Балашівська вулиця"},"geometry":{"type":"Point","coordinates":[38.36616,48.94954]}},
{"type":"Feature","id":"132277339","properties":{"josm":"w132277339","name":"Артемівська вулиця","nameuk":"Бахмутська вулиця"},"geometry":{"type":"Point","coordinates":[37.69152,48.54374]}},
{"type":"Feature","id":"132628306","properties":{"josm":"w132628306","name":"Олекси Тихого вулиця","nameuk":"Московська вулиця"},"geometry":{"type":"Point","coordinates":[37.53734,48.6445]}},
{"type":"Feature","id":"133266546","properties":{"josm":"w133266546","name":"Павлово Поле - Колодец","nameuk":"П.Поле - Колодязь"},"geometry":{"type":"Point","coordinates":[36.24795,50.04476]}},
{"type":"Feature","id":"133382117","properties":{"josm":"w133382117","name":"Максима Залізняка вулиця","nameuk":"Залізняка вулиця"},"geometry":{"type":"Point","coordinates":[27.00495,49.45475]}},
{"type":"Feature","id":"134690294","properties":{"josm":"w134690294","name":"Соняшникова вулиця","nameuk":"Балашівська вулиця"},"geometry":{"type":"Point","coordinates":[38.36767,48.94871]}},
{"type":"Feature","id":"135196195","properties":{"josm":"w135196195","name":"Мостова вулиця","nameuk":"Слизкоухого вулиця"},"geometry":{"type":"Point","coordinates":[34.31372,48.65874]}},
{"type":"Feature","id":"135370934","properties":{"josm":"w135370934","name":"Ломоносова провулок","nameuk":"Провулок Ломоносова"},"geometry":{"type":"Point","coordinates":[38.38333,48.62065]}},
{"type":"Feature","id":"135370939","properties":{"josm":"w135370939","name":"Ломоносова провулок","nameuk":"Провулок Ломоносова"},"geometry":{"type":"Point","coordinates":[38.37815,48.62633]}},
{"type":"Feature","id":"135372709","properties":{"josm":"w135372709","name":"Лермонтова провулок","nameuk":"Провулок Лермонтова"},"geometry":{"type":"Point","coordinates":[38.3839,48.62324]}},
{"type":"Feature","id":"135377331","properties":{"josm":"w135377331","name":"Семафорний провулок","nameuk":"Семофорний провулок"},"geometry":{"type":"Point","coordinates":[38.40295,48.63232]}},
{"type":"Feature","id":"135377404","properties":{"josm":"w135377404","name":"Вільховий провулок","nameuk":"Ольховий провулок"},"geometry":{"type":"Point","coordinates":[38.4062,48.63237]}},
{"type":"Feature","id":"135377407","properties":{"josm":"w135377407","name":"Фадєєва провулок","nameuk":"Провулок Фадєєва"},"geometry":{"type":"Point","coordinates":[38.40807,48.63151]}},
{"type":"Feature","id":"135459425","properties":{"josm":"w135459425","name":"Шкільний провулок","nameuk":"Гоголя вулиця"},"geometry":{"type":"Point","coordinates":[34.29189,48.65689]}},
{"type":"Feature","id":"135902905","properties":{"josm":"w135902905","name":"В. Листопад вулиця","nameuk":"Нечуя-Левицького вулиця"},"geometry":{"type":"Point","coordinates":[34.28796,48.64997]}},
{"type":"Feature","id":"136199618","properties":{"josm":"w136199618","name":"Олександра Довженка вулиця","nameuk":"Довженка вулиця"},"geometry":{"type":"Point","coordinates":[38.42237,48.92094]}},
{"type":"Feature","id":"136240219","properties":{"josm":"w136240219","name":"Носаль Є. І. вулиця","nameuk":"Носаль вулиця"},"geometry":{"type":"Point","coordinates":[35.29509,47.37318]}},
{"type":"Feature","id":"138099205","properties":{"josm":"w138099205","name":"Бурковського вулиця","nameuk":"Костюка вулиця"},"geometry":{"type":"Point","coordinates":[27.64529,50.5706]}},
{"type":"Feature","id":"139378060","properties":{"josm":"w139378060","name":"Бесарабська вулиця","nameuk":"Бессарабська вулиця"},"geometry":{"type":"Point","coordinates":[30.64782,46.47325]}},
{"type":"Feature","id":"140011166","properties":{"josm":"w140011166","name":"Прокоф’єва вулиця","nameuk":"вулиця Прокоф’єва"},"geometry":{"type":"Point","coordinates":[37.52743,47.93439]}},
{"type":"Feature","id":"142456424","properties":{"josm":"w142456424","name":"Переможний провулок","nameuk":"Привокзальна вулиця"},"geometry":{"type":"Point","coordinates":[34.37849,48.55418]}},
{"type":"Feature","id":"142456425","properties":{"josm":"w142456425","name":"Ново Степова вулиця","nameuk":"Степова вулиця"},"geometry":{"type":"Point","coordinates":[34.38265,48.54513]}},
{"type":"Feature","id":"143766909","properties":{"josm":"w143766909","name":"Молодежная","nameuk":"Польова вулиця"},"geometry":{"type":"Point","coordinates":[33.60582,45.14944]}},
{"type":"Feature","id":"143769863","properties":{"josm":"w143769863","name":"улица Челеби-Джихана","nameuk":"Челебі Джихана вулиця"},"geometry":{"type":"Point","coordinates":[33.62767,45.1429]}},
{"type":"Feature","id":"143769886","properties":{"josm":"w143769886","name":"улица Челеби-Джихана","nameuk":"Челебі Джихана вулиця"},"geometry":{"type":"Point","coordinates":[33.62805,45.1397]}},
{"type":"Feature","id":"150052780","properties":{"josm":"w150052780","name":"Прижвальського вулиця","nameuk":"Прживальського вулиця"},"geometry":{"type":"Point","coordinates":[34.58245,48.49816]}},
{"type":"Feature","id":"151352979","properties":{"josm":"w151352979","name":"Монастирська вулиця","nameuk":"Пролетарська вулиця"},"geometry":{"type":"Point","coordinates":[35.51197,50.17088]}},
{"type":"Feature","id":"151360757","properties":{"josm":"w151360757","name":"Лісний провулок","nameuk":"Лісовий провулок"},"geometry":{"type":"Point","coordinates":[35.48212,50.16235]}},
{"type":"Feature","id":"152261427","properties":{"josm":"w152261427","name":"вулиця Навродського","nameuk":"Куйбишева вулиця"},"geometry":{"type":"Point","coordinates":[37.02842,48.90106]}},
{"type":"Feature","id":"153652830","properties":{"josm":"w153652830","name":"Нагірна вулиця","nameuk":"Нагорна вулиця"},"geometry":{"type":"Point","coordinates":[34.87115,48.58758]}},
{"type":"Feature","id":"154409607","properties":{"josm":"w154409607","name":"Каштанова вулиця","nameuk":"Леніна вулиця"},"geometry":{"type":"Point","coordinates":[39.23669,48.73871]}},
{"type":"Feature","id":"154409608","properties":{"josm":"w154409608","name":"Центральна вулиця","nameuk":"Радянська вулиця"},"geometry":{"type":"Point","coordinates":[39.23529,48.73789]}},
{"type":"Feature","id":"158361441","properties":{"josm":"w158361441","name":"Ювілейна вулця","nameuk":"Ювілейна вулиця"},"geometry":{"type":"Point","coordinates":[36.39359,49.98839]}},
{"type":"Feature","id":"158668353","properties":{"josm":"w158668353","name":"Спортивна вулиця","nameuk":"Терешкової вулиця"},"geometry":{"type":"Point","coordinates":[34.41473,48.59323]}},
{"type":"Feature","id":"159757635","properties":{"josm":"w159757635","name":"Леніна вулиця","nameuk":"Центральна вулиця"},"geometry":{"type":"Point","coordinates":[38.98928,48.9594]}},
{"type":"Feature","id":"159757640","properties":{"josm":"w159757640","name":"Солнечная вулиця","nameuk":"Радянська вулиця"},"geometry":{"type":"Point","coordinates":[38.98695,48.9629]}},
{"type":"Feature","id":"160906937","properties":{"josm":"w160906937","name":"Зазулинского","nameuk":"Зазулинського"},"geometry":{"type":"Point","coordinates":[28.95062,50.10287]}},
{"type":"Feature","id":"162361872","properties":{"josm":"w162361872","name":"Полтавська (Радевича) вулиця","nameuk":"Полтавська вулиця"},"geometry":{"type":"Point","coordinates":[35.09855,49.44263]}},
{"type":"Feature","id":"162361874","properties":{"josm":"w162361874","name":"Полтавська (Радевича) вулиця","nameuk":"Полтавська вулиця"},"geometry":{"type":"Point","coordinates":[35.13742,49.45199]}},
{"type":"Feature","id":"165194760","properties":{"josm":"w165194760","name":"улица Степана Разина","nameuk":"1-го Травня вулиця"},"geometry":{"type":"Point","coordinates":[36.53495,45.35913]}},
{"type":"Feature","id":"166898262","properties":{"josm":"w166898262","name":"вулиця Чужбинського","nameuk":"вулиця Чужбинского"},"geometry":{"type":"Point","coordinates":[26.47344,48.50633]}},
{"type":"Feature","id":"167676268","properties":{"josm":"w167676268","name":"Бумажний провулок","nameuk":"Михайличенка провулок"},"geometry":{"type":"Point","coordinates":[34.57105,49.59038]}},
{"type":"Feature","id":"167991159","properties":{"josm":"w167991159","name":"Садова провулок чи вулиця?","nameuk":"Садова провулок"},"geometry":{"type":"Point","coordinates":[33.17754,49.59085]}},
{"type":"Feature","id":"168727056","properties":{"josm":"w168727056","name":"улица Валиуллы Муртазаева","nameuk":"Валіулли Муртазаєва вулиця"},"geometry":{"type":"Point","coordinates":[33.8648,44.73721]}},
{"type":"Feature","id":"168908093","properties":{"josm":"w168908093","name":"Героїв-підпільників вулиця","nameuk":"Ленінської Іскри вулиця"},"geometry":{"type":"Point","coordinates":[37.54655,48.59575]}},
{"type":"Feature","id":"169566576","properties":{"josm":"w169566576","name":"Лип'янська вулиця","nameuk":"Ганни Дмитришиної вулиця"},"geometry":{"type":"Point","coordinates":[26.0273,50.5549]}},
{"type":"Feature","id":"171264907","properties":{"josm":"w171264907","name":"Приозёрная улица","nameuk":"Приозерна вулиця"},"geometry":{"type":"Point","coordinates":[36.04156,49.97504]}},
{"type":"Feature","id":"171661501","properties":{"josm":"w171661501","name":"Костянтина Хохлова вулиця","nameuk":"Новобродівська вулиця"},"geometry":{"type":"Point","coordinates":[30.5441,50.318]}},
{"type":"Feature","id":"172302821","properties":{"josm":"w172302821","name":"Безхлібна (Гребінківська) вулиця","nameuk":"Безхлібна вулиця"},"geometry":{"type":"Point","coordinates":[32.44026,50.10391]}},
{"type":"Feature","id":"173096203","properties":{"josm":"w173096203","name":"Незалежності вулиця","nameuk":"Комсомольська вулиця"},"geometry":{"type":"Point","coordinates":[37.09086,48.46051]}},
{"type":"Feature","id":"174277419","properties":{"josm":"w174277419","name":"Соборна вулиця","nameuk":"Леніна вулиця"},"geometry":{"type":"Point","coordinates":[35.27681,47.43795]}},
{"type":"Feature","id":"174667926","properties":{"josm":"w174667926","name":"Артемовская улица","nameuk":"Артемівська вулиця"},"geometry":{"type":"Point","coordinates":[34.99774,48.54648]}},
{"type":"Feature","id":"174667927","properties":{"josm":"w174667927","name":"Центральная улица","nameuk":"Центральна вулиця"},"geometry":{"type":"Point","coordinates":[35.00596,48.54173]}},
{"type":"Feature","id":"174667930","properties":{"josm":"w174667930","name":"Конечная улица","nameuk":"Кінцева вулиця"},"geometry":{"type":"Point","coordinates":[34.99931,48.54534]}},
{"type":"Feature","id":"174667932","properties":{"josm":"w174667932","name":"Ореховая улица","nameuk":"Орехова вулиця"},"geometry":{"type":"Point","coordinates":[34.99525,48.54153]}},
{"type":"Feature","id":"174667944","properties":{"josm":"w174667944","name":"Лесная улица","nameuk":"Лісова вулиця"},"geometry":{"type":"Point","coordinates":[34.99435,48.54944]}},
{"type":"Feature","id":"174667945","properties":{"josm":"w174667945","name":"Грушевая улица","nameuk":"Грушева вулиця"},"geometry":{"type":"Point","coordinates":[34.99593,48.54744]}},
{"type":"Feature","id":"174667949","properties":{"josm":"w174667949","name":"Центральная улица","nameuk":"Центральна вулиця"},"geometry":{"type":"Point","coordinates":[35.0059,48.54179]}},
{"type":"Feature","id":"174667951","properties":{"josm":"w174667951","name":"Вишневая улица","nameuk":"Вишнева вулиця"},"geometry":{"type":"Point","coordinates":[34.99533,48.54816]}},
{"type":"Feature","id":"174667955","properties":{"josm":"w174667955","name":"Зеленая улица","nameuk":"Зелена вулиця"},"geometry":{"type":"Point","coordinates":[34.99424,48.54857]}},
{"type":"Feature","id":"174667994","properties":{"josm":"w174667994","name":"Волжская улица","nameuk":"Волзька вулиця"},"geometry":{"type":"Point","coordinates":[35.00552,48.54237]}},
{"type":"Feature","id":"174770207","properties":{"josm":"w174770207","name":"Веселий провулок","nameuk":"Куйбишева провулок"},"geometry":{"type":"Point","coordinates":[38.56232,48.85886]}},
{"type":"Feature","id":"174964536","properties":{"josm":"w174964536","name":"Михайла Петренко вулиця","nameuk":"Череватенка вулиця"},"geometry":{"type":"Point","coordinates":[37.1555,48.29622]}},
{"type":"Feature","id":"175082175","properties":{"josm":"w175082175","name":"Борівська вулиця","nameuk":"Борівськавулиця"},"geometry":{"type":"Point","coordinates":[38.5845,48.86465]}},
{"type":"Feature","id":"175802142","properties":{"josm":"w175802142","name":"Залізнична вулиця","nameuk":"Шота вулиця"},"geometry":{"type":"Point","coordinates":[37.15583,48.28773]}},
{"type":"Feature","id":"175802157","properties":{"josm":"w175802157","name":"Залізнична вулиця","nameuk":"Шота вулиця"},"geometry":{"type":"Point","coordinates":[37.14862,48.2872]}},
{"type":"Feature","id":"178436209","properties":{"josm":"w178436209","name":"Тараса Шевченка вулиця","nameuk":"Шевченка вулиця"},"geometry":{"type":"Point","coordinates":[38.21525,49.04626]}},
{"type":"Feature","id":"179918769","properties":{"josm":"w179918769","name":"Садова вулиця","nameuk":"Вишнева вулиця"},"geometry":{"type":"Point","coordinates":[38.51072,48.90954]}},
{"type":"Feature","id":"180466537","properties":{"josm":"w180466537","name":"Полевая улица","nameuk":"Польова вулиця"},"geometry":{"type":"Point","coordinates":[34.59607,48.58273]}},
{"type":"Feature","id":"180746422","properties":{"josm":"w180746422","name":"Черняховского вулиця","nameuk":"Черняховского  вулиця"},"geometry":{"type":"Point","coordinates":[39.3698,48.55142]}},
{"type":"Feature","id":"181264317","properties":{"josm":"w181264317","name":"Ванди Біневськой провулок","nameuk":"Джерельний провулок"},"geometry":{"type":"Point","coordinates":[36.35264,49.97136]}},
{"type":"Feature","id":"182694851","properties":{"josm":"w182694851","name":"Вишневая улица","nameuk":"Вишнева вулиця"},"geometry":{"type":"Point","coordinates":[35.07745,48.60259]}},
{"type":"Feature","id":"182694891","properties":{"josm":"w182694891","name":"Огородная улица","nameuk":"Огородна вулиця"},"geometry":{"type":"Point","coordinates":[35.07564,48.60184]}},
{"type":"Feature","id":"183125914","properties":{"josm":"w183125914","name":"Грушевського вулиця","nameuk":"Вишнева вулиця"},"geometry":{"type":"Point","coordinates":[25.99277,51.30871]}},
{"type":"Feature","id":"183931574","properties":{"josm":"w183931574","name":"Андрія Шептицького вулиця","nameuk":"Андрея Шептицького вулиця"},"geometry":{"type":"Point","coordinates":[24.2422,50.40045]}},
{"type":"Feature","id":"184190875","properties":{"josm":"w184190875","name":"вулиця Фрідріха Енгельса","nameuk":"Фрідріха Енгельса вулиця"},"geometry":{"type":"Point","coordinates":[37.78177,48.38535]}},
{"type":"Feature","id":"184306707","properties":{"josm":"w184306707","name":"2-й Удайський провулок","nameuk":"2-й Удайский провулок"},"geometry":{"type":"Point","coordinates":[32.42243,50.59173]}},
{"type":"Feature","id":"185704730","properties":{"josm":"w185704730","name":"вулиця Кірова","nameuk":"Кірова вулиця"},"geometry":{"type":"Point","coordinates":[37.77964,48.39805]}},
{"type":"Feature","id":"185704739","properties":{"josm":"w185704739","name":"вулиця Леніна","nameuk":"Леніна вулиця"},"geometry":{"type":"Point","coordinates":[37.77869,48.39893]}},
{"type":"Feature","id":"185704742","properties":{"josm":"w185704742","name":"вулиця Клименка","nameuk":"Клименко вулиця"},"geometry":{"type":"Point","coordinates":[37.79917,48.37144]}},
{"type":"Feature","id":"185704746","properties":{"josm":"w185704746","name":"вулиця Миру","nameuk":"Миру вулиця"},"geometry":{"type":"Point","coordinates":[37.77606,48.39748]}},
{"type":"Feature","id":"186724962","properties":{"josm":"w186724962","name":"Набережная улица","nameuk":"Набережна вулиця"},"geometry":{"type":"Point","coordinates":[36.40827,49.80359]}},
{"type":"Feature","id":"188857704","properties":{"josm":"w188857704","name":"переулок Северный","nameuk":"Миру вулиця"},"geometry":{"type":"Point","coordinates":[36.36155,49.95489]}},
{"type":"Feature","id":"191206496","properties":{"josm":"w191206496","name":"Берегоий провулок","nameuk":"Береговий провулок"},"geometry":{"type":"Point","coordinates":[32.42489,50.59957]}},
{"type":"Feature","id":"193152518","properties":{"josm":"w193152518","name":"вулиця Чернівецька","nameuk":"вулиця Черновицкая"},"geometry":{"type":"Point","coordinates":[26.48016,48.49575]}},
{"type":"Feature","id":"198189137","properties":{"josm":"w198189137","name":"Річковий провулок","nameuk":"Річкоий провулок"},"geometry":{"type":"Point","coordinates":[38.36889,48.63769]}},
{"type":"Feature","id":"199513925","properties":{"josm":"w199513925","name":"Літописна вулиця","nameuk":"Чапаєва вулиця"},"geometry":{"type":"Point","coordinates":[25.44959,50.83679]}},
{"type":"Feature","id":"199515978","properties":{"josm":"w199515978","name":"Січових стрільців вулиця","nameuk":"Свердлова вулиця"},"geometry":{"type":"Point","coordinates":[25.44944,50.83879]}},
{"type":"Feature","id":"199515987","properties":{"josm":"w199515987","name":"Холмська вулиця","nameuk":"Щорса вулиця"},"geometry":{"type":"Point","coordinates":[25.44823,50.83923]}},
{"type":"Feature","id":"201427896","properties":{"josm":"w201427896","name":"Улица Зигмунда Квасневського","nameuk":"вулиця Зигмунда Квасьнєвського"},"geometry":{"type":"Point","coordinates":[26.9011,49.41428]}},
{"type":"Feature","id":"201437356","properties":{"josm":"w201437356","name":"улица Мира","nameuk":"вулиця Миру"},"geometry":{"type":"Point","coordinates":[26.90464,49.41392]}},
{"type":"Feature","id":"202614969","properties":{"josm":"w202614969","name":"333-ї Дивізії вулиця","nameuk":"333-ї дивізії вулиця"},"geometry":{"type":"Point","coordinates":[35.50627,48.33054]}},
{"type":"Feature","id":"205144613","properties":{"josm":"w205144613","name":"Красносільська вулиця","nameuk":"Степова вулиця"},"geometry":{"type":"Point","coordinates":[30.76927,46.57225]}},
{"type":"Feature","id":"205185209","properties":{"josm":"w205185209","name":"Мелітопольска вулиця","nameuk":"Жоліо Кюрі вулиця"},"geometry":{"type":"Point","coordinates":[30.7731,46.56735]}},
{"type":"Feature","id":"205186147","properties":{"josm":"w205186147","name":"13-а Суворівська вулиця","nameuk":"12-а Суворівська вулиця"},"geometry":{"type":"Point","coordinates":[30.77652,46.57341]}},
{"type":"Feature","id":"205955545","properties":{"josm":"w205955545","name":"улица Маламута Муссы","nameuk":"Маламута Мусси вулиця"},"geometry":{"type":"Point","coordinates":[35.19483,45.18246]}},
{"type":"Feature","id":"206663187","properties":{"josm":"w206663187","name":"Светлый переулок","nameuk":"Бузкова вулиця"},"geometry":{"type":"Point","coordinates":[33.34098,45.21787]}},
{"type":"Feature","id":"209027701","properties":{"josm":"w209027701","name":"вулиця 23-тя Лінія","nameuk":"вулиця 21-ша Лінія"},"geometry":{"type":"Point","coordinates":[31.91172,46.96248]}},
{"type":"Feature","id":"209027712","properties":{"josm":"w209027712","name":"вулиця 22-га Лінія","nameuk":"вулиця 21-ша Лінія"},"geometry":{"type":"Point","coordinates":[31.91299,46.96505]}},
{"type":"Feature","id":"213434074","properties":{"josm":"w213434074","name":"Спортивна вулиця","nameuk":"Дніпровська вулиця"},"geometry":{"type":"Point","coordinates":[36.07823,48.5267]}},
{"type":"Feature","id":"214776430","properties":{"josm":"w214776430","name":"Хасановский переулок","nameuk":"Хасанівський провулок"},"geometry":{"type":"Point","coordinates":[34.35275,47.56593]}},
{"type":"Feature","id":"218700667","properties":{"josm":"w218700667","name":"Млечный путь","nameuk":"Чумацький шлях"},"geometry":{"type":"Point","coordinates":[32.65062,48.70635]}},
{"type":"Feature","id":"220260634","properties":{"josm":"w220260634","name":"Виноградна вулиця","nameuk":"Виноградка вулиця"},"geometry":{"type":"Point","coordinates":[34.80556,46.17865]}},
{"type":"Feature","id":"223216626","properties":{"josm":"w223216626","name":"улица Мусы Мамута","nameuk":"Муси Мамута вулиця"},"geometry":{"type":"Point","coordinates":[33.99424,44.79057]}},
{"type":"Feature","id":"223346705","properties":{"josm":"w223346705","name":"улица Мусы Мамута","nameuk":"Муси Мамута вулиця"},"geometry":{"type":"Point","coordinates":[33.99439,44.79006]}},
{"type":"Feature","id":"224747271","properties":{"josm":"w224747271","name":"улица Симиренко","nameuk":"Симеренка вулиця"},"geometry":{"type":"Point","coordinates":[34.86838,45.27785]}},
{"type":"Feature","id":"225931419","properties":{"josm":"w225931419","name":"улица Шевченко","nameuk":"Шевченка вулиця"},"geometry":{"type":"Point","coordinates":[33.99461,44.78689]}},
{"type":"Feature","id":"227338758","properties":{"josm":"w227338758","name":"Шевченка вулиця","nameuk":"Шевченко вулиця"},"geometry":{"type":"Point","coordinates":[32.53634,49.08462]}},
{"type":"Feature","id":"227338760","properties":{"josm":"w227338760","name":"Шевченка вулиця","nameuk":"Шевченко вулиця"},"geometry":{"type":"Point","coordinates":[32.54284,49.09018]}},
{"type":"Feature","id":"227575588","properties":{"josm":"w227575588","name":"Андрія Шептицького вулиця","nameuk":"Андрея Шептицького вулиця"},"geometry":{"type":"Point","coordinates":[24.24386,50.40102]}},
{"type":"Feature","id":"227575603","properties":{"josm":"w227575603","name":"Ґонти вулиця","nameuk":"Івана Ґонти вулиця"},"geometry":{"type":"Point","coordinates":[24.22723,50.37828]}},
{"type":"Feature","id":"227575604","properties":{"josm":"w227575604","name":"Лепкого вулиця","nameuk":"Богдана Лепкого вулиця"},"geometry":{"type":"Point","coordinates":[24.22276,50.38007]}},
{"type":"Feature","id":"227575612","properties":{"josm":"w227575612","name":"Курбаса вулиця","nameuk":"Леся Курбаса вулиця"},"geometry":{"type":"Point","coordinates":[24.22302,50.38021]}},
{"type":"Feature","id":"227902187","properties":{"josm":"w227902187","name":"Центральна вулиця","nameuk":"Леніна вулиця"},"geometry":{"type":"Point","coordinates":[30.6277,46.53608]}},
{"type":"Feature","id":"228978885","properties":{"josm":"w228978885","name":"Турчиновського вулиця","nameuk":"Козацька вулиця"},"geometry":{"type":"Point","coordinates":[31.02796,50.75254]}},
{"type":"Feature","id":"230102083","properties":{"josm":"w230102083","name":"улица Николаева","nameuk":"Фрунзе вулиця"},"geometry":{"type":"Point","coordinates":[33.97594,44.81918]}},
{"type":"Feature","id":"230804362","properties":{"josm":"w230804362","name":"Рудничный проезд","nameuk":"Рудничний проїзд"},"geometry":{"type":"Point","coordinates":[33.58611,44.51302]}},
{"type":"Feature","id":"231093804","properties":{"josm":"w231093804","name":"Троянд провулок","nameuk":"2-й Вишневий провулок"},"geometry":{"type":"Point","coordinates":[33.27919,48.04376]}},
{"type":"Feature","id":"234316233","properties":{"josm":"w234316233","name":"Центральная улица","nameuk":"Центральна вулиця"},"geometry":{"type":"Point","coordinates":[37.05109,48.21304]}},
{"type":"Feature","id":"238295194","properties":{"josm":"w238295194","name":"улица Комова","nameuk":"Комова вулиця"},"geometry":{"type":"Point","coordinates":[38.20261,47.92388]}},
{"type":"Feature","id":"238498877","properties":{"josm":"w238498877","name":"Лермонтова вулиця","nameuk":"Некрасова вулиця"},"geometry":{"type":"Point","coordinates":[26.97718,49.65622]}},
{"type":"Feature","id":"239162603","properties":{"josm":"w239162603","name":"вулиця Саркісова","nameuk":"Курганський провулок"},"geometry":{"type":"Point","coordinates":[37.59868,48.7653]}},
{"type":"Feature","id":"241720836","properties":{"josm":"w241720836","name":"Вишнёвая улица","nameuk":"Вишнева вулиця"},"geometry":{"type":"Point","coordinates":[33.62116,44.89954]}},
{"type":"Feature","id":"242337057","properties":{"josm":"w242337057","name":"Шкільна вулиця","nameuk":"Чкалова вулиця"},"geometry":{"type":"Point","coordinates":[39.45048,48.67179]}},
{"type":"Feature","id":"242940229","properties":{"josm":"w242940229","name":"Слесарная улица","nameuk":"Кузнечна вулиця"},"geometry":{"type":"Point","coordinates":[33.53347,44.59176]}},
{"type":"Feature","id":"243042977","properties":{"josm":"w243042977","name":"Літописна вулиця","nameuk":"Чапаєва вулиця"},"geometry":{"type":"Point","coordinates":[25.45242,50.84029]}},
{"type":"Feature","id":"244337378","properties":{"josm":"w244337378","name":"Новоселів вулиця","nameuk":"Новосельців вулиця"},"geometry":{"type":"Point","coordinates":[25.49595,51.75466]}},
{"type":"Feature","id":"244356476","properties":{"josm":"w244356476","name":"Соняча вулиця","nameuk":"Сонячна вулиця"},"geometry":{"type":"Point","coordinates":[37.57067,48.1544]}},
{"type":"Feature","id":"246867425","properties":{"josm":"w246867425","name":"улица Водохранилище","nameuk":"Водосховище вулиця"},"geometry":{"type":"Point","coordinates":[35.12108,45.0414]}},
{"type":"Feature","id":"247192215","properties":{"josm":"w247192215","name":"Макарова провулок","nameuk":"Комунальний провулок"},"geometry":{"type":"Point","coordinates":[25.35342,50.775]}},
{"type":"Feature","id":"248979979","properties":{"josm":"w248979979","name":"Остромирская улица","nameuk":"Остромирська вулиця"},"geometry":{"type":"Point","coordinates":[30.22034,50.58352]}},
{"type":"Feature","id":"249018162","properties":{"josm":"w249018162","name":"Івана Виговського вулиця","nameuk":"Карла Маркса вулиця"},"geometry":{"type":"Point","coordinates":[26.57877,49.1759]}},
{"type":"Feature","id":"250527536","properties":{"josm":"w250527536","name":"Тиха  вулиця","nameuk":"Центральна вулиця"},"geometry":{"type":"Point","coordinates":[34.01819,48.79832]}},
{"type":"Feature","id":"250559101","properties":{"josm":"w250559101","name":"Пугачёва вулиця","nameuk":"Пугачова вулиця"},"geometry":{"type":"Point","coordinates":[38.02356,48.31831]}},
{"type":"Feature","id":"259211826","properties":{"josm":"w259211826","name":"Гагаріна вулиця","nameuk":"вулиця Гагаріна"},"geometry":{"type":"Point","coordinates":[28.00038,51.21557]}},
{"type":"Feature","id":"259211827","properties":{"josm":"w259211827","name":"Космонавтів вулиця","nameuk":"вулиця Космонавтів"},"geometry":{"type":"Point","coordinates":[27.99953,51.21415]}},
{"type":"Feature","id":"259938422","properties":{"josm":"w259938422","name":"Першотравнева вулиця","nameuk":"1-го Травня вулиця"},"geometry":{"type":"Point","coordinates":[37.65897,47.45905]}},
{"type":"Feature","id":"259938447","properties":{"josm":"w259938447","name":"Виноградна (Радянська) вулиця","nameuk":"вул. Виноградна (Радянська)"},"geometry":{"type":"Point","coordinates":[37.65351,47.45899]}},
{"type":"Feature","id":"262721205","properties":{"josm":"w262721205","name":"Чайкиної вулиця","nameuk":"Чайкіної вулиця"},"geometry":{"type":"Point","coordinates":[37.52005,47.5843]}},
{"type":"Feature","id":"265091648","properties":{"josm":"w265091648","name":"Крайний переулок","nameuk":"Крайня вулиця"},"geometry":{"type":"Point","coordinates":[34.95539,45.18745]}},
{"type":"Feature","id":"267064327","properties":{"josm":"w267064327","name":"5-й Кавказький проїзд","nameuk":"Ранкова вулиця"},"geometry":{"type":"Point","coordinates":[26.99478,49.38967]}},
{"type":"Feature","id":"270845826","properties":{"josm":"w270845826","name":"Шлольна (Горького) вулиця","nameuk":"Школьна (Горького) вулиця"},"geometry":{"type":"Point","coordinates":[37.38382,48.25914]}},
{"type":"Feature","id":"270891475","properties":{"josm":"w270891475","name":"вул. Шкільна","nameuk":"Щорса вулиця"},"geometry":{"type":"Point","coordinates":[36.83511,47.84941]}},
{"type":"Feature","id":"271546835","properties":{"josm":"w271546835","name":"Провулок Міус","nameuk":"провулок Міус"},"geometry":{"type":"Point","coordinates":[39.00323,48.95995]}},
{"type":"Feature","id":"272266082","properties":{"josm":"w272266082","name":"переулок 23 Мая 1919 Года","nameuk":"23 Травня 1919 Року провулок"},"geometry":{"type":"Point","coordinates":[36.46963,45.35381]}},
{"type":"Feature","id":"282868567","properties":{"josm":"w282868567","name":"Ангарська вулиця","nameuk":"Ангорська вулиця"},"geometry":{"type":"Point","coordinates":[38.0659,48.31445]}},
{"type":"Feature","id":"282936491","properties":{"josm":"w282936491","name":"пер.Керченский","nameuk":"Керченьський провулок"},"geometry":{"type":"Point","coordinates":[38.05412,48.31456]}},
{"type":"Feature","id":"283311754","properties":{"josm":"w283311754","name":"Інститутський провулок","nameuk":"Інститутська вулиця"},"geometry":{"type":"Point","coordinates":[30.09205,49.78417]}},
{"type":"Feature","id":"283377044","properties":{"josm":"w283377044","name":"16 Березня вулиця","nameuk":"16-го Березня вулиця"},"geometry":{"type":"Point","coordinates":[32.15657,48.06269]}},
{"type":"Feature","id":"285946976","properties":{"josm":"w285946976","name":"Дніпровська","nameuk":"Артема вулиця"},"geometry":{"type":"Point","coordinates":[37.82659,48.58891]}},
{"type":"Feature","id":"293912067","properties":{"josm":"w293912067","name":"Зелёная улица","nameuk":"Зелений провулок"},"geometry":{"type":"Point","coordinates":[36.45284,45.35428]}},
{"type":"Feature","id":"301242063","properties":{"josm":"w301242063","name":"Максименко провулок","nameuk":"Комсомольський провулок"},"geometry":{"type":"Point","coordinates":[35.14077,49.45904]}},
{"type":"Feature","id":"302097957","properties":{"josm":"w302097957","name":"Щаслива (Якіра) вулиця","nameuk":"Щаслива вулиця"},"geometry":{"type":"Point","coordinates":[33.45085,49.07914]}},
{"type":"Feature","id":"302895063","properties":{"josm":"w302895063","name":"Советская улица","nameuk":"Радянська вулиця"},"geometry":{"type":"Point","coordinates":[29.27366,47.88552]}},
{"type":"Feature","id":"304386665","properties":{"josm":"w304386665","name":"Молодежная улица","nameuk":"Молодіжна вулиця"},"geometry":{"type":"Point","coordinates":[38.07073,47.67642]}},
{"type":"Feature","id":"304386676","properties":{"josm":"w304386676","name":"Молодежная улица","nameuk":"Молодіжна вулиця"},"geometry":{"type":"Point","coordinates":[38.07138,47.67776]}},
{"type":"Feature","id":"306281266","properties":{"josm":"w306281266","name":"Максименко провулок","nameuk":"Комсомольський провулок"},"geometry":{"type":"Point","coordinates":[35.14239,49.45879]}},
{"type":"Feature","id":"307938865","properties":{"josm":"w307938865","name":"Козаченка вулиця","nameuk":"Козаченко вулиця"},"geometry":{"type":"Point","coordinates":[38.43313,48.8914]}},
{"type":"Feature","id":"307941928","properties":{"josm":"w307941928","name":"Івана Франка вулиця","nameuk":"Франка вулиця"},"geometry":{"type":"Point","coordinates":[38.43574,48.89034]}},
{"type":"Feature","id":"308454787","properties":{"josm":"w308454787","name":"улица Ешиль Ада","nameuk":"Мирна вулиця"},"geometry":{"type":"Point","coordinates":[34.9888,44.83915]}},
{"type":"Feature","id":"308959407","properties":{"josm":"w308959407","name":"Зелена вулиця","nameuk":"Зелена"},"geometry":{"type":"Point","coordinates":[30.63797,46.44013]}},
{"type":"Feature","id":"312682467","properties":{"josm":"w312682467","name":"вулиця Гавриїла Зелінського","nameuk":"str. Gavriyla Zelinskogo"},"geometry":{"type":"Point","coordinates":[35.25155,48.63347]}},
{"type":"Feature","id":"313115162","properties":{"josm":"w313115162","name":"Фестивальна вулиця","nameuk":"Будьонного вулиця"},"geometry":{"type":"Point","coordinates":[30.63932,46.54076]}},
{"type":"Feature","id":"315422864","properties":{"josm":"w315422864","name":"Пещаный провулок","nameuk":"Піщаний"},"geometry":{"type":"Point","coordinates":[39.10507,49.53936]}},
{"type":"Feature","id":"317865075","properties":{"josm":"w317865075","name":"Каіткова вулиця","nameuk":"Квіткова вулиця"},"geometry":{"type":"Point","coordinates":[38.72733,49.5343]}},
{"type":"Feature","id":"319671081","properties":{"josm":"w319671081","name":"Терешкова вулиця","nameuk":"Мічуріна вулиця"},"geometry":{"type":"Point","coordinates":[29.85431,47.07752]}},
{"type":"Feature","id":"320121311","properties":{"josm":"w320121311","name":"Східна вулиця","nameuk":"Skhidna"},"geometry":{"type":"Point","coordinates":[35.14095,48.56738]}},
{"type":"Feature","id":"321520284","properties":{"josm":"w321520284","name":"Одеський лунапарк","nameuk":"Odessa lunapark"},"geometry":{"type":"Point","coordinates":[30.75549,46.47542]}},
{"type":"Feature","id":"327118718","properties":{"josm":"w327118718","name":"Залізнична вулиця","nameuk":"Шота вулиця"},"geometry":{"type":"Point","coordinates":[37.1524,48.28753]}},
{"type":"Feature","id":"330419472","properties":{"josm":"w330419472","name":"улица Ревкомовская","nameuk":"Ревкомівська вулиця"},"geometry":{"type":"Point","coordinates":[38.23011,48.20334]}},
{"type":"Feature","id":"333432096","properties":{"josm":"w333432096","name":"Молодежная улица","nameuk":"Молодіжна вулиця"},"geometry":{"type":"Point","coordinates":[38.07158,47.67763]}},
{"type":"Feature","id":"333545976","properties":{"josm":"w333545976","name":"улица Милании Мусиенко","nameuk":"Меланії Мусієнко вулиця"},"geometry":{"type":"Point","coordinates":[36.56242,45.36011]}},
{"type":"Feature","id":"333884083","properties":{"josm":"w333884083","name":"Героїв Чорнобиля вулиця","nameuk":"вулиця Героїв Чорнобиля"},"geometry":{"type":"Point","coordinates":[37.51755,47.93412]}},
{"type":"Feature","id":"333884143","properties":{"josm":"w333884143","name":"Прокоф’єва вулиця","nameuk":"вулиця Прокоф’єва"},"geometry":{"type":"Point","coordinates":[37.50544,47.94183]}},
{"type":"Feature","id":"335890716","properties":{"josm":"w335890716","name":"Південний провулок","nameuk":"Чкалова провулок"},"geometry":{"type":"Point","coordinates":[37.55187,47.7075]}},
{"type":"Feature","id":"336116218","properties":{"josm":"w336116218","name":"Озерная улица","nameuk":"Озерна вулиця"},"geometry":{"type":"Point","coordinates":[37.44876,48.57494]}},
{"type":"Feature","id":"336925963","properties":{"josm":"w336925963","name":"вулиця Горького","nameuk":"Горького вулиця"},"geometry":{"type":"Point","coordinates":[37.78403,48.40066]}},
{"type":"Feature","id":"336925964","properties":{"josm":"w336925964","name":"вулиця Дзержинського","nameuk":"Дзержинського вулиця"},"geometry":{"type":"Point","coordinates":[37.80207,48.37934]}},
{"type":"Feature","id":"336925965","properties":{"josm":"w336925965","name":"вулиця Карла Маркса","nameuk":"Карла Маркса вулиця"},"geometry":{"type":"Point","coordinates":[37.78699,48.38625]}},
{"type":"Feature","id":"336925969","properties":{"josm":"w336925969","name":"вулиця Куйбишева","nameuk":"Куйбишева вулиця"},"geometry":{"type":"Point","coordinates":[37.80116,48.38657]}},
{"type":"Feature","id":"336925974","properties":{"josm":"w336925974","name":"вулиця Пилипенка","nameuk":"Пилипенко вулиця"},"geometry":{"type":"Point","coordinates":[37.80041,48.38436]}},
{"type":"Feature","id":"336925975","properties":{"josm":"w336925975","name":"вулиця Перемоги","nameuk":"Перемоги вулиця"},"geometry":{"type":"Point","coordinates":[37.78302,48.4026]}},
{"type":"Feature","id":"336925977","properties":{"josm":"w336925977","name":"вулиця Шевченка","nameuk":"Шевченка вулиця"},"geometry":{"type":"Point","coordinates":[37.77916,48.39989]}},
{"type":"Feature","id":"338984267","properties":{"josm":"w338984267","name":"провулок Чужбинського","nameuk":"провулок Чужбинского"},"geometry":{"type":"Point","coordinates":[26.47057,48.50593]}},
{"type":"Feature","id":"342359442","properties":{"josm":"w342359442","name":"Бумажний провулок","nameuk":"Михайличенка провулок"},"geometry":{"type":"Point","coordinates":[34.56912,49.59059]}},
{"type":"Feature","id":"348715556","properties":{"josm":"w348715556","name":"Садова вулиця","nameuk":"Садовий провулок"},"geometry":{"type":"Point","coordinates":[38.1616,48.55637]}},
{"type":"Feature","id":"349524842","properties":{"josm":"w349524842","name":"Школьная","nameuk":"Шкільна"},"geometry":{"type":"Point","coordinates":[28.94415,50.10129]}},
{"type":"Feature","id":"349524858","properties":{"josm":"w349524858","name":"Школьная","nameuk":"Шкільна"},"geometry":{"type":"Point","coordinates":[28.94346,50.1012]}},
{"type":"Feature","id":"349524861","properties":{"josm":"w349524861","name":"Школьная","nameuk":"Шкільна"},"geometry":{"type":"Point","coordinates":[28.94358,50.10249]}},
{"type":"Feature","id":"360780680","properties":{"josm":"w360780680","name":"Щорса вулиця","nameuk":"Шевченка вулиця"},"geometry":{"type":"Point","coordinates":[27.17762,49.73306]}},
{"type":"Feature","id":"365887782","properties":{"josm":"w365887782","name":"Троицкая вулиця","nameuk":"Троїцка вулиця"},"geometry":{"type":"Point","coordinates":[36.09548,48.5199]}},
{"type":"Feature","id":"366809369","properties":{"josm":"w366809369","name":"улица 8 Марта","nameuk":"вулиця 8 Березня"},"geometry":{"type":"Point","coordinates":[34.94411,50.83221]}},
{"type":"Feature","id":"368897230","properties":{"josm":"w368897230","name":"Троицкая вулиця","nameuk":"Троїцка вулиця"},"geometry":{"type":"Point","coordinates":[36.10967,48.52327]}},
{"type":"Feature","id":"370094427","properties":{"josm":"w370094427","name":"Островського провулок","nameuk":"Миру провулок"},"geometry":{"type":"Point","coordinates":[38.15959,48.55038]}},
{"type":"Feature","id":"370883839","properties":{"josm":"w370883839","name":"Шевченка вулиця","nameuk":"Шевченко вулиця"},"geometry":{"type":"Point","coordinates":[32.53138,49.07995]}},
{"type":"Feature","id":"374245997","properties":{"josm":"w374245997","name":"Шахтаря вулиця","nameuk":"вулиця Шахтаря"},"geometry":{"type":"Point","coordinates":[35.8705,49.72716]}},
{"type":"Feature","id":"388243183","properties":{"josm":"w388243183","name":"3-я лінія","nameuk":"3-а лінія"},"geometry":{"type":"Point","coordinates":[30.72739,46.40448]}},
{"type":"Feature","id":"390098801","properties":{"josm":"w390098801","name":"Корнієвського провулок","nameuk":"Корнiєвського провулок"},"geometry":{"type":"Point","coordinates":[32.24705,51.78217]}},
{"type":"Feature","id":"395269031","properties":{"josm":"w395269031","name":"Носаль Є. І. вулиця","nameuk":"Носаль вулиця"},"geometry":{"type":"Point","coordinates":[35.3103,47.37529]}},
{"type":"Feature","id":"400220181","properties":{"josm":"w400220181","name":"провулок Грищенка","nameuk":"Грищенко вулиця"},"geometry":{"type":"Point","coordinates":[36.39105,49.98682]}},
{"type":"Feature","id":"400414730","properties":{"josm":"w400414730","name":"Остапа Вересая вулиця","nameuk":"Вересая провулок"},"geometry":{"type":"Point","coordinates":[26.24932,50.61702]}},
{"type":"Feature","id":"401767751","properties":{"josm":"w401767751","name":"Центральный провулок","nameuk":"Поштовий провулок"},"geometry":{"type":"Point","coordinates":[35.55625,49.90875]}},
{"type":"Feature","id":"404015264","properties":{"josm":"w404015264","name":"Калиновий проїзд","nameuk":"Калиновий провулок"},"geometry":{"type":"Point","coordinates":[35.8422,48.53972]}},
{"type":"Feature","id":"404015266","properties":{"josm":"w404015266","name":"Тополиний проїзд","nameuk":"Тополиний провулок"},"geometry":{"type":"Point","coordinates":[35.83968,48.53952]}},
{"type":"Feature","id":"413943505","properties":{"josm":"w413943505","name":"Оптимистов улица","nameuk":"Оптимістів вулиця"},"geometry":{"type":"Point","coordinates":[35.1119,48.37723]}},
{"type":"Feature","id":"417700935","properties":{"josm":"w417700935","name":"Банківська вулиця","nameuk":"Олександра Пушкіна вулиця"},"geometry":{"type":"Point","coordinates":[24.90219,49.8062]}},
{"type":"Feature","id":"417800569","properties":{"josm":"w417800569","name":"Максименко провулок","nameuk":"Комсомольський провулок"},"geometry":{"type":"Point","coordinates":[35.14683,49.4588]}},
{"type":"Feature","id":"422965942","properties":{"josm":"w422965942","name":"Kozacka","nameuk":"Козацька"},"geometry":{"type":"Point","coordinates":[25.42374,50.82134]}},
{"type":"Feature","id":"424436486","properties":{"josm":"w424436486","name":"Молодёжная улица","nameuk":"Молодіжна вулиця"},"geometry":{"type":"Point","coordinates":[36.09378,48.44954]}},
{"type":"Feature","id":"424772339","properties":{"josm":"w424772339","name":"1-й Заорільський провулок","nameuk":"3-й Заорільський провулок"},"geometry":{"type":"Point","coordinates":[34.52027,48.93094]}},
{"type":"Feature","id":"425193249","properties":{"josm":"w425193249","name":"Тихая улица","nameuk":"Тиха вулиця"},"geometry":{"type":"Point","coordinates":[36.08617,48.52721]}},
{"type":"Feature","id":"446327863","properties":{"josm":"w446327863","name":"Воронежский переулок","nameuk":"Воронезький провулок"},"geometry":{"type":"Point","coordinates":[36.81222,46.77193]}},
{"type":"Feature","id":"451010945","properties":{"josm":"w451010945","name":"Робітничий провулок","nameuk":"Робітнича вулиця"},"geometry":{"type":"Point","coordinates":[34.40073,48.54415]}},
{"type":"Feature","id":"451878361","properties":{"josm":"w451878361","name":"Дружби  Народів вулиця","nameuk":"Гоголя вулиця"},"geometry":{"type":"Point","coordinates":[34.29163,48.65757]}},
{"type":"Feature","id":"451879315","properties":{"josm":"w451879315","name":"Підгірна вулиця","nameuk":"Шкільна вулиця"},"geometry":{"type":"Point","coordinates":[34.29288,48.65848]}},
{"type":"Feature","id":"452207366","properties":{"josm":"w452207366","name":"Лісна  вулиця","nameuk":"Харківська вулиця"},"geometry":{"type":"Point","coordinates":[34.31908,48.65329]}},
{"type":"Feature","id":"452623799","properties":{"josm":"w452623799","name":"Степна  вулиця","nameuk":"Нова вулиця"},"geometry":{"type":"Point","coordinates":[34.3611,48.55323]}},
{"type":"Feature","id":"455468478","properties":{"josm":"w455468478","name":"2-й Гайдара провулок","nameuk":"2-ий Гайдара провулок"},"geometry":{"type":"Point","coordinates":[29.2794,50.76946]}},
{"type":"Feature","id":"474700479","properties":{"josm":"w474700479","name":"Курчатова провулок-Курчатова вулиця","nameuk":"Курчатова провулок-КУрчатова вулиця"},"geometry":{"type":"Point","coordinates":[25.72447,50.12082]}},
{"type":"Feature","id":"474761967","properties":{"josm":"w474761967","name":"Шевченка вулицяs","nameuk":"Шевченка вулиця"},"geometry":{"type":"Point","coordinates":[36.28165,50.00819]}},
{"type":"Feature","id":"476024868","properties":{"josm":"w476024868","name":"Зарічна вулиця","nameuk":"Колгоспна вулиця"},"geometry":{"type":"Point","coordinates":[24.63517,50.73925]}},
{"type":"Feature","id":"484771006","properties":{"josm":"w484771006","name":"Вапняковий 1-й провулок","nameuk":"1-й Вапняковий провулок"},"geometry":{"type":"Point","coordinates":[30.71224,46.49567]}},
{"type":"Feature","id":"489335300","properties":{"josm":"w489335300","name":"Стара Озерянка вулиця","nameuk":"Аральська вулиця"},"geometry":{"type":"Point","coordinates":[36.34184,50.03789]}},
{"type":"Feature","id":"489335304","properties":{"josm":"w489335304","name":"Стара Озерянка вулиця","nameuk":"Аральська вулиця"},"geometry":{"type":"Point","coordinates":[36.33688,50.04103]}},
{"type":"Feature","id":"512824065","properties":{"josm":"w512824065","name":"Customs Terminal","nameuk":"Митний термінал"},"geometry":{"type":"Point","coordinates":[29.26584,50.76059]}},
{"type":"Feature","id":"516995482","properties":{"josm":"w516995482","name":"Моторобуд вулиця","nameuk":"8 Березня вулиця"},"geometry":{"type":"Point","coordinates":[35.20198,47.8399]}},
{"type":"Feature","id":"517530509","properties":{"josm":"w517530509","name":"вулиця Фрідріха Енгельса","nameuk":"Фрідріха Енгельса вулиця"},"geometry":{"type":"Point","coordinates":[37.77932,48.39062]}},
{"type":"Feature","id":"521711845","properties":{"josm":"w521711845","name":"Юності вулиця","nameuk":"Юност вулиця"},"geometry":{"type":"Point","coordinates":[37.83566,48.3774]}},
{"type":"Feature","id":"537852484","properties":{"josm":"w537852484","name":"Сортировочная","nameuk":"Сортувальна"},"geometry":{"type":"Point","coordinates":[30.75459,46.55053]}},
{"type":"Feature","id":"549028954","properties":{"josm":"w549028954","name":"Шевченка вулиця","nameuk":"Незалежності вулиця"},"geometry":{"type":"Point","coordinates":[32.16965,48.05377]}},
{"type":"Feature","id":"574436901","properties":{"josm":"w574436901","name":"Героїв Майдану вулиця","nameuk":"1-го Травня вулиця"},"geometry":{"type":"Point","coordinates":[24.64363,50.73339]}},
{"type":"Feature","id":"576237755","properties":{"josm":"w576237755","name":"Таврид","nameuk":"Тавріда"},"geometry":{"type":"Point","coordinates":[33.81211,44.72245]}},
{"type":"Feature","id":"590451026","properties":{"josm":"w590451026","name":"Придорожня вулиця","nameuk":"Польова вулиця"},"geometry":{"type":"Point","coordinates":[30.37865,50.30949]}},
{"type":"Feature","id":"600373172","properties":{"josm":"w600373172","name":"Центральная улица","nameuk":"Центральна вулиця"},"geometry":{"type":"Point","coordinates":[35.00132,48.54447]}},
{"type":"Feature","id":"600373175","properties":{"josm":"w600373175","name":"Центральная улица","nameuk":"Центральна вулиця"},"geometry":{"type":"Point","coordinates":[34.99626,48.54122]}},
{"type":"Feature","id":"600373180","properties":{"josm":"w600373180","name":"Ореховая улица","nameuk":"Орехова вулиця"},"geometry":{"type":"Point","coordinates":[35.00127,48.54553]}},
{"type":"Feature","id":"606110208","properties":{"josm":"w606110208","name":"Парникова вулиця","nameuk":"Марії Демченко вулиця"},"geometry":{"type":"Point","coordinates":[30.71848,46.37385]}},
{"type":"Feature","id":"609034187","properties":{"josm":"w609034187","name":"Кирова улица","nameuk":"Кірова вулиця"},"geometry":{"type":"Point","coordinates":[33.60182,44.49963]}},
{"type":"Feature","id":"611592286","properties":{"josm":"w611592286","name":"Перемоги площа","nameuk":"Микити Головка вулиця"},"geometry":{"type":"Point","coordinates":[35.26194,48.62708]}},
{"type":"Feature","id":"611735010","properties":{"josm":"w611735010","name":"улица Чуба","nameuk":"Чуба вулиця"},"geometry":{"type":"Point","coordinates":[36.05394,45.30982]}},
{"type":"Feature","id":"617628560","properties":{"josm":"w617628560","name":"улица Мицкевича","nameuk":"вулиця Міцкевича"},"geometry":{"type":"Point","coordinates":[26.90969,49.41219]}},
{"type":"Feature","id":"625760358","properties":{"josm":"w625760358","name":"Вишнева","nameuk":"Вишнева вулиця"},"geometry":{"type":"Point","coordinates":[24.60729,49.91441]}},
{"type":"Feature","id":"626657609","properties":{"josm":"w626657609","name":"Садова","nameuk":"Садова вулиця"},"geometry":{"type":"Point","coordinates":[24.60646,49.91388]}},
{"type":"Feature","id":"636036661","properties":{"josm":"w636036661","name":"Персиковый переулок","nameuk":"улица Кима"},"geometry":{"type":"Point","coordinates":[34.08423,44.96714]}},
{"type":"Feature","id":"636036663","properties":{"josm":"w636036663","name":"Персиковый переулок","nameuk":"улица Кима"},"geometry":{"type":"Point","coordinates":[34.08589,44.96538]}},
{"type":"Feature","id":"637402388","properties":{"josm":"w637402388","name":"Мар’ївська вулиця","nameuk":"Мар'ївська вулиця"},"geometry":{"type":"Point","coordinates":[38.40558,48.63436]}},
{"type":"Feature","id":"637404106","properties":{"josm":"w637404106","name":"1-го Травня провулок","nameuk":"1-го Травня вулиця"},"geometry":{"type":"Point","coordinates":[30.43643,50.61764]}},
{"type":"Feature","id":"649755149","properties":{"josm":"w649755149","name":"Натальевская дорога","nameuk":"Натальївська дорога"},"geometry":{"type":"Point","coordinates":[35.24905,47.84124]}},
{"type":"Feature","id":"661386244","properties":{"josm":"w661386244","name":"2-а Радіозаводська вулиця","nameuk":"2-я Радіозаводська вулиця"},"geometry":{"type":"Point","coordinates":[31.35741,51.52124]}},
{"type":"Feature","id":"674940856","properties":{"josm":"w674940856","name":"Промышленный переулок","nameuk":"Польова вулиця"},"geometry":{"type":"Point","coordinates":[33.86395,45.71493]}},
{"type":"Feature","id":"674940857","properties":{"josm":"w674940857","name":"Промышленный переулок","nameuk":"Польова вулиця"},"geometry":{"type":"Point","coordinates":[33.86557,45.71524]}},
{"type":"Feature","id":"677005902","properties":{"josm":"w677005902","name":"Миру провулок","nameuk":"Миру вулиця"},"geometry":{"type":"Point","coordinates":[30.41808,50.41014]}},
{"type":"Feature","id":"680741049","properties":{"josm":"w680741049","name":"бульвар Ленина","nameuk":"улица Гагарина"},"geometry":{"type":"Point","coordinates":[34.08768,44.96489]}},
{"type":"Feature","id":"690640262","properties":{"josm":"w690640262","name":"Трипільська вулиця","nameuk":"Будьонного вулиця"},"geometry":{"type":"Point","coordinates":[30.62332,50.10492]}},
{"type":"Feature","id":"694593775","properties":{"josm":"w694593775","name":"Феодосійська вулиця","nameuk":"Феодосийская улица"},"geometry":{"type":"Point","coordinates":[33.45543,47.99006]}},
{"type":"Feature","id":"704560856","properties":{"josm":"w704560856","name":"Гагарина","nameuk":"Слобітська вулиця"},"geometry":{"type":"Point","coordinates":[36.38797,50.09514]}},
{"type":"Feature","id":"704560858","properties":{"josm":"w704560858","name":"Гагарина","nameuk":"Слобітська вулиця"},"geometry":{"type":"Point","coordinates":[36.3923,50.09395]}},
{"type":"Feature","id":"707828486","properties":{"josm":"w707828486","name":"3ья Рабочая","nameuk":"3я Робітнича"},"geometry":{"type":"Point","coordinates":[32.6587,48.70994]}},
{"type":"Feature","id":"708743620","properties":{"josm":"w708743620","name":"Лугова вулиця","nameuk":"Шкільна вулиця"},"geometry":{"type":"Point","coordinates":[36.81572,47.10598]}},
{"type":"Feature","id":"715727971","properties":{"josm":"w715727971","name":"Мамина-Сибиряка вулиця","nameuk":"Маміна-Сибіряка вулиця"},"geometry":{"type":"Point","coordinates":[38.12646,48.33165]}},
{"type":"Feature","id":"729104734","properties":{"josm":"w729104734","name":"улица Дружбы","nameuk":"вулиця Дружби"},"geometry":{"type":"Point","coordinates":[29.27346,47.87952]}},
{"type":"Feature","id":"731829369","properties":{"josm":"w731829369","name":"Мамина-Сибиряка вулиця","nameuk":"Маміна-Сибіряка вулиця"},"geometry":{"type":"Point","coordinates":[38.12374,48.33181]}},
{"type":"Feature","id":"731842482","properties":{"josm":"w731842482","name":"Мамина-Сибиряка вулиця","nameuk":"Маміна-Сибіряка вулиця"},"geometry":{"type":"Point","coordinates":[38.13197,48.33119]}},
{"type":"Feature","id":"738041627","properties":{"josm":"w738041627","name":"Дорога П'ятихатки - Павлове Поле","nameuk":"Гравійна велодоріжка (П.Поле - П'ятихатки)"},"geometry":{"type":"Point","coordinates":[36.23943,50.04241]}},
{"type":"Feature","id":"738041631","properties":{"josm":"w738041631","name":"Дорога П'ятихатки - Павлове Поле","nameuk":"Гравійна велодоріжка (П.Поле - П'ятихатки)"},"geometry":{"type":"Point","coordinates":[36.24078,50.05121]}},
{"type":"Feature","id":"738041635","properties":{"josm":"w738041635","name":"Дорога П'ятихатки - Павлове Поле","nameuk":"Гравійна велодоріжка (П.Поле - П'ятихатки)"},"geometry":{"type":"Point","coordinates":[36.24042,50.04883]}},
{"type":"Feature"}
]}
