{
"type": "FeatureCollection",
"errorDescr": "Incorrect <b>name</b>-tag value",
"features": [
{"type":"Feature","id":"37678473","properties":{"josm":"w37678473","name":"Дімітрова вулиця","nameuk":"Димитрова вулиця"},"geometry":{"type":"Point","coordinates":[30.95111,50.37323]}},
{"type":"Feature","id":"38813348","properties":{"josm":"w38813348","name":"Рубанівська вулиця","nameuk":"Клапцова вулиця"},"geometry":{"type":"Point","coordinates":[36.19559,49.98244]}},
{"type":"Feature","id":"76858025","properties":{"josm":"w76858025","name":"1-я лінія","nameuk":"1-а лінія"},"geometry":{"type":"Point","coordinates":[30.81517,50.61811]}},
{"type":"Feature","id":"83296600","properties":{"josm":"w83296600","name":"Чонгарский мост","nameuk":"Чонгарський міст"},"geometry":{"type":"Point","coordinates":[34.55253,45.98796]}},
{"type":"Feature","id":"88688269","properties":{"josm":"w88688269","name":"Кушнарёва улица","nameuk":"Кушнарьова вулиця"},"geometry":{"type":"Point","coordinates":[36.09115,49.96465]}},
{"type":"Feature","id":"88688273","properties":{"josm":"w88688273","name":"Шевченко переулок","nameuk":"Шевченка провулок"},"geometry":{"type":"Point","coordinates":[36.10105,49.9629]}},
{"type":"Feature","id":"90369463","properties":{"josm":"w90369463","name":"Постишєва вулиця","nameuk":"Сонячна вулиця"},"geometry":{"type":"Point","coordinates":[36.14399,50.09911]}},
{"type":"Feature","id":"97532905","properties":{"josm":"w97532905","name":"улица Крупской","nameuk":"Крупської вулиця"},"geometry":{"type":"Point","coordinates":[34.30225,45.50348]}},
{"type":"Feature","id":"97533681","properties":{"josm":"w97533681","name":"улица Чкалова","nameuk":"Чкалова вулиця"},"geometry":{"type":"Point","coordinates":[34.29979,45.50357]}},
{"type":"Feature","id":"101804938","properties":{"josm":"w101804938","name":"Свободи вулиця (разрушенный мост)","nameuk":"Свободи вулиця"},"geometry":{"type":"Point","coordinates":[37.61678,48.84132]}},
{"type":"Feature","id":"105136350","properties":{"josm":"w105136350","name":"улица Гагарина","nameuk":"Гагаріна вулиця"},"geometry":{"type":"Point","coordinates":[33.66619,45.78392]}},
{"type":"Feature","id":"106089998","properties":{"josm":"w106089998","name":"11-а Лінія","nameuk":"11-а лінія"},"geometry":{"type":"Point","coordinates":[30.27181,50.54138]}},
{"type":"Feature","id":"106873201","properties":{"josm":"w106873201","name":"площадь Ленина","nameuk":"площа Леніна"},"geometry":{"type":"Point","coordinates":[37.58696,48.739]}},
{"type":"Feature","id":"108127184","properties":{"josm":"w108127184","name":"Селянська вулиця (15-я лінія)","nameuk":"Селянська вулиця"},"geometry":{"type":"Point","coordinates":[30.33989,50.55525]}},
{"type":"Feature","id":"111621239","properties":{"josm":"w111621239","name":"Советская улица","nameuk":"Радгоспна вулиця"},"geometry":{"type":"Point","coordinates":[38.28168,47.81092]}},
{"type":"Feature","id":"115466741","properties":{"josm":"w115466741","name":"Советская улица","nameuk":"Радгоспна вулиця"},"geometry":{"type":"Point","coordinates":[38.19639,47.78267]}},
{"type":"Feature","id":"125729493","properties":{"josm":"w125729493","name":"2-й Гніванського Шосе провулок","nameuk":"2-й Гніванського шосе провулок"},"geometry":{"type":"Point","coordinates":[28.41758,49.20924]}},
{"type":"Feature","id":"126735022","properties":{"josm":"w126735022","name":"Центральна вулиця","nameuk":"Леніна вулиця"},"geometry":{"type":"Point","coordinates":[30.45719,48.38905]}},
{"type":"Feature","id":"148112944","properties":{"josm":"w148112944","name":"Щорса вулиця (стор. пос.Дослідної ст.), Степова ввулиця (стор. с.Вигода)","nameuk":"Щорса вулиця"},"geometry":{"type":"Point","coordinates":[30.39234,46.60883]}},
{"type":"Feature","id":"155861824","properties":{"josm":"w155861824","name":"ул. Ленина","nameuk":"вул. Леніна"},"geometry":{"type":"Point","coordinates":[30.55065,46.48445]}},
{"type":"Feature","id":"171633340","properties":{"josm":"w171633340","name":"Верхньошевченківський провулок","nameuk":"Верхнешевченківский провулок"},"geometry":{"type":"Point","coordinates":[37.17433,48.41055]}},
{"type":"Feature","id":"175083114","properties":{"josm":"w175083114","name":"Рози Люксембург переулок","nameuk":"Рози Люксембург вулиця"},"geometry":{"type":"Point","coordinates":[38.56009,48.85844]}},
{"type":"Feature","id":"182379507","properties":{"josm":"w182379507","name":"Набережный въезд","nameuk":"Набережний в’їзд"},"geometry":{"type":"Point","coordinates":[36.09715,49.96176]}},
{"type":"Feature","id":"182379509","properties":{"josm":"w182379509","name":"Набережный въезд","nameuk":"Набережний в’їзд"},"geometry":{"type":"Point","coordinates":[36.09413,49.96358]}},
{"type":"Feature","id":"183666170","properties":{"josm":"w183666170","name":"Скелевая улица","nameuk":"Смирнова вулиця"},"geometry":{"type":"Point","coordinates":[38.47919,47.89175]}},
{"type":"Feature","id":"188287368","properties":{"josm":"w188287368","name":"ул. 2-я Сортоиспытательная","nameuk":"вул. 2-я Сортовипробувальна"},"geometry":{"type":"Point","coordinates":[30.56051,46.45858]}},
{"type":"Feature","id":"188287407","properties":{"josm":"w188287407","name":"ул. Черноморская","nameuk":"вул. Чорноморська"},"geometry":{"type":"Point","coordinates":[30.55858,46.45833]}},
{"type":"Feature","id":"188289299","properties":{"josm":"w188289299","name":"ул. Шевченко","nameuk":"вул. Шевченко"},"geometry":{"type":"Point","coordinates":[30.57788,46.44246]}},
{"type":"Feature","id":"200763050","properties":{"josm":"w200763050","name":"Южная дорога","nameuk":"Південна дорога"},"geometry":{"type":"Point","coordinates":[30.78038,46.56134]}},
{"type":"Feature","id":"205185203","properties":{"josm":"w205185203","name":"Южная дорога","nameuk":"Південна дорога"},"geometry":{"type":"Point","coordinates":[30.78052,46.56124]}},
{"type":"Feature","id":"210554239","properties":{"josm":"w210554239","name":"Магеллана Ф. вулиця","nameuk":"Магеллана вулиця"},"geometry":{"type":"Point","coordinates":[37.99315,48.06218]}},
{"type":"Feature","id":"227460040","properties":{"josm":"w227460040","name":"ул. Черноморская","nameuk":"вул. Чорноморська"},"geometry":{"type":"Point","coordinates":[30.5602,46.45419]}},
{"type":"Feature","id":"227460043","properties":{"josm":"w227460043","name":"ул. Профсоюзная","nameuk":"вул. Профспілкова"},"geometry":{"type":"Point","coordinates":[30.56245,46.4524]}},
{"type":"Feature","id":"228045928","properties":{"josm":"w228045928","name":"Карпатська провулок","nameuk":"Карпатський провулок"},"geometry":{"type":"Point","coordinates":[32.30956,48.52201]}},
{"type":"Feature","id":"229651153","properties":{"josm":"w229651153","name":"Броварі вулиця","nameuk":"Бровари вулиця"},"geometry":{"type":"Point","coordinates":[23.82992,49.83836]}},
{"type":"Feature","id":"232315949","properties":{"josm":"w232315949","name":"Броварі вулиця","nameuk":"Бровари вулиця"},"geometry":{"type":"Point","coordinates":[23.8315,49.83785]}},
{"type":"Feature","id":"232315950","properties":{"josm":"w232315950","name":"Броварі вулиця","nameuk":"Бровари вулиця"},"geometry":{"type":"Point","coordinates":[23.82883,49.83798]}},
{"type":"Feature","id":"258734564","properties":{"josm":"w258734564","name":"Крупской улица","nameuk":"Крупська вулиця"},"geometry":{"type":"Point","coordinates":[32.767,45.36857]}},
{"type":"Feature","id":"260620816","properties":{"josm":"w260620816","name":"улица Матросова","nameuk":"Матросова вулиця"},"geometry":{"type":"Point","coordinates":[34.74448,45.44781]}},
{"type":"Feature","id":"260620840","properties":{"josm":"w260620840","name":"улица Матросова","nameuk":"Матросова вулиця"},"geometry":{"type":"Point","coordinates":[34.74344,45.4481]}},
{"type":"Feature","id":"260620841","properties":{"josm":"w260620841","name":"улица Матросова","nameuk":"Матросова вулиця"},"geometry":{"type":"Point","coordinates":[34.74159,45.44861]}},
{"type":"Feature","id":"260620851","properties":{"josm":"w260620851","name":"улица Матросова","nameuk":"Матросова вулиця"},"geometry":{"type":"Point","coordinates":[34.73895,45.44863]}},
{"type":"Feature","id":"264635943","properties":{"josm":"w264635943","name":"улица Чкалова","nameuk":"Чкалова вулиця"},"geometry":{"type":"Point","coordinates":[34.29671,45.49962]}},
{"type":"Feature","id":"272921005","properties":{"josm":"w272921005","name":"Матяхина переулок","nameuk":"Матяхіна провулок"},"geometry":{"type":"Point","coordinates":[34.93156,45.33989]}},
{"type":"Feature","id":"278609092","properties":{"josm":"w278609092","name":"100 Років Нафтовиків вулиця","nameuk":"100 років Нафтовиків вулиця"},"geometry":{"type":"Point","coordinates":[24.5621,48.62747]}},
{"type":"Feature","id":"279050463","properties":{"josm":"w279050463","name":"Привокзальная улица","nameuk":"Добролюбова провулок"},"geometry":{"type":"Point","coordinates":[37.81388,48.59216]}},
{"type":"Feature","id":"295281340","properties":{"josm":"w295281340","name":"Чкалова улица","nameuk":"Садова вулиця"},"geometry":{"type":"Point","coordinates":[30.24314,46.44675]}},
{"type":"Feature","id":"315917350","properties":{"josm":"w315917350","name":"ул. Шевченко","nameuk":"вул. Шевченко"},"geometry":{"type":"Point","coordinates":[30.57709,46.44972]}},
{"type":"Feature","id":"315917992","properties":{"josm":"w315917992","name":"ул. Шевченко","nameuk":"вул. Шевченко"},"geometry":{"type":"Point","coordinates":[30.5795,46.43511]}},
{"type":"Feature","id":"333836079","properties":{"josm":"w333836079","name":"Дальницьке шосе","nameuk":"Стовпова вулиця"},"geometry":{"type":"Point","coordinates":[30.65927,46.47246]}},
{"type":"Feature","id":"336594620","properties":{"josm":"w336594620","name":"Западный переулок","nameuk":"Заводський провулок"},"geometry":{"type":"Point","coordinates":[38.47359,47.87461]}},
{"type":"Feature","id":"336594621","properties":{"josm":"w336594621","name":"Западный переулок","nameuk":"Заводський провулок"},"geometry":{"type":"Point","coordinates":[38.47208,47.87426]}},
{"type":"Feature","id":"336594652","properties":{"josm":"w336594652","name":"Советская улица","nameuk":"Радгоспна вулиця"},"geometry":{"type":"Point","coordinates":[38.48292,47.89314]}},
{"type":"Feature","id":"338941249","properties":{"josm":"w338941249","name":"Санаторная улица","nameuk":"Шкільна вулиця"},"geometry":{"type":"Point","coordinates":[33.62067,45.02752]}},
{"type":"Feature","id":"340229633","properties":{"josm":"w340229633","name":"Великобурлуцька вулиця","nameuk":"Плиткова вулиця"},"geometry":{"type":"Point","coordinates":[36.41925,49.94796]}},
{"type":"Feature","id":"363213217","properties":{"josm":"w363213217","name":"Броварі вулиця","nameuk":"Бровари вулиця"},"geometry":{"type":"Point","coordinates":[23.83041,49.83788]}},
{"type":"Feature","id":"364642151","properties":{"josm":"w364642151","name":"Котовського вулиця","nameuk":"Калініна вулиця"},"geometry":{"type":"Point","coordinates":[30.95814,49.06469]}},
{"type":"Feature","id":"365003953","properties":{"josm":"w365003953","name":"Івана Сірка провулок","nameuk":"Івана Сірка вулиця"},"geometry":{"type":"Point","coordinates":[23.85254,49.26025]}},
{"type":"Feature","id":"365475943","properties":{"josm":"w365475943","name":"Незалежності Майдан","nameuk":"Нензалежності майдан"},"geometry":{"type":"Point","coordinates":[25.13611,49.26934]}},
{"type":"Feature","id":"365507906","properties":{"josm":"w365507906","name":"Остапа Нижанківського провулок","nameuk":"Остапа Нижанківського вулиця"},"geometry":{"type":"Point","coordinates":[23.85167,49.26215]}},
{"type":"Feature","id":"370310331","properties":{"josm":"w370310331","name":"Селянська вулиця (15-я лінія)","nameuk":"Селянська вулиця"},"geometry":{"type":"Point","coordinates":[30.33604,50.55317]}},
{"type":"Feature","id":"373571941","properties":{"josm":"w373571941","name":"Прибугская улица","nameuk":"Прибузька вулиця"},"geometry":{"type":"Point","coordinates":[27.01906,49.42022]}},
{"type":"Feature"}
]}
