{
"type": "FeatureCollection",
"errorDescr": "Incorrect <b>name</b>-tag value",
"features": [
{"type":"Feature","id":"27437431","properties":{"josm":"w27437431","name":"Celetná","nameuk":"Целетна вулиця"},"geometry":{"type":"Point","coordinates":[14.42766,50.08726]}},
{"type":"Feature","id":"28472062","properties":{"josm":"w28472062","name":"Щёлкина улица","nameuk":"Щолкіна вулиця"},"geometry":{"type":"Point","coordinates":[35.82334,45.42965]}},
{"type":"Feature","id":"28486564","properties":{"josm":"w28486564","name":"аллея №2","nameuk":"алея №1"},"geometry":{"type":"Point","coordinates":[35.82048,45.43057]}},
{"type":"Feature","id":"29371269","properties":{"josm":"w29371269","name":"M4 – Border of Ukraine","nameuk":"M4 – кордон з Україною"},"geometry":{"type":"Point","coordinates":[29.11512,47.533]}},
{"type":"Feature","id":"29454086","properties":{"josm":"w29454086","name":"M4-Граница с Украиной","nameuk":"M4-кордон з Україною"},"geometry":{"type":"Point","coordinates":[28.90224,47.95107]}},
{"type":"Feature","id":"39273509","properties":{"josm":"w39273509","name":"Розы Люксембург улица","nameuk":"Рози Люксембург вулиця"},"geometry":{"type":"Point","coordinates":[33.54284,44.60959]}},
{"type":"Feature","id":"42976870","properties":{"josm":"w42976870","name":"Щёлкина улица","nameuk":"Щолкіна вулиця"},"geometry":{"type":"Point","coordinates":[35.82638,45.4275]}},
{"type":"Feature","id":"57989472","properties":{"josm":"w57989472","name":"Podul Prieteniei","nameuk":"Дружба міст"},"geometry":{"type":"Point","coordinates":[27.78948,48.44349]}},
{"type":"Feature","id":"71865992","properties":{"josm":"w71865992","name":"Братьев Айвазовских","nameuk":"Братів Айвазовських вулиця"},"geometry":{"type":"Point","coordinates":[34.13894,44.9848]}},
{"type":"Feature","id":"83393687","properties":{"josm":"w83393687","name":"Михайла Гаврилка вулиця","nameuk":"Михайла Гаврилка"},"geometry":{"type":"Point","coordinates":[24.70674,51.20944]}},
{"type":"Feature","id":"89682803","properties":{"josm":"w89682803","name":"Культуры улица","nameuk":"Кірова вулиця"},"geometry":{"type":"Point","coordinates":[36.22005,49.85714]}},
{"type":"Feature","id":"90075154","properties":{"josm":"w90075154","name":"Васильева вулиця","nameuk":"Васильєва вулиця"},"geometry":{"type":"Point","coordinates":[36.3259,50.05251]}},
{"type":"Feature","id":"96170403","properties":{"josm":"w96170403","name":"улица","nameuk":"Брянська вулиця"},"geometry":{"type":"Point","coordinates":[34.30126,45.04261]}},
{"type":"Feature","id":"96330098","properties":{"josm":"w96330098","name":"Тенистая улица","nameuk":"Промисловий провулок"},"geometry":{"type":"Point","coordinates":[33.86362,45.71902]}},
{"type":"Feature","id":"98695062","properties":{"josm":"w98695062","name":"Школьная улица","nameuk":"Шкільна вулиця"},"geometry":{"type":"Point","coordinates":[34.35686,45.05929]}},
{"type":"Feature","id":"100604217","properties":{"josm":"w100604217","name":"улица Куприна","nameuk":"Рубцова вулиця"},"geometry":{"type":"Point","coordinates":[33.6017,44.49859]}},
{"type":"Feature","id":"101248203","properties":{"josm":"w101248203","name":"улица Вели Ибрагимова","nameuk":"Велі Ібрагімова вулиця"},"geometry":{"type":"Point","coordinates":[33.87062,44.74094]}},
{"type":"Feature","id":"102218967","properties":{"josm":"w102218967","name":"Сергея Закоры","nameuk":"Сергія Закори вулиця"},"geometry":{"type":"Point","coordinates":[36.28962,49.82162]}},
{"type":"Feature","id":"102219047","properties":{"josm":"w102219047","name":"23 августа","nameuk":"23 Августа вулиця"},"geometry":{"type":"Point","coordinates":[36.28939,49.81928]}},
{"type":"Feature","id":"102219166","properties":{"josm":"w102219166","name":"Переулок Сергея Закоры","nameuk":"провулок Сергія Закори"},"geometry":{"type":"Point","coordinates":[36.29246,49.82008]}},
{"type":"Feature","id":"102219175","properties":{"josm":"w102219175","name":"переулок 1 Мая","nameuk":"провулок 1 Мая"},"geometry":{"type":"Point","coordinates":[36.28773,49.82422]}},
{"type":"Feature","id":"104134992","properties":{"josm":"w104134992","name":"улица Космонавта Волкова","nameuk":"Вінницька вулиця"},"geometry":{"type":"Point","coordinates":[33.64679,44.58403]}},
{"type":"Feature","id":"106549356","properties":{"josm":"w106549356","name":"улица Полины Осипенко","nameuk":"Поліни Осипенко вулиця"},"geometry":{"type":"Point","coordinates":[36.44104,45.30282]}},
{"type":"Feature","id":"107456423","properties":{"josm":"w107456423","name":"Сосновая улица","nameuk":"Соснова вулиця"},"geometry":{"type":"Point","coordinates":[31.22127,51.50062]}},
{"type":"Feature","id":"107972062","properties":{"josm":"w107972062","name":"улица Ашик Умера","nameuk":"Ашик Умера вулиця"},"geometry":{"type":"Point","coordinates":[34.9942,44.84843]}},
{"type":"Feature","id":"108539169","properties":{"josm":"w108539169","name":"Бедненко улица","nameuk":"Бедненко набережна"},"geometry":{"type":"Point","coordinates":[34.5973,44.77039]}},
{"type":"Feature","id":"108539180","properties":{"josm":"w108539180","name":"Новосёлов улица","nameuk":"Новоселів вулиця"},"geometry":{"type":"Point","coordinates":[34.59126,44.7733]}},
{"type":"Feature","id":"110359328","properties":{"josm":"w110359328","name":"улица Игнатенко","nameuk":"Графський проїзд"},"geometry":{"type":"Point","coordinates":[34.17059,44.49676]}},
{"type":"Feature","id":"114010779","properties":{"josm":"w114010779","name":"улица Людмилы Бобковой","nameuk":"Людмили Бобкової вулиця"},"geometry":{"type":"Point","coordinates":[33.40543,44.56281]}},
{"type":"Feature","id":"119686042","properties":{"josm":"w119686042","name":"переулок Иванова","nameuk":"Іванова вулиця"},"geometry":{"type":"Point","coordinates":[34.40802,44.68555]}},
{"type":"Feature","id":"120547614","properties":{"josm":"w120547614","name":"переулок Степной","nameuk":"Черняховського провулок"},"geometry":{"type":"Point","coordinates":[36.57243,45.35199]}},
{"type":"Feature","id":"124197826","properties":{"josm":"w124197826","name":"Мар'ївський провулок","nameuk":"Мар’ївський провулок"},"geometry":{"type":"Point","coordinates":[33.10451,48.68994]}},
{"type":"Feature","id":"125615339","properties":{"josm":"w125615339","name":"Магистральная улица","nameuk":"Магістральна вулиця"},"geometry":{"type":"Point","coordinates":[30.25577,48.77917]}},
{"type":"Feature","id":"126787456","properties":{"josm":"w126787456","name":"Петропавловська вулиця","nameuk":"Петропавловськавулиця"},"geometry":{"type":"Point","coordinates":[26.82619,49.20042]}},
{"type":"Feature","id":"128670963","properties":{"josm":"w128670963","name":"Клименка Виктора провулок","nameuk":"Клименка Виктора провулок провулок"},"geometry":{"type":"Point","coordinates":[35.97438,50.26742]}},
{"type":"Feature","id":"130569711","properties":{"josm":"w130569711","name":"Приозёрная улица 43","nameuk":"Приозерна вулиця"},"geometry":{"type":"Point","coordinates":[35.4392,45.1]}},
{"type":"Feature","id":"131751075","properties":{"josm":"w131751075","name":"Кооперативная улица","nameuk":"Елеваторна вулиця"},"geometry":{"type":"Point","coordinates":[34.28975,45.48976]}},
{"type":"Feature","id":"143766909","properties":{"josm":"w143766909","name":"Молодежная","nameuk":"Польова вулиця"},"geometry":{"type":"Point","coordinates":[33.60582,45.14944]}},
{"type":"Feature","id":"143769863","properties":{"josm":"w143769863","name":"улица Челеби-Джихана","nameuk":"Челебі Джихана вулиця"},"geometry":{"type":"Point","coordinates":[33.62767,45.1429]}},
{"type":"Feature","id":"147059026","properties":{"josm":"w147059026","name":"1-го Мая","nameuk":"1-го Травня вулиця"},"geometry":{"type":"Point","coordinates":[36.2834,49.82715]}},
{"type":"Feature","id":"165194760","properties":{"josm":"w165194760","name":"улица Степана Разина","nameuk":"1-го Травня вулиця"},"geometry":{"type":"Point","coordinates":[36.53493,45.35912]}},
{"type":"Feature","id":"168727056","properties":{"josm":"w168727056","name":"улица Валиуллы Муртазаева","nameuk":"Валіулли Муртазаєва вулиця"},"geometry":{"type":"Point","coordinates":[33.86485,44.73724]}},
{"type":"Feature","id":"181152901","properties":{"josm":"w181152901","name":"Новопроектная","nameuk":"Новопроектна вулиця"},"geometry":{"type":"Point","coordinates":[36.27294,49.83235]}},
{"type":"Feature","id":"205955545","properties":{"josm":"w205955545","name":"улица Маламута Муссы","nameuk":"Маламута Мусси вулиця"},"geometry":{"type":"Point","coordinates":[35.19483,45.18246]}},
{"type":"Feature","id":"206663187","properties":{"josm":"w206663187","name":"Светлый переулок","nameuk":"Бузкова вулиця"},"geometry":{"type":"Point","coordinates":[33.34098,45.21787]}},
{"type":"Feature","id":"223216626","properties":{"josm":"w223216626","name":"улица Мусы Мамута","nameuk":"Муси Мамута вулиця"},"geometry":{"type":"Point","coordinates":[33.99424,44.79057]}},
{"type":"Feature","id":"223346705","properties":{"josm":"w223346705","name":"улица Мусы Мамута","nameuk":"Муси Мамута вулиця"},"geometry":{"type":"Point","coordinates":[33.99439,44.79006]}},
{"type":"Feature","id":"224747271","properties":{"josm":"w224747271","name":"улица Симиренко","nameuk":"Симеренка вулиця"},"geometry":{"type":"Point","coordinates":[34.86838,45.27785]}},
{"type":"Feature","id":"225931419","properties":{"josm":"w225931419","name":"улица Шевченко","nameuk":"Шевченка вулиця"},"geometry":{"type":"Point","coordinates":[33.99461,44.78689]}},
{"type":"Feature","id":"227823236","properties":{"josm":"w227823236","name":"Кабаний перевал","nameuk":"Голубинка — Передове — Широке"},"geometry":{"type":"Point","coordinates":[33.85137,44.52127]}},
{"type":"Feature","id":"227823236","properties":{"josm":"w227823236","name":"Кабаний перевал","nameuk":"Голубинка — Передове — Широке"},"geometry":{"type":"Point","coordinates":[33.85137,44.52127]}},
{"type":"Feature","id":"230102083","properties":{"josm":"w230102083","name":"улица Николаева","nameuk":"Фрунзе вулиця"},"geometry":{"type":"Point","coordinates":[33.976,44.81919]}},
{"type":"Feature","id":"230804362","properties":{"josm":"w230804362","name":"Рудничный проезд","nameuk":"Рудничний проїзд"},"geometry":{"type":"Point","coordinates":[33.58611,44.51302]}},
{"type":"Feature","id":"231101684","properties":{"josm":"w231101684","name":"вулиця Проектна бічна","nameuk":"Богата вулиця"},"geometry":{"type":"Point","coordinates":[25.66467,49.55174]}},
{"type":"Feature","id":"235109191","properties":{"josm":"w235109191","name":"M5-Граница с Украиной","nameuk":"M5-кордон з Україною"},"geometry":{"type":"Point","coordinates":[29.74979,46.86103]}},
{"type":"Feature","id":"241720836","properties":{"josm":"w241720836","name":"Вишнева вулица","nameuk":"Вишнева вулиця"},"geometry":{"type":"Point","coordinates":[33.62117,44.89959]}},
{"type":"Feature","id":"242940229","properties":{"josm":"w242940229","name":"Слесарная улица","nameuk":"Кузнечна вулиця"},"geometry":{"type":"Point","coordinates":[33.53347,44.59176]}},
{"type":"Feature","id":"246867425","properties":{"josm":"w246867425","name":"улица Водохранилище","nameuk":"Водосховище вулиця"},"geometry":{"type":"Point","coordinates":[35.12103,45.0414]}},
{"type":"Feature","id":"248791530","properties":{"josm":"w248791530","name":"Новосёлов улица","nameuk":"Новоселів вулиця"},"geometry":{"type":"Point","coordinates":[34.59426,44.77015]}},
{"type":"Feature","id":"254932963","properties":{"josm":"w254932963","name":"1-го Мая","nameuk":"1-го Травня вулиця"},"geometry":{"type":"Point","coordinates":[36.28542,49.82426]}},
{"type":"Feature","id":"264635961","properties":{"josm":"w264635961","name":"Яшлар улица","nameuk":"Молодіжний провулок"},"geometry":{"type":"Point","coordinates":[34.33291,45.49995]}},
{"type":"Feature","id":"265091648","properties":{"josm":"w265091648","name":"Крайний переулок","nameuk":"Крайня вулиця"},"geometry":{"type":"Point","coordinates":[34.95539,45.18745]}},
{"type":"Feature","id":"267064327","properties":{"josm":"w267064327","name":"5-й Кавказький проїзд","nameuk":"Ранкова вулиця"},"geometry":{"type":"Point","coordinates":[26.99478,49.38967]}},
{"type":"Feature","id":"268234342","properties":{"josm":"w268234342","name":"дорога к озеру","nameuk":"Єврейська стежка"},"geometry":{"type":"Point","coordinates":[34.02046,44.42073]}},
{"type":"Feature","id":"272266082","properties":{"josm":"w272266082","name":"переулок 23 Мая 1919 года","nameuk":"23 Травня 1919 року провулок"},"geometry":{"type":"Point","coordinates":[36.46963,45.35381]}},
{"type":"Feature","id":"289707823","properties":{"josm":"w289707823","name":"Пролетарский провулок","nameuk":"Пролетарський провулок"},"geometry":{"type":"Point","coordinates":[30.20238,48.74979]}},
{"type":"Feature","id":"293912067","properties":{"josm":"w293912067","name":"Зелёная улица","nameuk":"Зелений провулок"},"geometry":{"type":"Point","coordinates":[36.45284,45.35428]}},
{"type":"Feature","id":"294605962","properties":{"josm":"w294605962","name":"Тараса Шевчека вулиця","nameuk":"Тараса Шевченка вулиця"},"geometry":{"type":"Point","coordinates":[23.56543,48.0146]}},
{"type":"Feature","id":"298050484","properties":{"josm":"w298050484","name":"Ярослави Стецько вулиця","nameuk":"Стецько вулиця"},"geometry":{"type":"Point","coordinates":[24.57886,48.64109]}},
{"type":"Feature","id":"308454787","properties":{"josm":"w308454787","name":"улица Ешиль Ада","nameuk":"Мирна вулиця"},"geometry":{"type":"Point","coordinates":[34.9888,44.83914]}},
{"type":"Feature","id":"333545976","properties":{"josm":"w333545976","name":"улица Павла Толстых","nameuk":"Меланії Мусієнко вулиця"},"geometry":{"type":"Point","coordinates":[36.56242,45.36011]}},
{"type":"Feature","id":"333545978","properties":{"josm":"w333545978","name":"улица Мелании Мусиенко","nameuk":"Керченський Мінерів вулиця"},"geometry":{"type":"Point","coordinates":[36.56329,45.35989]}},
{"type":"Feature","id":"333545979","properties":{"josm":"w333545979","name":"улица Керченских Минеров","nameuk":"95-го Прикордонполку вулиця"},"geometry":{"type":"Point","coordinates":[36.5642,45.35964]}},
{"type":"Feature","id":"333545987","properties":{"josm":"w333545987","name":"улица 95-го Погранполка","nameuk":"Ливарна вулиця"},"geometry":{"type":"Point","coordinates":[36.56518,45.3594]}},
{"type":"Feature","id":"358507285","properties":{"josm":"w358507285","name":"Тараса Шевчека вулиця","nameuk":"Тараса Шевченка вулиця"},"geometry":{"type":"Point","coordinates":[23.56688,48.01319]}},
{"type":"Feature","id":"363984981","properties":{"josm":"w363984981","name":"Забріжанська вулиця","nameuk":"Чорногорянська вулиця"},"geometry":{"type":"Point","coordinates":[36.17629,50.32752]}},
{"type":"Feature","id":"380355631","properties":{"josm":"w380355631","name":"1-й Гагаріна провулок","nameuk":"1-й Гагарина переулок"},"geometry":{"type":"Point","coordinates":[33.47212,50.37317]}},
{"type":"Feature","id":"392356253","properties":{"josm":"w392356253","name":"улица Людмилы Бобковой","nameuk":"Людмили Бобкової вулиця"},"geometry":{"type":"Point","coordinates":[33.40805,44.56172]}},
{"type":"Feature","id":"416216359","properties":{"josm":"w416216359","name":"Глеба Успенского улица","nameuk":"Гліба Успенського вулиця"},"geometry":{"type":"Point","coordinates":[33.42682,44.567]}},
{"type":"Feature","id":"430127007","properties":{"josm":"w430127007","name":"Тараса Шевчека вулиця","nameuk":"Тараса Шевченка вулиця"},"geometry":{"type":"Point","coordinates":[23.56333,48.01653]}},
{"type":"Feature","id":"439468156","properties":{"josm":"w439468156","name":"Першотравнева вулиця","nameuk":"вулиця Першотравнева"},"geometry":{"type":"Point","coordinates":[38.38214,48.70202]}},
{"type":"Feature","id":"439468157","properties":{"josm":"w439468157","name":"Садова вулиця","nameuk":"вулиця Садова"},"geometry":{"type":"Point","coordinates":[38.38771,48.69933]}},
{"type":"Feature","id":"439468158","properties":{"josm":"w439468158","name":"Водопровідна вулиця","nameuk":"вулиця Водопровідна"},"geometry":{"type":"Point","coordinates":[38.39206,48.69741]}},
{"type":"Feature","id":"439468159","properties":{"josm":"w439468159","name":"Мічуріна вулиця","nameuk":"вулиця Мічуріна"},"geometry":{"type":"Point","coordinates":[38.38637,48.69843]}},
{"type":"Feature","id":"439468161","properties":{"josm":"w439468161","name":"Жовтнева вулиця","nameuk":"вулиця Жовтнева"},"geometry":{"type":"Point","coordinates":[38.3832,48.70301]}},
{"type":"Feature","id":"439468162","properties":{"josm":"w439468162","name":"Космічна вулиця","nameuk":"вулиця Космічна"},"geometry":{"type":"Point","coordinates":[38.39606,48.69477]}},
{"type":"Feature","id":"441820376","properties":{"josm":"w441820376","name":"Донецька вулиця","nameuk":"вулиця Донецька"},"geometry":{"type":"Point","coordinates":[38.37712,48.69903]}},
{"type":"Feature","id":"441820381","properties":{"josm":"w441820381","name":"Островського вулиця","nameuk":"вулиця Островського"},"geometry":{"type":"Point","coordinates":[38.37767,48.70133]}},
{"type":"Feature","id":"441820390","properties":{"josm":"w441820390","name":"Вишнева вулиця","nameuk":"вулиця Вишнева"},"geometry":{"type":"Point","coordinates":[38.37618,48.69845]}},
{"type":"Feature","id":"489922450","properties":{"josm":"w489922450","name":"улица Строителей","nameuk":"Титова вулиця"},"geometry":{"type":"Point","coordinates":[34.28637,45.48676]}},
{"type":"Feature","id":"500270690","properties":{"josm":"w500270690","name":"Молодіжна вулиця","nameuk":"вулиця Молодіжна"},"geometry":{"type":"Point","coordinates":[38.37492,48.74621]}},
{"type":"Feature","id":"505677863","properties":{"josm":"w505677863","name":"Мічуріна вулиця","nameuk":"вулиця Мічуріна"},"geometry":{"type":"Point","coordinates":[38.37291,48.73786]}},
{"type":"Feature","id":"508341638","properties":{"josm":"w508341638","name":"Лісова вулиця","nameuk":"вулиця Лісова"},"geometry":{"type":"Point","coordinates":[38.38016,48.7397]}},
{"type":"Feature","id":"508341639","properties":{"josm":"w508341639","name":"Зелена вулиця","nameuk":"вулиця Зелена"},"geometry":{"type":"Point","coordinates":[38.37554,48.74162]}},
{"type":"Feature","id":"508347924","properties":{"josm":"w508347924","name":"Миру вулиця","nameuk":"вулиця Миру"},"geometry":{"type":"Point","coordinates":[38.3779,48.74027]}},
{"type":"Feature","id":"508361958","properties":{"josm":"w508361958","name":"Миколи Маслова вулиця","nameuk":"вулиця Миколи Маслова"},"geometry":{"type":"Point","coordinates":[38.37302,48.73939]}},
{"type":"Feature","id":"519056276","properties":{"josm":"w519056276","name":"Мала Садова вулиця","nameuk":"вулиця Мала Садова"},"geometry":{"type":"Point","coordinates":[38.38472,48.70129]}},
{"type":"Feature","id":"519056280","properties":{"josm":"w519056280","name":"Річна вулиця","nameuk":"вулиця Річна"},"geometry":{"type":"Point","coordinates":[38.39405,48.69723]}},
{"type":"Feature","id":"609034187","properties":{"josm":"w609034187","name":"Кирова улица","nameuk":"Кірова вулиця"},"geometry":{"type":"Point","coordinates":[33.60074,44.5014]}},
{"type":"Feature","id":"611735010","properties":{"josm":"w611735010","name":"улица Чуба","nameuk":"Чуба вулиця"},"geometry":{"type":"Point","coordinates":[36.05393,45.30983]}},
{"type":"Feature","id":"628759348","properties":{"josm":"w628759348","name":"Вишнева вулиця","nameuk":"вулиця Вишнева"},"geometry":{"type":"Point","coordinates":[38.37744,48.69541]}},
{"type":"Feature","id":"628759350","properties":{"josm":"w628759350","name":"Горького вулиця","nameuk":"вулиця Горького"},"geometry":{"type":"Point","coordinates":[38.37854,48.69256]}},
{"type":"Feature","id":"628759351","properties":{"josm":"w628759351","name":"Тургенєва вулиця","nameuk":"вулиця Тургенєва"},"geometry":{"type":"Point","coordinates":[38.37962,48.69159]}},
{"type":"Feature","id":"628759352","properties":{"josm":"w628759352","name":"Степова вулиця","nameuk":"вулиця Степова"},"geometry":{"type":"Point","coordinates":[38.37943,48.69063]}},
{"type":"Feature","id":"628761106","properties":{"josm":"w628761106","name":"Западна вулиця","nameuk":"вулиця Западна"},"geometry":{"type":"Point","coordinates":[38.37613,48.69443]}},
{"type":"Feature","id":"674940856","properties":{"josm":"w674940856","name":"Промышленный переулок","nameuk":"Польова вулиця"},"geometry":{"type":"Point","coordinates":[33.86395,45.71493]}},
{"type":"Feature","id":"674940857","properties":{"josm":"w674940857","name":"Промышленный переулок","nameuk":"Польова вулиця"},"geometry":{"type":"Point","coordinates":[33.86557,45.71524]}},
{"type":"Feature","id":"680741049","properties":{"josm":"w680741049","name":"бульвар Ленина","nameuk":"Гагаріна вулиця"},"geometry":{"type":"Point","coordinates":[34.08771,44.96492]}},
{"type":"Feature","id":"698334224","properties":{"josm":"w698334224","name":"Drumul Poliției de frontieră din Moldova","nameuk":"Дорога прикордонної поліції Молдови"},"geometry":{"type":"Point","coordinates":[28.22146,45.4782]}},
{"type":"Feature","id":"714070512","properties":{"josm":"w714070512","name":"M3 – drumul de acces spre frontiera cu Ucraina","nameuk":"M3 – під'їзд до кордону з Україною"},"geometry":{"type":"Point","coordinates":[28.50041,45.69771]}},
{"type":"Feature","id":"729104734","properties":{"josm":"w729104734","name":"улица Дружбы","nameuk":"вулиця Дружби"},"geometry":{"type":"Point","coordinates":[29.27346,47.87952]}},
{"type":"Feature","id":"770922486","properties":{"josm":"w770922486","name":"Лучистая улица","nameuk":"Набережна вулиця"},"geometry":{"type":"Point","coordinates":[34.60352,44.77446]}},
{"type":"Feature","id":"804211990","properties":{"josm":"w804211990","name":"Леонида Гайдая улица","nameuk":"Гірська вулиця"},"geometry":{"type":"Point","coordinates":[34.40121,44.74241]}},
{"type":"Feature","id":"818896412","properties":{"josm":"w818896412","name":"Промышленная улица","nameuk":"Промислова вулиця"},"geometry":{"type":"Point","coordinates":[34.28659,45.5048]}},
{"type":"Feature","id":"827679016","properties":{"josm":"w827679016","name":"Кирова улица","nameuk":"Кірова вулиця"},"geometry":{"type":"Point","coordinates":[33.60217,44.49881]}},
{"type":"Feature","id":"827679017","properties":{"josm":"w827679017","name":"Кирова улица","nameuk":"Кірова вулиця"},"geometry":{"type":"Point","coordinates":[33.6015,44.50075]}},
{"type":"Feature","id":"856989390","properties":{"josm":"w856989390","name":"В'ячеслава Чорновола вулиця","nameuk":"Володимира Івасюка вулиця"},"geometry":{"type":"Point","coordinates":[24.14212,49.84938]}},
{"type":"Feature","id":"870833301","properties":{"josm":"w870833301","name":"Іова вулиця","nameuk":"Петропавловська вулиця"},"geometry":{"type":"Point","coordinates":[26.83139,49.19411]}},
{"type":"Feature","id":"884318333","properties":{"josm":"w884318333","name":"Oleksandra Dukhnovycha вулиця","nameuk":"Олександра Духновича вулиця"},"geometry":{"type":"Point","coordinates":[23.55597,48.01559]}},
{"type":"Feature","id":"886304967","properties":{"josm":"w886304967","name":"Spring Street","nameuk":"Весняна вулиця"},"geometry":{"type":"Point","coordinates":[-85.15282,41.08887]}},
{"type":"Feature","id":"888786941","properties":{"josm":"w888786941","name":"Мира вулиця","nameuk":"Миру вулиця"},"geometry":{"type":"Point","coordinates":[24.68634,48.72544]}},
{"type":"Feature","id":"888786942","properties":{"josm":"w888786942","name":"Мира вулиця","nameuk":"Миру вулиця"},"geometry":{"type":"Point","coordinates":[24.6868,48.7257]}},
{"type":"Feature","id":"888786944","properties":{"josm":"w888786944","name":"Мира вулиця","nameuk":"Миру вулиця"},"geometry":{"type":"Point","coordinates":[24.68844,48.72682]}},
{"type":"Feature","id":"889519703","properties":{"josm":"w889519703","name":"Гололя провулок","nameuk":"Гоголя провулок"},"geometry":{"type":"Point","coordinates":[36.05398,49.89008]}},
{"type":"Feature","id":"895342914","properties":{"josm":"w895342914","name":"В'ячеслава Чорновола вулиця","nameuk":"Володимира Івасюка вулиця"},"geometry":{"type":"Point","coordinates":[24.14454,49.84941]}},
{"type":"Feature","id":"903371505","properties":{"josm":"w903371505","name":"Звёздная улица","nameuk":"Зоряна вулиця"},"geometry":{"type":"Point","coordinates":[36.20676,49.85474]}},
{"type":"Feature","id":"903387779","properties":{"josm":"w903387779","name":"Дружбы площадь","nameuk":"Дружби площа"},"geometry":{"type":"Point","coordinates":[36.21372,49.84673]}},
{"type":"Feature","id":"904555972","properties":{"josm":"w904555972","name":"Shevchenka Street","nameuk":"Т. Шевченка вулиця"},"geometry":{"type":"Point","coordinates":[23.40644,49.27497]}},
{"type":"Feature","id":"906111201","properties":{"josm":"w906111201","name":"Вишнёвая улица","nameuk":"Вишнева вулица"},"geometry":{"type":"Point","coordinates":[34.62062,47.49484]}},
{"type":"Feature","id":"906111203","properties":{"josm":"w906111203","name":"Малиновая улица","nameuk":"Малинова вулица"},"geometry":{"type":"Point","coordinates":[34.61932,47.49519]}},
{"type":"Feature","id":"906111204","properties":{"josm":"w906111204","name":"Клубничная улица","nameuk":"Полунична вулица"},"geometry":{"type":"Point","coordinates":[34.61991,47.49503]}},
{"type":"Feature","id":"906111205","properties":{"josm":"w906111205","name":"Абрикосовая улица","nameuk":"Абрикосова вулица"},"geometry":{"type":"Point","coordinates":[34.62133,47.49466]}},
{"type":"Feature","id":"906111206","properties":{"josm":"w906111206","name":"Виноградная улица","nameuk":"Виноградна вулица"},"geometry":{"type":"Point","coordinates":[34.6219,47.49451]}},
{"type":"Feature","id":"906111208","properties":{"josm":"w906111208","name":"Сливовая улица","nameuk":"Сливова вулица"},"geometry":{"type":"Point","coordinates":[34.61754,47.491]}},
{"type":"Feature","id":"906111209","properties":{"josm":"w906111209","name":"Розовая улица","nameuk":"Розова вулица"},"geometry":{"type":"Point","coordinates":[34.61917,47.49057]}},
{"type":"Feature","id":"906111212","properties":{"josm":"w906111212","name":"Садовая улица","nameuk":"Садова вулица"},"geometry":{"type":"Point","coordinates":[34.61993,47.49026]}},
{"type":"Feature","id":"906111213","properties":{"josm":"w906111213","name":"Тепличная улица","nameuk":"Теплична вулиця"},"geometry":{"type":"Point","coordinates":[34.62791,47.48824]}},
{"type":"Feature","id":"906111214","properties":{"josm":"w906111214","name":"Цветочная улица","nameuk":"Квіткова вулиця"},"geometry":{"type":"Point","coordinates":[34.62719,47.48843]}},
{"type":"Feature","id":"906111215","properties":{"josm":"w906111215","name":"Лесная улица","nameuk":"Лісова вулиця"},"geometry":{"type":"Point","coordinates":[34.62648,47.48861]}},
{"type":"Feature","id":"906111218","properties":{"josm":"w906111218","name":"Яблочная улица","nameuk":"Яблунева вулица"},"geometry":{"type":"Point","coordinates":[34.6244,47.48915]}},
{"type":"Feature","id":"906111221","properties":{"josm":"w906111221","name":"Рябиновая улица","nameuk":"Горобинова вулиця"},"geometry":{"type":"Point","coordinates":[34.62231,47.48969]}},
{"type":"Feature","id":"906111222","properties":{"josm":"w906111222","name":"Сиреневая улица","nameuk":"Бузкова вулиця"},"geometry":{"type":"Point","coordinates":[34.62155,47.48988]}},
{"type":"Feature","id":"906111223","properties":{"josm":"w906111223","name":"Земляничная улица","nameuk":"Сунична вулиця"},"geometry":{"type":"Point","coordinates":[34.62073,47.49005]}},
{"type":"Feature","id":"906123365","properties":{"josm":"w906123365","name":"Песчаная улица","nameuk":"Піщана вулица"},"geometry":{"type":"Point","coordinates":[34.61705,47.49113]}},
{"type":"Feature","id":"906123366","properties":{"josm":"w906123366","name":"Центральна улица","nameuk":"Центральна вулица"},"geometry":{"type":"Point","coordinates":[34.61835,47.49079]}},
{"type":"Feature","id":"906145022","properties":{"josm":"w906145022","name":"Shevchenka Street","nameuk":"Т. Шевченка вулиця"},"geometry":{"type":"Point","coordinates":[23.41087,49.28023]}},
{"type":"Feature","id":"907724178","properties":{"josm":"w907724178","name":"Садовая улица","nameuk":"Паркова вулиця"},"geometry":{"type":"Point","coordinates":[34.19101,45.52251]}},
{"type":"Feature","id":"908526113","properties":{"josm":"w908526113","name":"Дружбы вулиця","nameuk":"Дружби вулиця"},"geometry":{"type":"Point","coordinates":[36.28584,49.82224]}},
{"type":"Feature","id":"908526119","properties":{"josm":"w908526119","name":"Железнодорожный въезд","nameuk":"Залізничний в'їзд"},"geometry":{"type":"Point","coordinates":[36.287,49.81994]}},
{"type":"Feature","id":"908526123","properties":{"josm":"w908526123","name":"23 августа","nameuk":"23 Серпня вулиця"},"geometry":{"type":"Point","coordinates":[36.29374,49.81899]}},
{"type":"Feature","id":"908533249","properties":{"josm":"w908533249","name":"переулок 23 Августа","nameuk":"провулок 23 Серпня"},"geometry":{"type":"Point","coordinates":[36.29452,49.81945]}},
{"type":"Feature","id":"910038130","properties":{"josm":"w910038130","name":"Переяслаівська вулиця","nameuk":"Переяславська вулиця"},"geometry":{"type":"Point","coordinates":[31.22191,49.45839]}},
{"type":"Feature","id":"915813642","properties":{"josm":"w915813642","name":"60 років Жовтня вулиця","nameuk":"вулиця 60 років Жовтня"},"geometry":{"type":"Point","coordinates":[38.38772,48.69699]}},
{"type":"Feature","id":"915813643","properties":{"josm":"w915813643","name":"60 років Жовтня вулиця","nameuk":"вулиця 60 років Жовтня"},"geometry":{"type":"Point","coordinates":[38.39118,48.69759]}},
{"type":"Feature","id":"915813644","properties":{"josm":"w915813644","name":"Лісовий провулок","nameuk":"провулок Лісовий"},"geometry":{"type":"Point","coordinates":[38.38929,48.69899]}},
{"type":"Feature","id":"915813645","properties":{"josm":"w915813645","name":"Космічна вулиця","nameuk":"вулиця Космічна"},"geometry":{"type":"Point","coordinates":[38.38989,48.69534]}},
{"type":"Feature","id":"915813646","properties":{"josm":"w915813646","name":"Зелена вулиця","nameuk":"вулиця Зелена"},"geometry":{"type":"Point","coordinates":[38.39362,48.69688]}},
{"type":"Feature","id":"915813647","properties":{"josm":"w915813647","name":"Космічна вулиця","nameuk":"вулиця Космічна"},"geometry":{"type":"Point","coordinates":[38.39448,48.69557]}},
{"type":"Feature","id":"915813649","properties":{"josm":"w915813649","name":"Транспортна вулиця","nameuk":"вулиця Транспортна"},"geometry":{"type":"Point","coordinates":[38.38217,48.69791]}},
{"type":"Feature","id":"916248041","properties":{"josm":"w916248041","name":"Интернациональная улица","nameuk":"Інтернаціональна вулиця"},"geometry":{"type":"Point","coordinates":[30.25594,48.77593]}},
{"type":"Feature","id":"916248042","properties":{"josm":"w916248042","name":"Магистральная улица","nameuk":"Магістральна вулиця"},"geometry":{"type":"Point","coordinates":[30.25664,48.77835]}},
{"type":"Feature","id":"917448407","properties":{"josm":"w917448407","name":"Набережная улица","nameuk":"Набережна вулиця"},"geometry":{"type":"Point","coordinates":[36.60688,46.88584]}},
{"type":"Feature","id":"917451355","properties":{"josm":"w917451355","name":"Правды улица","nameuk":"Правди вулиця"},"geometry":{"type":"Point","coordinates":[36.57472,46.85465]}},
{"type":"Feature","id":"917452534","properties":{"josm":"w917452534","name":"Молодежная улица","nameuk":"Молодіжна вулиця"},"geometry":{"type":"Point","coordinates":[36.60346,46.89815]}},
{"type":"Feature"}
]}
