{
"type": "FeatureCollection",
"errorDescr": "Incorrect <b>name</b>-tag value",
"features": [
{"type":"Feature","id":"23682872","properties":{"josm":"w23682872","name":"Озерянська вулиця","nameuk":"Муранова вулиця"},"geometry":{"type":"Point","coordinates":[36.19316,49.98852]}},
{"type":"Feature","id":"23746914","properties":{"josm":"w23746914","name":"Озерянська вулиця","nameuk":"Кузінський шляхопровід"},"geometry":{"type":"Point","coordinates":[36.20181,49.99719]}},
{"type":"Feature","id":"23757534","properties":{"josm":"w23757534","name":"Благовіщенська вулиця","nameuk":"Карла Маркса вулиця"},"geometry":{"type":"Point","coordinates":[36.21172,49.9887]}},
{"type":"Feature","id":"23757554","properties":{"josm":"w23757554","name":"Дудинської вулиця","nameuk":"Наріманова вулиця"},"geometry":{"type":"Point","coordinates":[36.19124,49.97105]}},
{"type":"Feature","id":"23852625","properties":{"josm":"w23852625","name":"Алчевських вулиця","nameuk":"Артема вулиця"},"geometry":{"type":"Point","coordinates":[36.24422,50.00669]}},
{"type":"Feature","id":"24361160","properties":{"josm":"w24361160","name":"Куликівський узвіз","nameuk":"Революції вулиця"},"geometry":{"type":"Point","coordinates":[36.2438,49.99595]}},
{"type":"Feature","id":"28198204","properties":{"josm":"w28198204","name":"Москалівська вулиця","nameuk":"Жовтневої Революції вулиця"},"geometry":{"type":"Point","coordinates":[36.21051,49.95888]}},
{"type":"Feature","id":"28198216","properties":{"josm":"w28198216","name":"Москалівська вулиця","nameuk":"Жовтневої Революції вулиця"},"geometry":{"type":"Point","coordinates":[36.22318,49.98104]}},
{"type":"Feature","id":"28905975","properties":{"josm":"w28905975","name":"Генерала Момота вулиця","nameuk":"III Інтернаціоналу вулиця"},"geometry":{"type":"Point","coordinates":[36.37111,49.94997]}},
{"type":"Feature","id":"28905976","properties":{"josm":"w28905976","name":"Біблика вулиця","nameuk":"2-ї П’ятирічки вулиця"},"geometry":{"type":"Point","coordinates":[36.38451,49.94428]}},
{"type":"Feature","id":"29110731","properties":{"josm":"w29110731","name":"Індустріальний проспект","nameuk":"Фрунзе проспект"},"geometry":{"type":"Point","coordinates":[36.38993,49.95617]}},
{"type":"Feature","id":"29111390","properties":{"josm":"w29111390","name":"Індустріальний проспект","nameuk":"Фрунзе проспект"},"geometry":{"type":"Point","coordinates":[36.38004,49.9452]}},
{"type":"Feature","id":"31579399","properties":{"josm":"w31579399","name":"Москалівська вулиця","nameuk":"Жовтневої Революції вулиця"},"geometry":{"type":"Point","coordinates":[36.2222,49.9688]}},
{"type":"Feature","id":"33604181","properties":{"josm":"w33604181","name":"Шатилівська вулиця","nameuk":"Леніна вулиця"},"geometry":{"type":"Point","coordinates":[36.23227,50.01706]}},
{"type":"Feature","id":"33776216","properties":{"josm":"w33776216","name":"Озерянська вулиця","nameuk":"Муранова вулиця"},"geometry":{"type":"Point","coordinates":[36.20407,49.99785]}},
{"type":"Feature","id":"33792915","properties":{"josm":"w33792915","name":"Площадь Ленина","nameuk":"Площа Леніна"},"geometry":{"type":"Point","coordinates":[35.25616,48.63399]}},
{"type":"Feature","id":"33891834","properties":{"josm":"w33891834","name":"Рижівська вулиця","nameuk":"Куйбишева вулиця"},"geometry":{"type":"Point","coordinates":[36.2563,49.99214]}},
{"type":"Feature","id":"34430941","properties":{"josm":"w34430941","name":"Індустріальний проспект","nameuk":"Фрунзе проспект"},"geometry":{"type":"Point","coordinates":[36.37395,49.93847]}},
{"type":"Feature","id":"34430947","properties":{"josm":"w34430947","name":"Індустріальний проспект","nameuk":"Фрунзе проспект"},"geometry":{"type":"Point","coordinates":[36.37624,49.93773]}},
{"type":"Feature","id":"34439168","properties":{"josm":"w34439168","name":"Михайлика вулиця","nameuk":"Височиненка вулиця"},"geometry":{"type":"Point","coordinates":[36.30033,49.99145]}},
{"type":"Feature","id":"34496999","properties":{"josm":"w34496999","name":"Гольдбергівська вулиця","nameuk":"1-ї Кінної Армії вулиця"},"geometry":{"type":"Point","coordinates":[36.24478,49.97588]}},
{"type":"Feature","id":"34497032","properties":{"josm":"w34497032","name":"Гольдбергівська вулиця","nameuk":"1-ї Кінної Армії вулиця"},"geometry":{"type":"Point","coordinates":[36.23409,49.97501]}},
{"type":"Feature","id":"34497122","properties":{"josm":"w34497122","name":"Роз’їзний провулок","nameuk":"Юного Ленінця вулиця"},"geometry":{"type":"Point","coordinates":[36.24798,49.97153]}},
{"type":"Feature","id":"34699743","properties":{"josm":"w34699743","name":"Левченка вулиця","nameuk":"Губкомівська вулиця"},"geometry":{"type":"Point","coordinates":[36.19544,49.98968]}},
{"type":"Feature","id":"34699832","properties":{"josm":"w34699832","name":"Лаврентіївський провулок","nameuk":"Ногіна провулок"},"geometry":{"type":"Point","coordinates":[36.19184,49.98932]}},
{"type":"Feature","id":"34700106","properties":{"josm":"w34700106","name":"Григорівське шосе","nameuk":"Комсомольське шосе"},"geometry":{"type":"Point","coordinates":[36.17135,49.96198]}},
{"type":"Feature","id":"34753105","properties":{"josm":"w34753105","name":"Кузнецький провулок","nameuk":"1-й Петровського в’їзд"},"geometry":{"type":"Point","coordinates":[36.20092,50.02942]}},
{"type":"Feature","id":"34771958","properties":{"josm":"w34771958","name":"Семінарська вулиця","nameuk":"Володарського вулиця"},"geometry":{"type":"Point","coordinates":[36.19963,49.96678]}},
{"type":"Feature","id":"34838163","properties":{"josm":"w34838163","name":"Академіка Волкова вулиця","nameuk":"Павліка Морозова вулиця"},"geometry":{"type":"Point","coordinates":[36.25617,50.08771]}},
{"type":"Feature","id":"34840291","properties":{"josm":"w34840291","name":"Георгіївський провулок","nameuk":"Радянський провулок"},"geometry":{"type":"Point","coordinates":[36.32245,50.04547]}},
{"type":"Feature","id":"38197677","properties":{"josm":"w38197677","name":"Рєдіна вулиця","nameuk":"Комсомольська вулиця"},"geometry":{"type":"Point","coordinates":[36.25199,49.95817]}},
{"type":"Feature","id":"38286049","properties":{"josm":"w38286049","name":"Дорошенківська вулиця","nameuk":"2-й Петровського в’їзд"},"geometry":{"type":"Point","coordinates":[36.19905,50.02989]}},
{"type":"Feature","id":"38290947","properties":{"josm":"w38290947","name":"Курилівська вулиця","nameuk":"Ленінградська вулиця"},"geometry":{"type":"Point","coordinates":[36.18977,50.00346]}},
{"type":"Feature","id":"38423198","properties":{"josm":"w38423198","name":"Пантелеймонівська вулиця","nameuk":"Бакинських Комісарів вулиця"},"geometry":{"type":"Point","coordinates":[36.28,50.00039]}},
{"type":"Feature","id":"38611072","properties":{"josm":"w38611072","name":"Сиреневая улица","nameuk":"Серенева вулиця"},"geometry":{"type":"Point","coordinates":[34.79118,44.83174]}},
{"type":"Feature","id":"38859231","properties":{"josm":"w38859231","name":"Індустріальний проспект","nameuk":"Фрунзе проспект"},"geometry":{"type":"Point","coordinates":[36.38108,49.94484]}},
{"type":"Feature","id":"39624965","properties":{"josm":"w39624965","name":"Бехтерева вулиця","nameuk":"Бехтерєва вулиця"},"geometry":{"type":"Point","coordinates":[35.18559,48.47183]}},
{"type":"Feature","id":"55082798","properties":{"josm":"w55082798","name":"Індустріальний проспект","nameuk":"Фрунзе проспект"},"geometry":{"type":"Point","coordinates":[36.37184,49.93335]}},
{"type":"Feature","id":"57956843","properties":{"josm":"w57956843","name":"Панасівський проїзд","nameuk":"Муранова вулиця"},"geometry":{"type":"Point","coordinates":[36.20642,49.99888]}},
{"type":"Feature","id":"57956847","properties":{"josm":"w57956847","name":"Озерянська вулиця","nameuk":"Муранова вулиця"},"geometry":{"type":"Point","coordinates":[36.19822,49.99615]}},
{"type":"Feature","id":"76858025","properties":{"josm":"w76858025","name":"1-я лінія","nameuk":"1-а лінія"},"geometry":{"type":"Point","coordinates":[30.81517,50.61811]}},
{"type":"Feature","id":"83296600","properties":{"josm":"w83296600","name":"Чонгарский мост","nameuk":"Чонгарський міст"},"geometry":{"type":"Point","coordinates":[34.55253,45.98796]}},
{"type":"Feature","id":"85078606","properties":{"josm":"w85078606","name":"Ново-Садова вулиця","nameuk":"Садова вулиця"},"geometry":{"type":"Point","coordinates":[36.33618,49.94961]}},
{"type":"Feature","id":"86873883","properties":{"josm":"w86873883","name":"Корабельна вулиця","nameuk":"Червонофлотська вулиця"},"geometry":{"type":"Point","coordinates":[36.17757,49.97816]}},
{"type":"Feature","id":"87343480","properties":{"josm":"w87343480","name":"Козацька вулиця","nameuk":"Червоного Козацтва вулиця"},"geometry":{"type":"Point","coordinates":[36.22775,49.96847]}},
{"type":"Feature","id":"88373163","properties":{"josm":"w88373163","name":"1-й Кутаїський в’їзд","nameuk":"1-й Жовтневий в’їзд"},"geometry":{"type":"Point","coordinates":[36.21956,49.91354]}},
{"type":"Feature","id":"88373175","properties":{"josm":"w88373175","name":"Ерліха вулиця","nameuk":"Карла Лібкнехта вулиця"},"geometry":{"type":"Point","coordinates":[36.21809,49.91855]}},
{"type":"Feature","id":"89195305","properties":{"josm":"w89195305","name":"Семінарська вулиця","nameuk":"Володарського вулиця"},"geometry":{"type":"Point","coordinates":[36.19984,49.97186]}},
{"type":"Feature","id":"89195308","properties":{"josm":"w89195308","name":"Семінарська вулиця","nameuk":"Володарського вулиця"},"geometry":{"type":"Point","coordinates":[36.20013,49.97499]}},
{"type":"Feature","id":"89197699","properties":{"josm":"w89197699","name":"Григорівське шосе","nameuk":"Комсомольське шосе"},"geometry":{"type":"Point","coordinates":[36.18505,49.98066]}},
{"type":"Feature","id":"89197701","properties":{"josm":"w89197701","name":"Григорівське шосе","nameuk":"Комсомольське шосе"},"geometry":{"type":"Point","coordinates":[36.17664,49.97507]}},
{"type":"Feature","id":"89197708","properties":{"josm":"w89197708","name":"Дудинської вулиця","nameuk":"Наріманова вулиця"},"geometry":{"type":"Point","coordinates":[36.18042,49.97788]}},
{"type":"Feature","id":"89202748","properties":{"josm":"w89202748","name":"Семінарська вулиця","nameuk":"Володарського вулиця"},"geometry":{"type":"Point","coordinates":[36.19979,49.97037]}},
{"type":"Feature","id":"89658737","properties":{"josm":"w89658737","name":"Лазаревича вулиця","nameuk":"Ленінська вулиця"},"geometry":{"type":"Point","coordinates":[36.22042,49.90972]}},
{"type":"Feature","id":"97081437","properties":{"josm":"w97081437","name":"Григорівське шосе","nameuk":"Комсомольське шосе"},"geometry":{"type":"Point","coordinates":[36.1907,49.98414]}},
{"type":"Feature","id":"102687592","properties":{"josm":"w102687592","name":"Солікамська вулиця","nameuk":"Соликамская вулиця"},"geometry":{"type":"Point","coordinates":[37.87854,47.98574]}},
{"type":"Feature","id":"105843005","properties":{"josm":"w105843005","name":"Семінарська вулиця","nameuk":"Володарського вулиця"},"geometry":{"type":"Point","coordinates":[36.19888,49.98164]}},
{"type":"Feature","id":"105843006","properties":{"josm":"w105843006","name":"Озерянська вулиця","nameuk":"Муранова вулиця"},"geometry":{"type":"Point","coordinates":[36.19585,49.99362]}},
{"type":"Feature","id":"105843014","properties":{"josm":"w105843014","name":"Москалівська вулиця","nameuk":"Жовтневої Революції вулиця"},"geometry":{"type":"Point","coordinates":[36.22325,49.97184]}},
{"type":"Feature","id":"106089998","properties":{"josm":"w106089998","name":"11-а Лінія","nameuk":"11-а лінія"},"geometry":{"type":"Point","coordinates":[30.27181,50.54138]}},
{"type":"Feature","id":"106271624","properties":{"josm":"w106271624","name":"Кожедуба улица","nameuk":"Кожедуба вулиця"},"geometry":{"type":"Point","coordinates":[36.68806,49.84178]}},
{"type":"Feature","id":"106287118","properties":{"josm":"w106287118","name":"Академіка Рапопорта вулиця","nameuk":"Академіка Рапопорта"},"geometry":{"type":"Point","coordinates":[31.32337,51.53139]}},
{"type":"Feature","id":"106287120","properties":{"josm":"w106287120","name":"вулиця Корольова","nameuk":"Корольова вулиця"},"geometry":{"type":"Point","coordinates":[31.3151,51.53379]}},
{"type":"Feature","id":"107339105","properties":{"josm":"w107339105","name":"Кашватова вулиця","nameuk":"Каштанова вулиця"},"geometry":{"type":"Point","coordinates":[31.26721,51.51814]}},
{"type":"Feature","id":"112084627","properties":{"josm":"w112084627","name":"Рижівський провулок","nameuk":"Куйбишева провулок"},"geometry":{"type":"Point","coordinates":[36.25338,49.9924]}},
{"type":"Feature","id":"112682964","properties":{"josm":"w112682964","name":"Желанна вулиця","nameuk":"Бажана вулиця"},"geometry":{"type":"Point","coordinates":[37.60074,47.97009]}},
{"type":"Feature","id":"114522645","properties":{"josm":"w114522645","name":"Хлібодарна вулиця","nameuk":"Хлебодарная вулиця"},"geometry":{"type":"Point","coordinates":[37.77355,48.00927]}},
{"type":"Feature","id":"114523373","properties":{"josm":"w114523373","name":"Хлібодарна вулиця","nameuk":"Хлебодарная вулиця"},"geometry":{"type":"Point","coordinates":[37.77172,48.01348]}},
{"type":"Feature","id":"114523799","properties":{"josm":"w114523799","name":"Хлібодарна вулиця","nameuk":"Хлебодарная вулиця"},"geometry":{"type":"Point","coordinates":[37.76268,48.01411]}},
{"type":"Feature","id":"115554203","properties":{"josm":"w115554203","name":"Юр’єва вулиця","nameuk":"Юрійова вулиця"},"geometry":{"type":"Point","coordinates":[37.80535,48.06259]}},
{"type":"Feature","id":"116569276","properties":{"josm":"w116569276","name":"Юрія Смирнова вулиця","nameuk":"Юрія Смірнова вулиця"},"geometry":{"type":"Point","coordinates":[37.7662,48.02867]}},
{"type":"Feature","id":"116597898","properties":{"josm":"w116597898","name":"Генерала Момота вулиця","nameuk":"III Інтернаціоналу вулиця"},"geometry":{"type":"Point","coordinates":[36.36567,49.94301]}},
{"type":"Feature","id":"118051473","properties":{"josm":"w118051473","name":"Мачоливская улица","nameuk":"Мачолівська вулиця"},"geometry":{"type":"Point","coordinates":[22.638,48.18974]}},
{"type":"Feature","id":"120439191","properties":{"josm":"w120439191","name":"Москалівська вулиця","nameuk":"Жовтневої Революції вулиця"},"geometry":{"type":"Point","coordinates":[36.21702,49.96319]}},
{"type":"Feature","id":"120439192","properties":{"josm":"w120439192","name":"Москалівська вулиця","nameuk":"Жовтневої Революції вулиця"},"geometry":{"type":"Point","coordinates":[36.22117,49.96723]}},
{"type":"Feature","id":"121791109","properties":{"josm":"w121791109","name":"Індустріальний проспект","nameuk":"Фрунзе проспект"},"geometry":{"type":"Point","coordinates":[36.39392,49.96641]}},
{"type":"Feature","id":"122835271","properties":{"josm":"w122835271","name":"Молодежная улица","nameuk":"Молодіжна вулиця"},"geometry":{"type":"Point","coordinates":[38.44755,47.85554]}},
{"type":"Feature","id":"126632935","properties":{"josm":"w126632935","name":"Магнiтогорська вулиця","nameuk":"Магнітогорська вулиця"},"geometry":{"type":"Point","coordinates":[37.5917,48.75062]}},
{"type":"Feature","id":"129835863","properties":{"josm":"w129835863","name":"Хлібодарна вулиця","nameuk":"Хлебодарная вулиця"},"geometry":{"type":"Point","coordinates":[37.77402,48.00254]}},
{"type":"Feature","id":"131585790","properties":{"josm":"w131585790","name":"Гольдбергівська вулиця","nameuk":"1-ї Кінної Армії вулиця"},"geometry":{"type":"Point","coordinates":[36.24712,49.97625]}},
{"type":"Feature","id":"131585792","properties":{"josm":"w131585792","name":"Гольдбергівська вулиця","nameuk":"1-ї Кінної Армії вулиця"},"geometry":{"type":"Point","coordinates":[36.24481,49.9758]}},
{"type":"Feature","id":"131623711","properties":{"josm":"w131623711","name":"Москалівська вулиця","nameuk":"Жовтневої Революції вулиця"},"geometry":{"type":"Point","coordinates":[36.22287,49.97699]}},
{"type":"Feature","id":"131623712","properties":{"josm":"w131623712","name":"Москалівська вулиця","nameuk":"Жовтневої Революції вулиця"},"geometry":{"type":"Point","coordinates":[36.22206,49.96883]}},
{"type":"Feature","id":"131623713","properties":{"josm":"w131623713","name":"Москалівська вулиця","nameuk":"Жовтневої Революції вулиця"},"geometry":{"type":"Point","coordinates":[36.22086,49.96699]}},
{"type":"Feature","id":"131623718","properties":{"josm":"w131623718","name":"Гольдбергівська вулиця","nameuk":"1-ї Кінної Армії вулиця"},"geometry":{"type":"Point","coordinates":[36.23409,49.97493]}},
{"type":"Feature","id":"131634583","properties":{"josm":"w131634583","name":"Москалівська вулиця","nameuk":"Жовтневої Революції вулиця"},"geometry":{"type":"Point","coordinates":[36.22021,49.96585]}},
{"type":"Feature","id":"131660783","properties":{"josm":"w131660783","name":"Москалівська вулиця","nameuk":"Жовтневої Революції вулиця"},"geometry":{"type":"Point","coordinates":[36.20759,49.95561]}},
{"type":"Feature","id":"134103486","properties":{"josm":"w134103486","name":"Молодежная улица","nameuk":"Молодіжна вулиця"},"geometry":{"type":"Point","coordinates":[37.40126,46.9681]}},
{"type":"Feature","id":"136438191","properties":{"josm":"w136438191","name":"Желанна вулиця","nameuk":"Бажана вулиця"},"geometry":{"type":"Point","coordinates":[37.58953,47.97192]}},
{"type":"Feature","id":"137572047","properties":{"josm":"w137572047","name":"60-лет СССР улица","nameuk":"60 років СРСР вулиця"},"geometry":{"type":"Point","coordinates":[38.08159,47.11838]}},
{"type":"Feature","id":"137572682","properties":{"josm":"w137572682","name":"Молодежная улица","nameuk":"Молодіжна вулиця"},"geometry":{"type":"Point","coordinates":[38.10788,47.11351]}},
{"type":"Feature","id":"140693245","properties":{"josm":"w140693245","name":"Рєдіна вулиця","nameuk":"Комсомольська вулиця"},"geometry":{"type":"Point","coordinates":[36.2469,49.95428]}},
{"type":"Feature","id":"142285505","properties":{"josm":"w142285505","name":"Григорівське шосе","nameuk":"Комсомольське шосе"},"geometry":{"type":"Point","coordinates":[36.16985,49.96909]}},
{"type":"Feature","id":"142957877","properties":{"josm":"w142957877","name":"8 Сьезда Советов улица","nameuk":"8-го З’їзду Рад вулиця"},"geometry":{"type":"Point","coordinates":[38.48762,47.78849]}},
{"type":"Feature","id":"145109061","properties":{"josm":"w145109061","name":"Бакинских Комисаров улица","nameuk":"Бакинських Комісарів вулиця"},"geometry":{"type":"Point","coordinates":[38.46601,48.03765]}},
{"type":"Feature","id":"148067325","properties":{"josm":"w148067325","name":"Златопольська вулиця","nameuk":"Златопільська вулиця"},"geometry":{"type":"Point","coordinates":[32.21317,48.48166]}},
{"type":"Feature","id":"148112944","properties":{"josm":"w148112944","name":"Щорса вулиця (стор. пос.Дослідної ст.), Степова ввулиця (стор. с.Вигода)","nameuk":"Щорса вулиця"},"geometry":{"type":"Point","coordinates":[30.39234,46.60883]}},
{"type":"Feature","id":"155861824","properties":{"josm":"w155861824","name":"ул. Ленина","nameuk":"вул. Леніна"},"geometry":{"type":"Point","coordinates":[30.55065,46.48445]}},
{"type":"Feature","id":"167455343","properties":{"josm":"w167455343","name":"Турунська вулиця","nameuk":"Турунская вулиця"},"geometry":{"type":"Point","coordinates":[37.67136,47.92072]}},
{"type":"Feature","id":"167458567","properties":{"josm":"w167458567","name":"Проїжджа вулиця","nameuk":"Проїздна вулиця"},"geometry":{"type":"Point","coordinates":[37.67472,47.91954]}},
{"type":"Feature","id":"167459059","properties":{"josm":"w167459059","name":"Бринька вулиця","nameuk":"Бринько вулиця"},"geometry":{"type":"Point","coordinates":[37.6785,47.92013]}},
{"type":"Feature","id":"167991159","properties":{"josm":"w167991159","name":"Садова провулок чи вулиця?","nameuk":"Садова провулок"},"geometry":{"type":"Point","coordinates":[33.17754,49.59085]}},
{"type":"Feature","id":"169566576","properties":{"josm":"w169566576","name":"Лип'янська вулиця","nameuk":"Ганни Дмитришиної вулиця"},"geometry":{"type":"Point","coordinates":[26.02729,50.55492]}},
{"type":"Feature","id":"171633340","properties":{"josm":"w171633340","name":"Верхньошевченківський провулок","nameuk":"Верхньошевченківский провулок"},"geometry":{"type":"Point","coordinates":[37.17433,48.41055]}},
{"type":"Feature","id":"175083114","properties":{"josm":"w175083114","name":"Рози Люксембург переулок","nameuk":"Рози Люксембург вулиця"},"geometry":{"type":"Point","coordinates":[38.56009,48.85844]}},
{"type":"Feature","id":"179312419","properties":{"josm":"w179312419","name":"Озерная улица","nameuk":"Озерна вулиця"},"geometry":{"type":"Point","coordinates":[37.98966,48.27831]}},
{"type":"Feature","id":"180108834","properties":{"josm":"w180108834","name":"Гольдбергівська вулиця","nameuk":"1-ї Кінної Армії вулиця"},"geometry":{"type":"Point","coordinates":[36.24702,49.97629]}},
{"type":"Feature","id":"183666170","properties":{"josm":"w183666170","name":"Скелевая улица","nameuk":"Смирнова вулиця"},"geometry":{"type":"Point","coordinates":[38.47919,47.89175]}},
{"type":"Feature","id":"184554280","properties":{"josm":"w184554280","name":"Пантелеймонівська вулиця","nameuk":"Бакинських Комісарів вулиця"},"geometry":{"type":"Point","coordinates":[36.27795,50.00266]}},
{"type":"Feature","id":"185842341","properties":{"josm":"w185842341","name":"2-й Костянтина Калініна в’їзд","nameuk":"2-й Калініна в’їзд"},"geometry":{"type":"Point","coordinates":[36.14076,49.95654]}},
{"type":"Feature","id":"185866641","properties":{"josm":"w185866641","name":"2-й Кутаїський в’їзд","nameuk":"2-й Жовтневий в’їзд"},"geometry":{"type":"Point","coordinates":[36.24288,49.92178]}},
{"type":"Feature","id":"188287368","properties":{"josm":"w188287368","name":"ул. 2-я Сортоиспытательная","nameuk":"вул. 2-я Сортовипробувальна"},"geometry":{"type":"Point","coordinates":[30.56051,46.45858]}},
{"type":"Feature","id":"188287407","properties":{"josm":"w188287407","name":"ул. Черноморская","nameuk":"вул. Чорноморська"},"geometry":{"type":"Point","coordinates":[30.55858,46.45833]}},
{"type":"Feature","id":"188289299","properties":{"josm":"w188289299","name":"ул. Шевченко","nameuk":"вул. Шевченко"},"geometry":{"type":"Point","coordinates":[30.57788,46.44246]}},
{"type":"Feature","id":"188318498","properties":{"josm":"w188318498","name":"Молодежная улица","nameuk":"Молодіжна вулиця"},"geometry":{"type":"Point","coordinates":[37.91232,48.18959]}},
{"type":"Feature","id":"188318545","properties":{"josm":"w188318545","name":"Молодежная улица","nameuk":"Молодіжна вулиця"},"geometry":{"type":"Point","coordinates":[37.9188,48.18716]}},
{"type":"Feature","id":"188318552","properties":{"josm":"w188318552","name":"Молодежная улица","nameuk":"Молодіжна вулиця"},"geometry":{"type":"Point","coordinates":[37.91265,48.1889]}},
{"type":"Feature","id":"200763050","properties":{"josm":"w200763050","name":"Южная дорога","nameuk":"Південна дорога"},"geometry":{"type":"Point","coordinates":[30.78038,46.56134]}},
{"type":"Feature","id":"204094858","properties":{"josm":"w204094858","name":"Озерянська вулиця","nameuk":"Муранова вулиця"},"geometry":{"type":"Point","coordinates":[36.20395,49.99791]}},
{"type":"Feature","id":"204094859","properties":{"josm":"w204094859","name":"Панасівський проїзд","nameuk":"Муранова вулиця"},"geometry":{"type":"Point","coordinates":[36.20665,49.99871]}},
{"type":"Feature","id":"205077804","properties":{"josm":"w205077804","name":"Благовіщенська вулиця","nameuk":"Карла Маркса вулиця"},"geometry":{"type":"Point","coordinates":[36.21983,49.98938]}},
{"type":"Feature","id":"205185203","properties":{"josm":"w205185203","name":"Южная дорога","nameuk":"Південна дорога"},"geometry":{"type":"Point","coordinates":[30.78052,46.56124]}},
{"type":"Feature","id":"210554239","properties":{"josm":"w210554239","name":"Магеллана Ф. вулиця","nameuk":"Магеллана вулиця"},"geometry":{"type":"Point","coordinates":[37.99315,48.06218]}},
{"type":"Feature","id":"221866353","properties":{"josm":"w221866353","name":"Кухарева вулиця","nameuk":"23 Кухарева вулиця"},"geometry":{"type":"Point","coordinates":[31.76853,47.31415]}},
{"type":"Feature","id":"227460040","properties":{"josm":"w227460040","name":"ул. Черноморская","nameuk":"вул. Чорноморська"},"geometry":{"type":"Point","coordinates":[30.5602,46.45419]}},
{"type":"Feature","id":"227460043","properties":{"josm":"w227460043","name":"ул. Профсоюзная","nameuk":"вул. Профспілкова"},"geometry":{"type":"Point","coordinates":[30.56245,46.4524]}},
{"type":"Feature","id":"238060975","properties":{"josm":"w238060975","name":"Озерянська вулиця","nameuk":"Кузінський шляхопровід"},"geometry":{"type":"Point","coordinates":[36.20035,49.99676]}},
{"type":"Feature","id":"238060976","properties":{"josm":"w238060976","name":"Озерянська вулиця","nameuk":"Кузінський шляхопровід"},"geometry":{"type":"Point","coordinates":[36.19924,49.99644]}},
{"type":"Feature","id":"241761403","properties":{"josm":"w241761403","name":"Москалівська вулиця","nameuk":"Жовтневої Революції вулиця"},"geometry":{"type":"Point","coordinates":[36.2232,49.97497]}},
{"type":"Feature","id":"241761406","properties":{"josm":"w241761406","name":"Москалівська вулиця","nameuk":"Жовтневої Революції вулиця"},"geometry":{"type":"Point","coordinates":[36.22299,49.977]}},
{"type":"Feature","id":"247789161","properties":{"josm":"w247789161","name":"Молодежная улица","nameuk":"Молодіжна вулиця"},"geometry":{"type":"Point","coordinates":[37.91648,48.18842]}},
{"type":"Feature","id":"251255495","properties":{"josm":"w251255495","name":"Зеленая улица","nameuk":"Зелена вулиця"},"geometry":{"type":"Point","coordinates":[33.3093,51.7711]}},
{"type":"Feature","id":"254681311","properties":{"josm":"w254681311","name":"Дудинської вулиця","nameuk":"Наріманова вулиця"},"geometry":{"type":"Point","coordinates":[36.1903,49.97171]}},
{"type":"Feature","id":"254681312","properties":{"josm":"w254681312","name":"Дудинської вулиця","nameuk":"Наріманова вулиця"},"geometry":{"type":"Point","coordinates":[36.18808,49.97306]}},
{"type":"Feature","id":"254681313","properties":{"josm":"w254681313","name":"Дудинської вулиця","nameuk":"Наріманова вулиця"},"geometry":{"type":"Point","coordinates":[36.18344,49.97597]}},
{"type":"Feature","id":"254681314","properties":{"josm":"w254681314","name":"Дудинської вулиця","nameuk":"Наріманова вулиця"},"geometry":{"type":"Point","coordinates":[36.17854,49.97932]}},
{"type":"Feature","id":"255096299","properties":{"josm":"w255096299","name":"Москалівська вулиця","nameuk":"Жовтневої Революції вулиця"},"geometry":{"type":"Point","coordinates":[36.2075,49.95565]}},
{"type":"Feature","id":"255096300","properties":{"josm":"w255096300","name":"Москалівська вулиця","nameuk":"Жовтневої Революції вулиця"},"geometry":{"type":"Point","coordinates":[36.22334,49.97497]}},
{"type":"Feature","id":"255096301","properties":{"josm":"w255096301","name":"Москалівська вулиця","nameuk":"Жовтневої Революції вулиця"},"geometry":{"type":"Point","coordinates":[36.22312,49.97186]}},
{"type":"Feature","id":"255096302","properties":{"josm":"w255096302","name":"Москалівська вулиця","nameuk":"Жовтневої Революції вулиця"},"geometry":{"type":"Point","coordinates":[36.21061,49.95881]}},
{"type":"Feature","id":"255405131","properties":{"josm":"w255405131","name":"Індустріальний проспект","nameuk":"Фрунзе проспект"},"geometry":{"type":"Point","coordinates":[36.38625,49.95142]}},
{"type":"Feature","id":"260620816","properties":{"josm":"w260620816","name":"улица Матросова","nameuk":"Матросова вулиця"},"geometry":{"type":"Point","coordinates":[34.74448,45.44781]}},
{"type":"Feature","id":"260620840","properties":{"josm":"w260620840","name":"улица Матросова","nameuk":"Матросова вулиця"},"geometry":{"type":"Point","coordinates":[34.74344,45.4481]}},
{"type":"Feature","id":"260620841","properties":{"josm":"w260620841","name":"улица Матросова","nameuk":"Матросова вулиця"},"geometry":{"type":"Point","coordinates":[34.74159,45.44861]}},
{"type":"Feature","id":"260620851","properties":{"josm":"w260620851","name":"улица Матросова","nameuk":"Матросова вулиця"},"geometry":{"type":"Point","coordinates":[34.73895,45.44863]}},
{"type":"Feature","id":"260997155","properties":{"josm":"w260997155","name":"Індустріальний проспект","nameuk":"Фрунзе проспект"},"geometry":{"type":"Point","coordinates":[36.38642,49.9516]}},
{"type":"Feature","id":"262721205","properties":{"josm":"w262721205","name":"Чайкиної вулиця","nameuk":"Чайкіної вулиця"},"geometry":{"type":"Point","coordinates":[37.52005,47.5843]}},
{"type":"Feature","id":"266285380","properties":{"josm":"w266285380","name":"Belinskogo street","nameuk":"Белінського вулиця"},"geometry":{"type":"Point","coordinates":[34.80188,46.1841]}},
{"type":"Feature","id":"266285453","properties":{"josm":"w266285453","name":"Shumenskaia street","nameuk":"Шуменська вулиця"},"geometry":{"type":"Point","coordinates":[34.79673,46.18113]}},
{"type":"Feature","id":"268115760","properties":{"josm":"w268115760","name":"Златопольська вулиця","nameuk":"Златопільська вулиця"},"geometry":{"type":"Point","coordinates":[32.21048,48.48023]}},
{"type":"Feature","id":"268115762","properties":{"josm":"w268115762","name":"Златопольська вулиця","nameuk":"Златопільська вулиця"},"geometry":{"type":"Point","coordinates":[32.20853,48.47917]}},
{"type":"Feature","id":"272921005","properties":{"josm":"w272921005","name":"Матяхина переулок","nameuk":"Матяхіна провулок"},"geometry":{"type":"Point","coordinates":[34.93156,45.33989]}},
{"type":"Feature","id":"273442816","properties":{"josm":"w273442816","name":"Соборний провулок","nameuk":"Радянський провулок"},"geometry":{"type":"Point","coordinates":[36.23202,49.98982]}},
{"type":"Feature","id":"279537294","properties":{"josm":"w279537294","name":"Бринька вулиця","nameuk":"Бринько вулиця"},"geometry":{"type":"Point","coordinates":[37.67722,47.91894]}},
{"type":"Feature","id":"294654872","properties":{"josm":"w294654872","name":"Катовицька вулиця","nameuk":"Катовіцька вулиця"},"geometry":{"type":"Point","coordinates":[37.66677,47.93108]}},
{"type":"Feature","id":"294813883","properties":{"josm":"w294813883","name":"Черняхівського вулиця","nameuk":"Черняховського вулиця"},"geometry":{"type":"Point","coordinates":[38.01292,48.3559]}},
{"type":"Feature","id":"295281340","properties":{"josm":"w295281340","name":"Чкалова улица","nameuk":"Садова вулиця"},"geometry":{"type":"Point","coordinates":[30.24314,46.44675]}},
{"type":"Feature","id":"300862645","properties":{"josm":"w300862645","name":"Молодежная улица","nameuk":"Молодіжна вулиця"},"geometry":{"type":"Point","coordinates":[37.39127,47.23169]}},
{"type":"Feature","id":"304386665","properties":{"josm":"w304386665","name":"Молодежная улица","nameuk":"Молодіжна вулиця"},"geometry":{"type":"Point","coordinates":[38.07073,47.67644]}},
{"type":"Feature","id":"304386676","properties":{"josm":"w304386676","name":"Молодежная улица","nameuk":"Молодіжна вулиця"},"geometry":{"type":"Point","coordinates":[38.07138,47.67776]}},
{"type":"Feature","id":"315917350","properties":{"josm":"w315917350","name":"ул. Шевченко","nameuk":"вул. Шевченко"},"geometry":{"type":"Point","coordinates":[30.57709,46.44972]}},
{"type":"Feature","id":"315917992","properties":{"josm":"w315917992","name":"ул. Шевченко","nameuk":"вул. Шевченко"},"geometry":{"type":"Point","coordinates":[30.5795,46.43511]}},
{"type":"Feature","id":"324619787","properties":{"josm":"w324619787","name":"Мирна вулиця","nameuk":"вулиця Мирна"},"geometry":{"type":"Point","coordinates":[30.50731,50.46409]}},
{"type":"Feature","id":"332814826","properties":{"josm":"w332814826","name":"Біблика вулиця","nameuk":"2-ї П’ятирічки вулиця"},"geometry":{"type":"Point","coordinates":[36.3649,49.95013]}},
{"type":"Feature","id":"333432096","properties":{"josm":"w333432096","name":"Молодежная улица","nameuk":"Молодіжна вулиця"},"geometry":{"type":"Point","coordinates":[38.07158,47.67763]}},
{"type":"Feature","id":"335392530","properties":{"josm":"w335392530","name":"Молодежная улица","nameuk":"Молодіжна вулиця"},"geometry":{"type":"Point","coordinates":[37.17476,47.98792]}},
{"type":"Feature","id":"335673623","properties":{"josm":"w335673623","name":"60-лет СССР улица","nameuk":"60 років СРСР вулиця"},"geometry":{"type":"Point","coordinates":[37.19007,47.0544]}},
{"type":"Feature","id":"335976624","properties":{"josm":"w335976624","name":"Молодежная улица","nameuk":"Молодіжна вулиця"},"geometry":{"type":"Point","coordinates":[38.94028,47.92131]}},
{"type":"Feature","id":"336116218","properties":{"josm":"w336116218","name":"Озерная улица","nameuk":"Озерна вулиця"},"geometry":{"type":"Point","coordinates":[37.44875,48.57493]}},
{"type":"Feature","id":"336603463","properties":{"josm":"w336603463","name":"Молодежная улица","nameuk":"Молодіжна вулиця"},"geometry":{"type":"Point","coordinates":[38.17663,47.94606]}},
{"type":"Feature","id":"351929542","properties":{"josm":"w351929542","name":"Індустріальний проспект","nameuk":"Фрунзе проспект"},"geometry":{"type":"Point","coordinates":[36.36923,49.93006]}},
{"type":"Feature","id":"351929545","properties":{"josm":"w351929545","name":"Індустріальний проспект","nameuk":"Фрунзе проспект"},"geometry":{"type":"Point","coordinates":[36.36793,49.92846]}},
{"type":"Feature","id":"364393518","properties":{"josm":"w364393518","name":"8 Сьезда Советов улица","nameuk":"8-го З’їзду Рад вулиця"},"geometry":{"type":"Point","coordinates":[38.49673,47.78851]}},
{"type":"Feature","id":"374272911","properties":{"josm":"w374272911","name":"Зеленая улица","nameuk":"Зелена вулиця"},"geometry":{"type":"Point","coordinates":[33.30461,51.76865]}},
{"type":"Feature","id":"375328201","properties":{"josm":"w375328201","name":"Ющенкa вулиця","nameuk":"Ющенка вулиця"},"geometry":{"type":"Point","coordinates":[32.87706,51.34129]}},
{"type":"Feature","id":"379730856","properties":{"josm":"w379730856","name":"Загородная","nameuk":"Замыська"},"geometry":{"type":"Point","coordinates":[30.38632,50.36934]}},
{"type":"Feature","id":"381743121","properties":{"josm":"w381743121","name":"Рывкина улица","nameuk":"Ривкіна вулиця"},"geometry":{"type":"Point","coordinates":[31.29822,51.54213]}},
{"type":"Feature","id":"381746915","properties":{"josm":"w381746915","name":"Григоренка вулиця","nameuk":"Григоренко вулиця"},"geometry":{"type":"Point","coordinates":[31.32312,51.5374]}},
{"type":"Feature","id":"381746917","properties":{"josm":"w381746917","name":"Авіації вулиця","nameuk":"Авіаціі вулиця"},"geometry":{"type":"Point","coordinates":[31.32504,51.53921]}},
{"type":"Feature","id":"381746920","properties":{"josm":"w381746920","name":"Банченка вулиця","nameuk":"вулиця Банченка"},"geometry":{"type":"Point","coordinates":[31.32532,51.54013]}},
{"type":"Feature","id":"382457069","properties":{"josm":"w382457069","name":"Belinskogo street","nameuk":"Белінського вулиця"},"geometry":{"type":"Point","coordinates":[34.80232,46.18422]}},
{"type":"Feature","id":"383036883","properties":{"josm":"w383036883","name":"Панасівський проїзд","nameuk":"Муранова вулиця"},"geometry":{"type":"Point","coordinates":[36.20495,49.99833]}},
{"type":"Feature","id":"383036884","properties":{"josm":"w383036884","name":"Озерянська вулиця","nameuk":"Муранова вулиця"},"geometry":{"type":"Point","coordinates":[36.20521,49.99817]}},
{"type":"Feature"}
]}
