{
"type": "FeatureCollection",
"errorDescr": "Incorrect <b>name</b>-tag value",
"features": [
{"type":"Feature","id":"5218366","properties":{"josm":"w5218366","name":"Анны Барвинок улица","nameuk":"Ганни Барвінок вулиця"},"geometry":{"type":"Point","coordinates":[30.49364,50.48757]}},
{"type":"Feature","id":"24447139","properties":{"josm":"w24447139","name":"Конюшенный переулок","nameuk":"Конюшений провулок"},"geometry":{"type":"Point","coordinates":[36.27859,49.9852]}},
{"type":"Feature","id":"24696080","properties":{"josm":"w24696080","name":"Памвы Беринды провулок","nameuk":"Памви Беринди провулок"},"geometry":{"type":"Point","coordinates":[30.55227,50.43087]}},
{"type":"Feature","id":"27226642","properties":{"josm":"w27226642","name":"Вільгельма Габсбурга провулок","nameuk":"Богданова провулок"},"geometry":{"type":"Point","coordinates":[30.72219,46.48834]}},
{"type":"Feature","id":"27879731","properties":{"josm":"w27879731","name":"Рибака вулиця","nameuk":"7-та Лінія вулиця"},"geometry":{"type":"Point","coordinates":[30.25685,50.53155]}},
{"type":"Feature","id":"28472062","properties":{"josm":"w28472062","name":"Щёлкина улица","nameuk":"Щолкіна вулиця"},"geometry":{"type":"Point","coordinates":[35.82334,45.42966]}},
{"type":"Feature","id":"28486564","properties":{"josm":"w28486564","name":"аллея №2","nameuk":"алея №1"},"geometry":{"type":"Point","coordinates":[35.8205,45.43056]}},
{"type":"Feature","id":"30173400","properties":{"josm":"w30173400","name":"Лозовеньківський проспект","nameuk":"Окружна дорога"},"geometry":{"type":"Point","coordinates":[36.18047,50.05362]}},
{"type":"Feature","id":"31515765","properties":{"josm":"w31515765","name":"Достоєвського провулок","nameuk":"Дстоєвського провулок"},"geometry":{"type":"Point","coordinates":[30.7453,46.41298]}},
{"type":"Feature","id":"31526975","properties":{"josm":"w31526975","name":"Институтская улица","nameuk":"Інститутська вулиця"},"geometry":{"type":"Point","coordinates":[30.70065,46.37733]}},
{"type":"Feature","id":"31668656","properties":{"josm":"w31668656","name":"СТ Світанок","nameuk":"Садове товариство Світанок"},"geometry":{"type":"Point","coordinates":[30.64553,50.2625]}},
{"type":"Feature","id":"31755732","properties":{"josm":"w31755732","name":"Генерала Гандзюка улица","nameuk":"Генерала Гандзюка вулиця"},"geometry":{"type":"Point","coordinates":[30.50338,50.48697]}},
{"type":"Feature","id":"31765705","properties":{"josm":"w31765705","name":"Гетьманський провулок","nameuk":"Гетmманський провулок"},"geometry":{"type":"Point","coordinates":[30.71982,46.38184]}},
{"type":"Feature","id":"33792913","properties":{"josm":"w33792913","name":"Шевченко улица","nameuk":"Перемоги площа"},"geometry":{"type":"Point","coordinates":[35.26018,48.6278]}},
{"type":"Feature","id":"34203129","properties":{"josm":"w34203129","name":"Копиловська вулиця","nameuk":"Першої Маївки вулиця"},"geometry":{"type":"Point","coordinates":[36.2085,50.00102]}},
{"type":"Feature","id":"34572897","properties":{"josm":"w34572897","name":"провулок Шарівський","nameuk":"Спортивна вулиця"},"geometry":{"type":"Point","coordinates":[36.157,49.9808]}},
{"type":"Feature","id":"34679755","properties":{"josm":"w34679755","name":"Терихівська вулиця","nameuk":"Скорохода вулиця"},"geometry":{"type":"Point","coordinates":[36.18191,49.99515]}},
{"type":"Feature","id":"34838730","properties":{"josm":"w34838730","name":"Сільський в’їзд","nameuk":"Колгоспний в’їзд"},"geometry":{"type":"Point","coordinates":[36.30029,50.05467]}},
{"type":"Feature","id":"34839561","properties":{"josm":"w34839561","name":"Стара Озерянка вулиця","nameuk":"Аральська вулиця"},"geometry":{"type":"Point","coordinates":[36.33507,50.04493]}},
{"type":"Feature","id":"34959238","properties":{"josm":"w34959238","name":"Центральна  вулиця","nameuk":"Центральна вулиця"},"geometry":{"type":"Point","coordinates":[39.01228,48.9526]}},
{"type":"Feature","id":"35478586","properties":{"josm":"w35478586","name":"Козацкий переулок","nameuk":"Будівельна вулиця"},"geometry":{"type":"Point","coordinates":[33.64276,47.56741]}},
{"type":"Feature","id":"37718518","properties":{"josm":"w37718518","name":"Серго Орджоникидзе улица","nameuk":"Орджонікідзе вулиця"},"geometry":{"type":"Point","coordinates":[33.50537,44.59066]}},
{"type":"Feature","id":"38651170","properties":{"josm":"w38651170","name":"Осипенка провулок","nameuk":"Гризодубової провулок"},"geometry":{"type":"Point","coordinates":[32.05238,49.42141]}},
{"type":"Feature","id":"39273509","properties":{"josm":"w39273509","name":"Розы Люксембург улица","nameuk":"Рози Люксембург вулиця"},"geometry":{"type":"Point","coordinates":[33.54284,44.60959]}},
{"type":"Feature","id":"41081809","properties":{"josm":"w41081809","name":"Трудова вулиця","nameuk":"Джерельна вулиця"},"geometry":{"type":"Point","coordinates":[27.03142,49.4318]}},
{"type":"Feature","id":"42976870","properties":{"josm":"w42976870","name":"Щёлкина улица","nameuk":"Щолкіна вулиця"},"geometry":{"type":"Point","coordinates":[35.82636,45.42748]}},
{"type":"Feature","id":"48965826","properties":{"josm":"w48965826","name":"Миколаєнка вулиця","nameuk":"Ніколенка вулиця"},"geometry":{"type":"Point","coordinates":[34.58876,48.50663]}},
{"type":"Feature","id":"51065627","properties":{"josm":"w51065627","name":"1-й Матеріальний провулок","nameuk":"Вапняна вулиця"},"geometry":{"type":"Point","coordinates":[30.70716,46.50029]}},
{"type":"Feature","id":"55901653","properties":{"josm":"w55901653","name":"Гетьманська вулиця","nameuk":"Гетьмманська вулиця"},"geometry":{"type":"Point","coordinates":[30.10697,49.79768]}},
{"type":"Feature","id":"55937137","properties":{"josm":"w55937137","name":"Михаила Грушевского вулиця","nameuk":"Михайла Грушевського вулиця"},"geometry":{"type":"Point","coordinates":[30.91296,47.20873]}},
{"type":"Feature","id":"55953779","properties":{"josm":"w55953779","name":"Леонтовича вулиця","nameuk":"Бєлінського вулиця"},"geometry":{"type":"Point","coordinates":[30.7534,46.47087]}},
{"type":"Feature","id":"57989472","properties":{"josm":"w57989472","name":"Podul Prieteniei","nameuk":"Дружба міст"},"geometry":{"type":"Point","coordinates":[27.78988,48.44375]}},
{"type":"Feature","id":"59538663","properties":{"josm":"w59538663","name":"Військової Слави вулиця","nameuk":"Військової Cлави вулиця"},"geometry":{"type":"Point","coordinates":[30.35292,46.18931]}},
{"type":"Feature","id":"60105625","properties":{"josm":"w60105625","name":"Автостанція Дачна","nameuk":"Дачна"},"geometry":{"type":"Point","coordinates":[30.35018,50.45538]}},
{"type":"Feature","id":"66862263","properties":{"josm":"w66862263","name":"Січових Стрільців вулиця","nameuk":"Січових стрільців вулиця"},"geometry":{"type":"Point","coordinates":[30.12827,49.77635]}},
{"type":"Feature","id":"68221185","properties":{"josm":"w68221185","name":"Чернобыльская улица","nameuk":"Чорнобильська вулиця"},"geometry":{"type":"Point","coordinates":[30.344,50.46873]}},
{"type":"Feature","id":"69253381","properties":{"josm":"w69253381","name":"Волошкова вулиця","nameuk":"Василькова вулиця"},"geometry":{"type":"Point","coordinates":[34.75931,50.93465]}},
{"type":"Feature","id":"70994006","properties":{"josm":"w70994006","name":"проспект Ленина (Кипарисовая аллея)","nameuk":"Леніна проспект"},"geometry":{"type":"Point","coordinates":[33.99971,44.40354]}},
{"type":"Feature","id":"72917210","properties":{"josm":"w72917210","name":"Самарская улица","nameuk":"Самарська вулиця"},"geometry":{"type":"Point","coordinates":[35.33112,48.65183]}},
{"type":"Feature","id":"77622620","properties":{"josm":"w77622620","name":"Чернобыльская улица","nameuk":"Чорнобильська вулиця"},"geometry":{"type":"Point","coordinates":[30.33948,50.47085]}},
{"type":"Feature","id":"79817063","properties":{"josm":"w79817063","name":"П. Морозова вулиця","nameuk":"П.Морозова вулиця"},"geometry":{"type":"Point","coordinates":[37.29987,48.13853]}},
{"type":"Feature","id":"81204334","properties":{"josm":"w81204334","name":"Морозова вулиця","nameuk":"Степана Мазурця вулиця"},"geometry":{"type":"Point","coordinates":[25.36354,50.74829]}},
{"type":"Feature","id":"83296600","properties":{"josm":"w83296600","name":"Chonhar Bridge","nameuk":"Чонгарський міст"},"geometry":{"type":"Point","coordinates":[34.55253,45.98796]}},
{"type":"Feature","id":"83296600","properties":{"josm":"w83296600","name":"Chonhar Bridge","nameuk":"Чонгарський міст"},"geometry":{"type":"Point","coordinates":[34.55253,45.98796]}},
{"type":"Feature","id":"86267548","properties":{"josm":"w86267548","name":"Парусная улица","nameuk":"Вітрильна вулиця"},"geometry":{"type":"Point","coordinates":[36.76818,46.7618]}},
{"type":"Feature","id":"86463430","properties":{"josm":"w86463430","name":"Терихівська вулиця","nameuk":"Скорохода вулиця"},"geometry":{"type":"Point","coordinates":[36.18417,49.99402]}},
{"type":"Feature","id":"86859486","properties":{"josm":"w86859486","name":"Колійний провулок","nameuk":"Піщаний провулок"},"geometry":{"type":"Point","coordinates":[36.24212,49.95272]}},
{"type":"Feature","id":"89810208","properties":{"josm":"w89810208","name":"Железнодорожная улица","nameuk":"Залізнична вулиця"},"geometry":{"type":"Point","coordinates":[36.02846,49.88685]}},
{"type":"Feature","id":"89934669","properties":{"josm":"w89934669","name":"Короленко улица","nameuk":"Короленка вулиця"},"geometry":{"type":"Point","coordinates":[36.00226,49.89041]}},
{"type":"Feature","id":"90919037","properties":{"josm":"w90919037","name":"Незалежності вулиця, Н-09","nameuk":"Незалежності вулиця"},"geometry":{"type":"Point","coordinates":[24.57522,48.34158]}},
{"type":"Feature","id":"91432460","properties":{"josm":"w91432460","name":"Мистецький провулок","nameuk":"провулок Мистецький"},"geometry":{"type":"Point","coordinates":[36.1715,50.05642]}},
{"type":"Feature","id":"91432474","properties":{"josm":"w91432474","name":"Центральная улица","nameuk":"Центральна вулиця"},"geometry":{"type":"Point","coordinates":[36.15973,50.06541]}},
{"type":"Feature","id":"97606389","properties":{"josm":"w97606389","name":"Ленина улица","nameuk":"Лєнона вулиця"},"geometry":{"type":"Point","coordinates":[36.04367,49.82593]}},
{"type":"Feature","id":"97820519","properties":{"josm":"w97820519","name":"Стадіонний в’їзд","nameuk":"Жовтня в’їзд"},"geometry":{"type":"Point","coordinates":[36.29918,49.87312]}},
{"type":"Feature","id":"98287250","properties":{"josm":"w98287250","name":"Василя Щавинського вулиця","nameuk":"Василия Щавинского вулиця"},"geometry":{"type":"Point","coordinates":[30.59455,50.52133]}},
{"type":"Feature","id":"99218685","properties":{"josm":"w99218685","name":"Дундича вулиця ( Амосова)","nameuk":"Дундича вулиця"},"geometry":{"type":"Point","coordinates":[30.29935,50.27489]}},
{"type":"Feature","id":"100977886","properties":{"josm":"w100977886","name":"1-го Травня провулок","nameuk":"1-го Травня вулиця"},"geometry":{"type":"Point","coordinates":[30.43224,50.61408]}},
{"type":"Feature","id":"101248203","properties":{"josm":"w101248203","name":"улица Вели Ибрагимова","nameuk":"Велі Ібрагімова вулиця"},"geometry":{"type":"Point","coordinates":[33.87062,44.74095]}},
{"type":"Feature","id":"104134992","properties":{"josm":"w104134992","name":"улица Космонавта Волкова","nameuk":"Вінницька вулиця"},"geometry":{"type":"Point","coordinates":[33.6468,44.58404]}},
{"type":"Feature","id":"105136347","properties":{"josm":"w105136347","name":"Улица Шевченко","nameuk":"Шевченка вулиця"},"geometry":{"type":"Point","coordinates":[33.65878,45.78435]}},
{"type":"Feature","id":"107972062","properties":{"josm":"w107972062","name":"улица Ашик Умера","nameuk":"Ашик Умера вулиця"},"geometry":{"type":"Point","coordinates":[34.99419,44.84843]}},
{"type":"Feature","id":"108625861","properties":{"josm":"w108625861","name":"1-й Матеріальний провулок","nameuk":"Східчастий провулок"},"geometry":{"type":"Point","coordinates":[30.70693,46.49905]}},
{"type":"Feature","id":"109082705","properties":{"josm":"w109082705","name":"Аркадійська алея","nameuk":"Аркадійська Алея"},"geometry":{"type":"Point","coordinates":[30.76401,46.42951]}},
{"type":"Feature","id":"109582437","properties":{"josm":"w109582437","name":"Восьмого Березня вулиця","nameuk":"Першої Маївки вулиця"},"geometry":{"type":"Point","coordinates":[36.20954,49.99917]}},
{"type":"Feature","id":"109639929","properties":{"josm":"w109639929","name":"Майкопская улица","nameuk":"Майкопська вулиця"},"geometry":{"type":"Point","coordinates":[33.44268,47.98064]}},
{"type":"Feature","id":"109649215","properties":{"josm":"w109649215","name":"Лазурная улица","nameuk":"Лазурна вулиця"},"geometry":{"type":"Point","coordinates":[35.08642,48.54402]}},
{"type":"Feature","id":"109649224","properties":{"josm":"w109649224","name":"Мелітопольська вулиця","nameuk":"Мелітопольска вулиця"},"geometry":{"type":"Point","coordinates":[35.08211,48.5421]}},
{"type":"Feature","id":"109696343","properties":{"josm":"w109696343","name":"Вишневая долина улица","nameuk":"Вишнева долина вулиця"},"geometry":{"type":"Point","coordinates":[35.08682,48.545]}},
{"type":"Feature","id":"110359328","properties":{"josm":"w110359328","name":"улица Игнатенко","nameuk":"Графський проїзд"},"geometry":{"type":"Point","coordinates":[34.17048,44.4968]}},
{"type":"Feature","id":"110639956","properties":{"josm":"w110639956","name":"Ореста Субтельного улица","nameuk":"Ореста Субтельного вулиця"},"geometry":{"type":"Point","coordinates":[30.51305,50.48674]}},
{"type":"Feature","id":"111495707","properties":{"josm":"w111495707","name":"улица Победы","nameuk":"Перемоги вулиця"},"geometry":{"type":"Point","coordinates":[35.94695,49.74011]}},
{"type":"Feature","id":"113555511","properties":{"josm":"w113555511","name":"Морозенка вулиця","nameuk":"Фабрична вулиця"},"geometry":{"type":"Point","coordinates":[25.7559,50.40792]}},
{"type":"Feature","id":"113812430","properties":{"josm":"w113812430","name":"Скіфська вулиця","nameuk":"Скыфська вулиця"},"geometry":{"type":"Point","coordinates":[35.35432,46.8648]}},
{"type":"Feature","id":"115448945","properties":{"josm":"w115448945","name":"Козацької слави вулиця","nameuk":"Октябрьська вулиця"},"geometry":{"type":"Point","coordinates":[34.38243,48.54329]}},
{"type":"Feature","id":"115449359","properties":{"josm":"w115449359","name":"Святковий провулок","nameuk":"Дзержинського провулок"},"geometry":{"type":"Point","coordinates":[34.38062,48.54787]}},
{"type":"Feature","id":"115853377","properties":{"josm":"w115853377","name":"Свято-Ильинская улица","nameuk":"Свято-Іллінська вулиця"},"geometry":{"type":"Point","coordinates":[36.11609,49.8865]}},
{"type":"Feature","id":"116715034","properties":{"josm":"w116715034","name":"Крупской улица","nameuk":"Крупської вулиця"},"geometry":{"type":"Point","coordinates":[37.40326,47.72019]}},
{"type":"Feature","id":"117894084","properties":{"josm":"w117894084","name":"Тиха вулиця","nameuk":"Чапаєва вулиця"},"geometry":{"type":"Point","coordinates":[34.36311,48.56021]}},
{"type":"Feature","id":"117903194","properties":{"josm":"w117903194","name":"Кленовий провулок","nameuk":"Суворова вулиця"},"geometry":{"type":"Point","coordinates":[34.36991,48.55028]}},
{"type":"Feature","id":"118077204","properties":{"josm":"w118077204","name":"Нова вулиця","nameuk":"Гагаріна вулиця"},"geometry":{"type":"Point","coordinates":[35.9455,48.49182]}},
{"type":"Feature","id":"119438320","properties":{"josm":"w119438320","name":"Ясна (Тельмана) вулиця","nameuk":"Тельмана вулиця"},"geometry":{"type":"Point","coordinates":[36.11802,49.9046]}},
{"type":"Feature","id":"120410063","properties":{"josm":"w120410063","name":"Вантажная","nameuk":"Вантажна"},"geometry":{"type":"Point","coordinates":[33.44574,47.87765]}},
{"type":"Feature","id":"120547614","properties":{"josm":"w120547614","name":"переулок Степной","nameuk":"Черняховського провулок"},"geometry":{"type":"Point","coordinates":[36.57243,45.35198]}},
{"type":"Feature","id":"121117051","properties":{"josm":"w121117051","name":"Кам'яна вулиця","nameuk":"Сакко і Ванцетті вулиця; Мурманський провулок"},"geometry":{"type":"Point","coordinates":[33.10396,48.6882]}},
{"type":"Feature","id":"122239240","properties":{"josm":"w122239240","name":"вулиця Квіткова","nameuk":"Квіткова вулиця"},"geometry":{"type":"Point","coordinates":[35.36462,46.37542]}},
{"type":"Feature","id":"122239242","properties":{"josm":"w122239242","name":"вулиця Сонячна","nameuk":"Сонячна вулиця"},"geometry":{"type":"Point","coordinates":[35.36248,46.37582]}},
{"type":"Feature","id":"124197826","properties":{"josm":"w124197826","name":"Мар'ївський провулок","nameuk":"Котовського провулок"},"geometry":{"type":"Point","coordinates":[33.10451,48.68994]}},
{"type":"Feature","id":"126494391","properties":{"josm":"w126494391","name":"Приозерна вулиця","nameuk":"Колгоспна вулиця"},"geometry":{"type":"Point","coordinates":[25.23471,50.73975]}},
{"type":"Feature","id":"126776302","properties":{"josm":"w126776302","name":"Затишна вулиця","nameuk":"Будьонного вулиця"},"geometry":{"type":"Point","coordinates":[30.44948,48.38732]}},
{"type":"Feature","id":"126795076","properties":{"josm":"w126795076","name":"Ринкова вулиця","nameuk":"50 років Жовтня вулиця"},"geometry":{"type":"Point","coordinates":[30.46033,48.38488]}},
{"type":"Feature","id":"126814427","properties":{"josm":"w126814427","name":"Дачная улица","nameuk":"Дачна вулиця"},"geometry":{"type":"Point","coordinates":[35.17132,50.05888]}},
{"type":"Feature","id":"126814431","properties":{"josm":"w126814431","name":"Дачный переулок","nameuk":"Дачний провулок"},"geometry":{"type":"Point","coordinates":[35.17014,50.06091]}},
{"type":"Feature","id":"126825856","properties":{"josm":"w126825856","name":"Заводская улица","nameuk":"Заводська вулиця"},"geometry":{"type":"Point","coordinates":[35.13886,50.05948]}},
{"type":"Feature","id":"126825964","properties":{"josm":"w126825964","name":"Яровая улица","nameuk":"Ярова вулиця"},"geometry":{"type":"Point","coordinates":[35.15482,50.06347]}},
{"type":"Feature","id":"126826008","properties":{"josm":"w126826008","name":"Садовый переулок","nameuk":"Садовий провулок"},"geometry":{"type":"Point","coordinates":[35.16489,50.08061]}},
{"type":"Feature","id":"126998341","properties":{"josm":"w126998341","name":"Пірогова вулиця","nameuk":"Пирогова вулиця"},"geometry":{"type":"Point","coordinates":[30.4728,48.38245]}},
{"type":"Feature","id":"127023719","properties":{"josm":"w127023719","name":"Друга Галатовка вулиця","nameuk":"Коротка вулиця"},"geometry":{"type":"Point","coordinates":[34.32508,48.6511]}},
{"type":"Feature","id":"127023720","properties":{"josm":"w127023720","name":"Сапеляка Владики вулиця","nameuk":"Щорса вулиця"},"geometry":{"type":"Point","coordinates":[34.33404,48.64821]}},
{"type":"Feature","id":"127025642","properties":{"josm":"w127025642","name":"Перша Галатовка вулиця","nameuk":"1-а Галатовка вулиця"},"geometry":{"type":"Point","coordinates":[34.32464,48.65001]}},
{"type":"Feature","id":"127025646","properties":{"josm":"w127025646","name":"Матросова перевулок","nameuk":"Матросова вулиця"},"geometry":{"type":"Point","coordinates":[34.32135,48.65105]}},
{"type":"Feature","id":"127025648","properties":{"josm":"w127025648","name":"Дніпровська вулиця","nameuk":"Крупської вулиця"},"geometry":{"type":"Point","coordinates":[34.32211,48.65072]}},
{"type":"Feature","id":"127029389","properties":{"josm":"w127029389","name":"Лісна вулиця","nameuk":"Лісова вулиця"},"geometry":{"type":"Point","coordinates":[34.31856,48.65183]}},
{"type":"Feature","id":"127029392","properties":{"josm":"w127029392","name":"Лісна вулиця","nameuk":"Лісова вулиця"},"geometry":{"type":"Point","coordinates":[34.31896,48.65281]}},
{"type":"Feature","id":"127029394","properties":{"josm":"w127029394","name":"Львівська вулиця","nameuk":"Морська вулиця"},"geometry":{"type":"Point","coordinates":[34.31745,48.6512]}},
{"type":"Feature","id":"127029395","properties":{"josm":"w127029395","name":"Верхньодніпровська  вулиця","nameuk":"Харківська вулиця"},"geometry":{"type":"Point","coordinates":[34.31755,48.65011]}},
{"type":"Feature","id":"127029399","properties":{"josm":"w127029399","name":"Галатовський провулок","nameuk":"Базарна вулиця"},"geometry":{"type":"Point","coordinates":[34.32656,48.65062]}},
{"type":"Feature","id":"127628449","properties":{"josm":"w127628449","name":"Богдана Хмельницького вулиця","nameuk":"Леніна вулиця"},"geometry":{"type":"Point","coordinates":[34.37441,48.55064]}},
{"type":"Feature","id":"127628645","properties":{"josm":"w127628645","name":"Ново Степова вулиця","nameuk":"Степова вулиця"},"geometry":{"type":"Point","coordinates":[34.37564,48.54783]}},
{"type":"Feature","id":"127632636","properties":{"josm":"w127632636","name":"Яблунева вулиця","nameuk":"Островського вулиця"},"geometry":{"type":"Point","coordinates":[34.36637,48.55798]}},
{"type":"Feature","id":"127670675","properties":{"josm":"w127670675","name":"Горяна вулиця","nameuk":"Горянська вулиця"},"geometry":{"type":"Point","coordinates":[34.31496,48.54109]}},
{"type":"Feature","id":"128505290","properties":{"josm":"w128505290","name":"Юрія Паращука вулиця","nameuk":"Івана Минайленка вулиця"},"geometry":{"type":"Point","coordinates":[36.18228,49.97959]}},
{"type":"Feature","id":"128976367","properties":{"josm":"w128976367","name":"Коцюбинского","nameuk":"Коцюбинського"},"geometry":{"type":"Point","coordinates":[32.73893,46.68151]}},
{"type":"Feature","id":"129253771","properties":{"josm":"w129253771","name":"Щербицкого площадь","nameuk":"Щербицького площа"},"geometry":{"type":"Point","coordinates":[34.33472,48.65432]}},
{"type":"Feature","id":"129253772","properties":{"josm":"w129253772","name":"Щербицкого площадь","nameuk":"Щербицького площа"},"geometry":{"type":"Point","coordinates":[34.33457,48.65417]}},
{"type":"Feature","id":"129367586","properties":{"josm":"w129367586","name":"Козацька вулиця","nameuk":"Жовтнева вулиця"},"geometry":{"type":"Point","coordinates":[36.24213,47.65958]}},
{"type":"Feature","id":"129367597","properties":{"josm":"w129367597","name":"Калинова вулиця","nameuk":"Калініна вулиця"},"geometry":{"type":"Point","coordinates":[36.2231,47.67532]}},
{"type":"Feature","id":"129367598","properties":{"josm":"w129367598","name":"Корфа вулиця","nameuk":"Надії Крупської вулиця"},"geometry":{"type":"Point","coordinates":[36.22758,47.67543]}},
{"type":"Feature","id":"129367603","properties":{"josm":"w129367603","name":"Берегова вулиця","nameuk":"Чапаєва вулиця"},"geometry":{"type":"Point","coordinates":[36.23363,47.68534]}},
{"type":"Feature","id":"129367612","properties":{"josm":"w129367612","name":"Рєпіна Іллі вулиця","nameuk":"Рєпіна вулиця"},"geometry":{"type":"Point","coordinates":[36.24172,47.67483]}},
{"type":"Feature","id":"129367636","properties":{"josm":"w129367636","name":"Оношко Алли вулиця","nameuk":"Алли Оношко вулиця"},"geometry":{"type":"Point","coordinates":[36.21186,47.67712]}},
{"type":"Feature","id":"129367648","properties":{"josm":"w129367648","name":"Пологівський шлях вулиця","nameuk":"Ворошилова вулиця"},"geometry":{"type":"Point","coordinates":[36.25262,47.65856]}},
{"type":"Feature","id":"129367663","properties":{"josm":"w129367663","name":"Українська вулиця","nameuk":"Колгоспна вулиця"},"geometry":{"type":"Point","coordinates":[36.29633,47.64929]}},
{"type":"Feature","id":"129367666","properties":{"josm":"w129367666","name":"Патріотична вулиця","nameuk":"Пархоменка вулиця"},"geometry":{"type":"Point","coordinates":[36.27512,47.6531]}},
{"type":"Feature","id":"129367675","properties":{"josm":"w129367675","name":"Бочанська вулиця","nameuk":"Урицького вулиця"},"geometry":{"type":"Point","coordinates":[36.28146,47.67188]}},
{"type":"Feature","id":"129367677","properties":{"josm":"w129367677","name":"Дружби вулиця","nameuk":"Фрунзе вулиця"},"geometry":{"type":"Point","coordinates":[36.25989,47.65751]}},
{"type":"Feature","id":"129367678","properties":{"josm":"w129367678","name":"Н.Махно вулиця","nameuk":"3-го Інтернаціоналу вулиця"},"geometry":{"type":"Point","coordinates":[36.25602,47.66693]}},
{"type":"Feature","id":"129367679","properties":{"josm":"w129367679","name":"Велика вулиця","nameuk":"9-го Січня вулиця"},"geometry":{"type":"Point","coordinates":[36.25925,47.66886]}},
{"type":"Feature","id":"129367687","properties":{"josm":"w129367687","name":"Медова вулиця","nameuk":"Ларичева вулиця"},"geometry":{"type":"Point","coordinates":[36.24604,47.66011]}},
{"type":"Feature","id":"129367689","properties":{"josm":"w129367689","name":"Весняна вулиця","nameuk":"Кооперативна вулиця"},"geometry":{"type":"Point","coordinates":[36.25898,47.65481]}},
{"type":"Feature","id":"129367709","properties":{"josm":"w129367709","name":"М.Костенка вулиця","nameuk":"Чубаря вулиця"},"geometry":{"type":"Point","coordinates":[36.25773,47.6589]}},
{"type":"Feature","id":"129367710","properties":{"josm":"w129367710","name":"Хмельницького Богдана вулиця","nameuk":"Хмельницького вулиця"},"geometry":{"type":"Point","coordinates":[36.25653,47.65768]}},
{"type":"Feature","id":"129367722","properties":{"josm":"w129367722","name":"Соборна вулиця","nameuk":"Леніна вулиця"},"geometry":{"type":"Point","coordinates":[36.25958,47.66494]}},
{"type":"Feature","id":"129367747","properties":{"josm":"w129367747","name":"Злагоди вулиця","nameuk":"Дзержинського вулиця"},"geometry":{"type":"Point","coordinates":[36.23961,47.6713]}},
{"type":"Feature","id":"129425302","properties":{"josm":"w129425302","name":"Низовый провулок","nameuk":"Низовий провулок"},"geometry":{"type":"Point","coordinates":[36.13779,49.88082]}},
{"type":"Feature","id":"130659531","properties":{"josm":"w130659531","name":"Чапаєва вулиця","nameuk":"Козацька вулиця"},"geometry":{"type":"Point","coordinates":[33.69316,47.66994]}},
{"type":"Feature","id":"130659533","properties":{"josm":"w130659533","name":"Покровська вулиця","nameuk":"Дзержинського вулиця"},"geometry":{"type":"Point","coordinates":[33.70349,47.66748]}},
{"type":"Feature","id":"131606761","properties":{"josm":"w131606761","name":"Юрія Паращука вулиця","nameuk":"Івана Минайленка вулиця"},"geometry":{"type":"Point","coordinates":[36.18464,49.97802]}},
{"type":"Feature","id":"131654327","properties":{"josm":"w131654327","name":"Ігоря Сікорського вулиця","nameuk":"Сікорського вулиця"},"geometry":{"type":"Point","coordinates":[38.41302,48.91841]}},
{"type":"Feature","id":"131860045","properties":{"josm":"w131860045","name":"Соняшникова вулиця","nameuk":"Балашівська вулиця"},"geometry":{"type":"Point","coordinates":[38.36614,48.94954]}},
{"type":"Feature","id":"132610731","properties":{"josm":"w132610731","name":"Соборна вулиця","nameuk":"Леніна вулиця"},"geometry":{"type":"Point","coordinates":[35.28171,47.44308]}},
{"type":"Feature","id":"133293770","properties":{"josm":"w133293770","name":"2-й Ногайський провулок","nameuk":"2-й Цюрупи провулок"},"geometry":{"type":"Point","coordinates":[35.35341,46.86817]}},
{"type":"Feature","id":"133382117","properties":{"josm":"w133382117","name":"Максима Залізняка вулиця","nameuk":"Залізняка вулиця"},"geometry":{"type":"Point","coordinates":[27.00495,49.45475]}},
{"type":"Feature","id":"134690294","properties":{"josm":"w134690294","name":"Соняшникова вулиця","nameuk":"Балашівська вулиця"},"geometry":{"type":"Point","coordinates":[38.36765,48.94872]}},
{"type":"Feature","id":"134702843","properties":{"josm":"w134702843","name":"проспект Святих Кирила та Мефодія","nameuk":"Димитрова проспект"},"geometry":{"type":"Point","coordinates":[32.55967,46.64553]}},
{"type":"Feature","id":"135196195","properties":{"josm":"w135196195","name":"Мостова вулиця","nameuk":"Слизкоухого вулиця"},"geometry":{"type":"Point","coordinates":[34.31372,48.65874]}},
{"type":"Feature","id":"135271027","properties":{"josm":"w135271027","name":"Пилипа Орлика вулиця","nameuk":"Пилипа Орликавулиця"},"geometry":{"type":"Point","coordinates":[32.0189,46.87978]}},
{"type":"Feature","id":"135271047","properties":{"josm":"w135271047","name":"вулиця Приозерна","nameuk":"Приозерна вулиця"},"geometry":{"type":"Point","coordinates":[32.02785,46.87666]}},
{"type":"Feature","id":"135287801","properties":{"josm":"w135287801","name":"Пархоменко улица","nameuk":"Пархоменко вулиця"},"geometry":{"type":"Point","coordinates":[33.12505,48.68213]}},
{"type":"Feature","id":"135295734","properties":{"josm":"w135295734","name":"вул. Юрія Корлюка","nameuk":"Приовражний провулок"},"geometry":{"type":"Point","coordinates":[33.12905,48.69983]}},
{"type":"Feature","id":"135368792","properties":{"josm":"w135368792","name":"Провулок Механізаторів","nameuk":"Механізаторів провулок"},"geometry":{"type":"Point","coordinates":[38.37161,48.62111]}},
{"type":"Feature","id":"135377331","properties":{"josm":"w135377331","name":"Семафорний провулок","nameuk":"Семофорний провулок"},"geometry":{"type":"Point","coordinates":[38.40295,48.63232]}},
{"type":"Feature","id":"135377404","properties":{"josm":"w135377404","name":"Вільховий провулок","nameuk":"Ольховий провулок"},"geometry":{"type":"Point","coordinates":[38.4062,48.63237]}},
{"type":"Feature","id":"135459424","properties":{"josm":"w135459424","name":"Шевченка  вулиця","nameuk":"XVIII З’їзду ВЛКСМ вулиця"},"geometry":{"type":"Point","coordinates":[34.29753,48.64708]}},
{"type":"Feature","id":"135459425","properties":{"josm":"w135459425","name":"Шкільний провулок","nameuk":"Гоголя вулиця"},"geometry":{"type":"Point","coordinates":[34.29189,48.65689]}},
{"type":"Feature","id":"135459437","properties":{"josm":"w135459437","name":"Калинова вулиця","nameuk":"Калініна вулиця"},"geometry":{"type":"Point","coordinates":[34.3008,48.65532]}},
{"type":"Feature","id":"135562180","properties":{"josm":"w135562180","name":"Пушкинская улица","nameuk":"Пушкінська вулиця"},"geometry":{"type":"Point","coordinates":[37.60352,49.72006]}},
{"type":"Feature","id":"135562186","properties":{"josm":"w135562186","name":"Конституції проспект","nameuk":"Конституцї проспккт"},"geometry":{"type":"Point","coordinates":[37.60648,49.7249]}},
{"type":"Feature","id":"135565454","properties":{"josm":"w135565454","name":"Мицкевича переулок","nameuk":"Міцкевича провулок"},"geometry":{"type":"Point","coordinates":[37.59977,49.71286]}},
{"type":"Feature","id":"135726171","properties":{"josm":"w135726171","name":"проспект Азовський","nameuk":"Азовський проспект"},"geometry":{"type":"Point","coordinates":[35.33673,46.36677]}},
{"type":"Feature","id":"135902900","properties":{"josm":"w135902900","name":"Миру  вулиця","nameuk":"Жукова вулиця"},"geometry":{"type":"Point","coordinates":[34.28037,48.64859]}},
{"type":"Feature","id":"135902901","properties":{"josm":"w135902901","name":"Остапа Вишні  вулиця","nameuk":"Остапа Вишні вулиця"},"geometry":{"type":"Point","coordinates":[34.29187,48.6483]}},
{"type":"Feature","id":"135902902","properties":{"josm":"w135902902","name":"І. Франка вулиця","nameuk":"Лермонтова вулиця"},"geometry":{"type":"Point","coordinates":[34.28383,48.64963]}},
{"type":"Feature","id":"135902905","properties":{"josm":"w135902905","name":"В. Листопад вулиця","nameuk":"Нечуя-Левицького вулиця"},"geometry":{"type":"Point","coordinates":[34.28796,48.64997]}},
{"type":"Feature","id":"136161443","properties":{"josm":"w136161443","name":"Давыдовский переулок","nameuk":"Давидовський провулок"},"geometry":{"type":"Point","coordinates":[33.44114,47.97955]}},
{"type":"Feature","id":"136240219","properties":{"josm":"w136240219","name":"Носаль Є. І. вулиця","nameuk":"Носаль вулиця"},"geometry":{"type":"Point","coordinates":[35.29509,47.37318]}},
{"type":"Feature","id":"136431840","properties":{"josm":"w136431840","name":"Суворова вулиця","nameuk":"Суворова улица"},"geometry":{"type":"Point","coordinates":[31.39337,48.98856]}},
{"type":"Feature","id":"137649831","properties":{"josm":"w137649831","name":"Ушакова вулиця","nameuk":"вулиця"},"geometry":{"type":"Point","coordinates":[31.37609,49.00237]}},
{"type":"Feature","id":"138099205","properties":{"josm":"w138099205","name":"Бурковського вулиця","nameuk":"Костюка вулиця"},"geometry":{"type":"Point","coordinates":[27.64529,50.5706]}},
{"type":"Feature","id":"138268585","properties":{"josm":"w138268585","name":"Золочівський шлях вулиця","nameuk":"вулиця Золочівський шлях"},"geometry":{"type":"Point","coordinates":[36.1087,50.11373]}},
{"type":"Feature","id":"140011166","properties":{"josm":"w140011166","name":"Прокоф’єва вулиця","nameuk":"вулиця Прокоф’єва"},"geometry":{"type":"Point","coordinates":[37.52743,47.93439]}},
{"type":"Feature","id":"142456424","properties":{"josm":"w142456424","name":"Переможний провулок","nameuk":"Привокзальна вулиця"},"geometry":{"type":"Point","coordinates":[34.37849,48.55418]}},
{"type":"Feature","id":"142456425","properties":{"josm":"w142456425","name":"Ново Степова вулиця","nameuk":"Степова вулиця"},"geometry":{"type":"Point","coordinates":[34.38265,48.54513]}},
{"type":"Feature","id":"142492646","properties":{"josm":"w142492646","name":"Ковальська вулиця","nameuk":"Ковальская вулиця"},"geometry":{"type":"Point","coordinates":[30.12116,49.79564]}},
{"type":"Feature","id":"142887374","properties":{"josm":"w142887374","name":"Леніна вулиця","nameuk":"Грушевського вулиця"},"geometry":{"type":"Point","coordinates":[33.54031,46.36861]}},
{"type":"Feature","id":"143769863","properties":{"josm":"w143769863","name":"улица Челеби-Джихана","nameuk":"Челебі Джихана вулиця"},"geometry":{"type":"Point","coordinates":[33.62767,45.1429]}},
{"type":"Feature","id":"143769886","properties":{"josm":"w143769886","name":"улица Челеби-Джихана","nameuk":"Челебі Джихана вулиця"},"geometry":{"type":"Point","coordinates":[33.62805,45.1397]}},
{"type":"Feature","id":"144378197","properties":{"josm":"w144378197","name":"Олега Кошевого улица","nameuk":"Олега Кошового вулиця"},"geometry":{"type":"Point","coordinates":[33.5119,47.91929]}},
{"type":"Feature","id":"144715236","properties":{"josm":"w144715236","name":"Центральна вулиця","nameuk":"Радянська вулиця"},"geometry":{"type":"Point","coordinates":[32.01365,49.94229]}},
{"type":"Feature","id":"148112944","properties":{"josm":"w148112944","name":"Щорса вулиця (стор. пос.Дослідної ст.), Степова ввулиця (стор. с.Вигода)","nameuk":"Щорса вулиця"},"geometry":{"type":"Point","coordinates":[30.39234,46.60883]}},
{"type":"Feature","id":"150052780","properties":{"josm":"w150052780","name":"Прижвальського вулиця","nameuk":"Прживальського вулиця"},"geometry":{"type":"Point","coordinates":[34.58245,48.49816]}},
{"type":"Feature","id":"150590079","properties":{"josm":"w150590079","name":"Степана Васильченка вулиця","nameuk":"Васильченка вулиця"},"geometry":{"type":"Point","coordinates":[29.88227,50.08828]}},
{"type":"Feature","id":"152442075","properties":{"josm":"w152442075","name":"Украинская улица","nameuk":"Українська вулиця"},"geometry":{"type":"Point","coordinates":[33.51329,47.92042]}},
{"type":"Feature","id":"153652830","properties":{"josm":"w153652830","name":"Нагірна вулиця","nameuk":"Нагорна вулиця"},"geometry":{"type":"Point","coordinates":[34.87115,48.58758]}},
{"type":"Feature","id":"156597060","properties":{"josm":"w156597060","name":"Лозовеньківський проспект","nameuk":"Окружна дорога"},"geometry":{"type":"Point","coordinates":[36.21159,50.07881]}},
{"type":"Feature","id":"158073060","properties":{"josm":"w158073060","name":"Красна вулиця","nameuk":"Червона вулиця"},"geometry":{"type":"Point","coordinates":[34.24092,48.48096]}},
{"type":"Feature","id":"158361441","properties":{"josm":"w158361441","name":"Ювілейна вулця","nameuk":"Ювілейна вулиця"},"geometry":{"type":"Point","coordinates":[36.39359,49.98839]}},
{"type":"Feature","id":"158668353","properties":{"josm":"w158668353","name":"Спортивна вулиця","nameuk":"Терешкової вулиця"},"geometry":{"type":"Point","coordinates":[34.41477,48.5932]}},
{"type":"Feature","id":"159003481","properties":{"josm":"w159003481","name":"Центральна вулиця","nameuk":"Радянська вулиця"},"geometry":{"type":"Point","coordinates":[34.04211,52.17602]}},
{"type":"Feature","id":"159185132","properties":{"josm":"w159185132","name":"Перший Соборний провулок","nameuk":"Островського провулок"},"geometry":{"type":"Point","coordinates":[34.25,48.48107]}},
{"type":"Feature","id":"159233378","properties":{"josm":"w159233378","name":"С. Ряженцева вулиця","nameuk":"Тельмана вулиця"},"geometry":{"type":"Point","coordinates":[34.23589,48.48915]}},
{"type":"Feature","id":"159233410","properties":{"josm":"w159233410","name":"Перший Кутузова провулок","nameuk":"Кутузова провулок"},"geometry":{"type":"Point","coordinates":[34.22277,48.4781]}},
{"type":"Feature","id":"159757635","properties":{"josm":"w159757635","name":"Леніна вулиця","nameuk":"Центральна вулиця"},"geometry":{"type":"Point","coordinates":[38.98928,48.9594]}},
{"type":"Feature","id":"159757640","properties":{"josm":"w159757640","name":"Солнечная вулиця","nameuk":"Радянська вулиця"},"geometry":{"type":"Point","coordinates":[38.98693,48.96287]}},
{"type":"Feature","id":"159813362","properties":{"josm":"w159813362","name":"Лозовеньківський проспект","nameuk":"Окружна дорога"},"geometry":{"type":"Point","coordinates":[36.26322,50.1021]}},
{"type":"Feature","id":"159813363","properties":{"josm":"w159813363","name":"Лозовеньківський проспект","nameuk":"Окружна дорога"},"geometry":{"type":"Point","coordinates":[36.26582,50.1019]}},
{"type":"Feature","id":"159815292","properties":{"josm":"w159815292","name":"Лозовеньківський проспект","nameuk":"Окружна дорога"},"geometry":{"type":"Point","coordinates":[36.1968,50.064]}},
{"type":"Feature","id":"159815293","properties":{"josm":"w159815293","name":"Лозовеньківський проспект","nameuk":"Окружна дорога"},"geometry":{"type":"Point","coordinates":[36.18376,50.05506]}},
{"type":"Feature","id":"159815294","properties":{"josm":"w159815294","name":"Лозовеньківський проспект","nameuk":"Окружна дорога"},"geometry":{"type":"Point","coordinates":[36.18202,50.05423]}},
{"type":"Feature","id":"160464455","properties":{"josm":"w160464455","name":"Фріца Гленца вулиця","nameuk":"Гленца вулиця"},"geometry":{"type":"Point","coordinates":[22.27507,48.62472]}},
{"type":"Feature","id":"160906937","properties":{"josm":"w160906937","name":"Зазулинского","nameuk":"Зазулинського"},"geometry":{"type":"Point","coordinates":[28.95062,50.10287]}},
{"type":"Feature","id":"162361872","properties":{"josm":"w162361872","name":"Полтавська (Радевича) вулиця","nameuk":"Полтавська вулиця"},"geometry":{"type":"Point","coordinates":[35.09855,49.44263]}},
{"type":"Feature","id":"162361874","properties":{"josm":"w162361874","name":"Полтавська (Радевича) вулиця","nameuk":"Полтавська вулиця"},"geometry":{"type":"Point","coordinates":[35.13742,49.45199]}},
{"type":"Feature","id":"163066256","properties":{"josm":"w163066256","name":"Ковніра вулиця","nameuk":"Ковнира вулиця"},"geometry":{"type":"Point","coordinates":[30.31941,50.20437]}},
{"type":"Feature","id":"163200999","properties":{"josm":"w163200999","name":"вулиця Садова","nameuk":"Садова вулиця"},"geometry":{"type":"Point","coordinates":[36.95385,49.49147]}},
{"type":"Feature","id":"163218466","properties":{"josm":"w163218466","name":"Горная улица","nameuk":"Гірська вулиця"},"geometry":{"type":"Point","coordinates":[31.21201,51.49636]}},
{"type":"Feature","id":"163270423","properties":{"josm":"w163270423","name":"Чехова вулиця","nameuk":"Чєхова вулиця"},"geometry":{"type":"Point","coordinates":[34.53187,49.82097]}},
{"type":"Feature","id":"163591257","properties":{"josm":"w163591257","name":"2-й Козацький провулок","nameuk":"2-й Петровського провулок"},"geometry":{"type":"Point","coordinates":[30.31918,50.18559]}},
{"type":"Feature","id":"164462286","properties":{"josm":"w164462286","name":"Кіреєва вулиця","nameuk":"Киреєва вулиця"},"geometry":{"type":"Point","coordinates":[34.23117,51.19022]}},
{"type":"Feature","id":"166368785","properties":{"josm":"w166368785","name":"Ужгородська вулиця","nameuk":"Н-13"},"geometry":{"type":"Point","coordinates":[22.44403,48.72461]}},
{"type":"Feature","id":"166898225","properties":{"josm":"w166898225","name":"вулиця Українська","nameuk":"вулиця Украинская"},"geometry":{"type":"Point","coordinates":[26.48708,48.5003]}},
{"type":"Feature","id":"166898262","properties":{"josm":"w166898262","name":"вулиця Чужбинського","nameuk":"вулиця Чужбинского"},"geometry":{"type":"Point","coordinates":[26.47344,48.50633]}},
{"type":"Feature","id":"167991159","properties":{"josm":"w167991159","name":"Садова провулок чи вулиця?","nameuk":"Садова провулок"},"geometry":{"type":"Point","coordinates":[33.17754,49.59085]}},
{"type":"Feature","id":"168001319","properties":{"josm":"w168001319","name":"Бєлінського вулиця","nameuk":"Белінського вулиця"},"geometry":{"type":"Point","coordinates":[34.80489,50.9088]}},
{"type":"Feature","id":"168200938","properties":{"josm":"w168200938","name":"Міліонна вулиця","nameuk":"Паризької Комуни вулиця"},"geometry":{"type":"Point","coordinates":[32.67938,49.074]}},
{"type":"Feature","id":"168201046","properties":{"josm":"w168201046","name":"Фундукліївська вулиця","nameuk":"Горького вулиця"},"geometry":{"type":"Point","coordinates":[32.66987,49.06871]}},
{"type":"Feature","id":"168459366","properties":{"josm":"w168459366","name":"Tyktora Street","nameuk":"Вулиця Тиктора"},"geometry":{"type":"Point","coordinates":[24.60898,49.9081]}},
{"type":"Feature","id":"168727056","properties":{"josm":"w168727056","name":"улица Валиуллы Муртазаева","nameuk":"Валіулли Муртазаєва вулиця"},"geometry":{"type":"Point","coordinates":[33.8648,44.73721]}},
{"type":"Feature","id":"168908093","properties":{"josm":"w168908093","name":"Героїв-підпільників вулиця","nameuk":"Ленінської Іскри вулиця"},"geometry":{"type":"Point","coordinates":[37.54655,48.59575]}},
{"type":"Feature","id":"169073631","properties":{"josm":"w169073631","name":"Сонячна вулиця","nameuk":"Сонячна улица"},"geometry":{"type":"Point","coordinates":[35.95961,50.27466]}},
{"type":"Feature","id":"169398903","properties":{"josm":"w169398903","name":"Калинова вулиця","nameuk":"Калініна вулиця"},"geometry":{"type":"Point","coordinates":[34.27899,48.48223]}},
{"type":"Feature","id":"169566576","properties":{"josm":"w169566576","name":"Лип'янська вулиця","nameuk":"Ганни Дмитришиної вулиця"},"geometry":{"type":"Point","coordinates":[26.02729,50.55492]}},
{"type":"Feature","id":"170077919","properties":{"josm":"w170077919","name":"улица Лесная","nameuk":"вулиця Лісова"},"geometry":{"type":"Point","coordinates":[30.44334,50.33415]}},
{"type":"Feature","id":"170640429","properties":{"josm":"w170640429","name":"Ярослава Мудрого","nameuk":"Ярослава Мудрого вулиця"},"geometry":{"type":"Point","coordinates":[25.78121,49.6589]}},
{"type":"Feature","id":"170774660","properties":{"josm":"w170774660","name":"Соборна вулиця","nameuk":"Леніна вулиця"},"geometry":{"type":"Point","coordinates":[36.27265,47.65319]}},
{"type":"Feature","id":"170774663","properties":{"josm":"w170774663","name":"Велика вулиця","nameuk":"9-го Січня вулиця"},"geometry":{"type":"Point","coordinates":[36.29321,47.65415]}},
{"type":"Feature","id":"171264907","properties":{"josm":"w171264907","name":"Приозёрная улица","nameuk":"Приозерна вулиця"},"geometry":{"type":"Point","coordinates":[36.04156,49.97504]}},
{"type":"Feature","id":"171815253","properties":{"josm":"w171815253","name":"Спортивная улица","nameuk":"Спортивна вулиця"},"geometry":{"type":"Point","coordinates":[35.26739,50.76973]}},
{"type":"Feature","id":"171815270","properties":{"josm":"w171815270","name":"Виноградная улица","nameuk":"Виноградна вулиця"},"geometry":{"type":"Point","coordinates":[35.25723,50.7766]}},
{"type":"Feature","id":"171815273","properties":{"josm":"w171815273","name":"Вишнёвая улица","nameuk":"Вишнева вулиця"},"geometry":{"type":"Point","coordinates":[35.26527,50.77579]}},
{"type":"Feature","id":"171815291","properties":{"josm":"w171815291","name":"Мичурина переулок","nameuk":"Мічуріна провулок"},"geometry":{"type":"Point","coordinates":[35.27446,50.76824]}},
{"type":"Feature","id":"171816215","properties":{"josm":"w171816215","name":"Шевченко улица","nameuk":"Шевченка вулиця"},"geometry":{"type":"Point","coordinates":[35.25667,50.7623]}},
{"type":"Feature","id":"171816217","properties":{"josm":"w171816217","name":"Московская улица","nameuk":"Московська вулиця"},"geometry":{"type":"Point","coordinates":[35.26177,50.76566]}},
{"type":"Feature","id":"171823483","properties":{"josm":"w171823483","name":"Гоголя улица","nameuk":"Гоголя вулиця"},"geometry":{"type":"Point","coordinates":[35.2693,50.79601]}},
{"type":"Feature","id":"171823491","properties":{"josm":"w171823491","name":"Луговой переулок","nameuk":"Луговий провулок"},"geometry":{"type":"Point","coordinates":[35.26113,50.7882]}},
{"type":"Feature","id":"172302821","properties":{"josm":"w172302821","name":"Безхлібна (Гребінківська) вулиця","nameuk":"Безхлібна вулиця"},"geometry":{"type":"Point","coordinates":[32.44026,50.10391]}},
{"type":"Feature","id":"174667926","properties":{"josm":"w174667926","name":"Артемовская улица","nameuk":"Артемівська вулиця"},"geometry":{"type":"Point","coordinates":[34.99774,48.54648]}},
{"type":"Feature","id":"174667927","properties":{"josm":"w174667927","name":"Центральная улица","nameuk":"Центральна вулиця"},"geometry":{"type":"Point","coordinates":[35.00596,48.54173]}},
{"type":"Feature","id":"174667930","properties":{"josm":"w174667930","name":"Конечная улица","nameuk":"Кінцева вулиця"},"geometry":{"type":"Point","coordinates":[34.99931,48.54534]}},
{"type":"Feature","id":"174667932","properties":{"josm":"w174667932","name":"Ореховая улица","nameuk":"Орехова вулиця"},"geometry":{"type":"Point","coordinates":[34.99525,48.54153]}},
{"type":"Feature","id":"174667944","properties":{"josm":"w174667944","name":"Лесная улица","nameuk":"Лісова вулиця"},"geometry":{"type":"Point","coordinates":[34.99435,48.54944]}},
{"type":"Feature","id":"174667945","properties":{"josm":"w174667945","name":"Грушевая улица","nameuk":"Грушева вулиця"},"geometry":{"type":"Point","coordinates":[34.99593,48.54744]}},
{"type":"Feature","id":"174667949","properties":{"josm":"w174667949","name":"Центральная улица","nameuk":"Центральна вулиця"},"geometry":{"type":"Point","coordinates":[35.0059,48.54179]}},
{"type":"Feature","id":"174667951","properties":{"josm":"w174667951","name":"Вишневая улица","nameuk":"Вишнева вулиця"},"geometry":{"type":"Point","coordinates":[34.99533,48.54816]}},
{"type":"Feature","id":"174667955","properties":{"josm":"w174667955","name":"Зеленая улица","nameuk":"Зелена вулиця"},"geometry":{"type":"Point","coordinates":[34.99424,48.54857]}},
{"type":"Feature","id":"174667994","properties":{"josm":"w174667994","name":"Волжская улица","nameuk":"Волзька вулиця"},"geometry":{"type":"Point","coordinates":[35.00552,48.54237]}},
{"type":"Feature","id":"174964536","properties":{"josm":"w174964536","name":"Михайла Петренко вулиця","nameuk":"Череватенка вулиця"},"geometry":{"type":"Point","coordinates":[37.1555,48.29622]}},
{"type":"Feature","id":"175083114","properties":{"josm":"w175083114","name":"Рози Люксембург переулок","nameuk":"Рози Люксембург вулиця"},"geometry":{"type":"Point","coordinates":[38.56009,48.85844]}},
{"type":"Feature","id":"175802142","properties":{"josm":"w175802142","name":"Залізнична вулиця","nameuk":"Шота вулиця"},"geometry":{"type":"Point","coordinates":[37.15583,48.28773]}},
{"type":"Feature","id":"175802157","properties":{"josm":"w175802157","name":"Залізнична вулиця","nameuk":"Шота вулиця"},"geometry":{"type":"Point","coordinates":[37.14862,48.2872]}},
{"type":"Feature","id":"179484711","properties":{"josm":"w179484711","name":"Данила Галицького вулиця C091505 Гериня - Болехів","nameuk":"Данила Галицького вулиця"},"geometry":{"type":"Point","coordinates":[23.8536,49.07115]}},
{"type":"Feature","id":"179918769","properties":{"josm":"w179918769","name":"Садова вулиця","nameuk":"Вишнева вулиця"},"geometry":{"type":"Point","coordinates":[38.51072,48.90954]}},
{"type":"Feature","id":"179950530","properties":{"josm":"w179950530","name":"Червоноткацька вулиця","nameuk":"Мурманська вулиця"},"geometry":{"type":"Point","coordinates":[30.64889,50.45988]}},
{"type":"Feature","id":"180746422","properties":{"josm":"w180746422","name":"Черняховского вулиця","nameuk":"Черняховского  вулиця"},"geometry":{"type":"Point","coordinates":[39.3698,48.55142]}},
{"type":"Feature","id":"181264317","properties":{"josm":"w181264317","name":"Ванди Біневськой провулок","nameuk":"Джерельний провулок"},"geometry":{"type":"Point","coordinates":[36.35264,49.97136]}},
{"type":"Feature","id":"181990532","properties":{"josm":"w181990532","name":"Центральна вулиця","nameuk":"Леніна вулиця"},"geometry":{"type":"Point","coordinates":[34.24676,48.48633]}},
{"type":"Feature","id":"181990533","properties":{"josm":"w181990533","name":"Другий Дніпровський провулок","nameuk":"Радянський провулок"},"geometry":{"type":"Point","coordinates":[34.25054,48.48603]}},
{"type":"Feature","id":"182437817","properties":{"josm":"w182437817","name":"Василя Симона вулиця","nameuk":"Горького вулиця"},"geometry":{"type":"Point","coordinates":[34.92215,50.3261]}},
{"type":"Feature","id":"182494602","properties":{"josm":"w182494602","name":"Яблуневий провулок","nameuk":"Ворошилова провулок"},"geometry":{"type":"Point","coordinates":[34.92,50.29817]}},
{"type":"Feature","id":"182694851","properties":{"josm":"w182694851","name":"Вишневая улица","nameuk":"Вишнева вулиця"},"geometry":{"type":"Point","coordinates":[35.07745,48.60259]}},
{"type":"Feature","id":"182694891","properties":{"josm":"w182694891","name":"Огородная улица","nameuk":"Огородна вулиця"},"geometry":{"type":"Point","coordinates":[35.07564,48.60184]}},
{"type":"Feature","id":"183125914","properties":{"josm":"w183125914","name":"Грушевського вулиця","nameuk":"Вишнева вулиця"},"geometry":{"type":"Point","coordinates":[25.99277,51.30871]}},
{"type":"Feature","id":"184190875","properties":{"josm":"w184190875","name":"вулиця Фрідріха Енгельса","nameuk":"Фрідріха Енгельса вулиця"},"geometry":{"type":"Point","coordinates":[37.78177,48.38535]}},
{"type":"Feature","id":"184306707","properties":{"josm":"w184306707","name":"2-й Удайский переулок","nameuk":"2-й Ударний провулок"},"geometry":{"type":"Point","coordinates":[32.42243,50.59173]}},
{"type":"Feature","id":"185704730","properties":{"josm":"w185704730","name":"вулиця Кірова","nameuk":"Кірова вулиця"},"geometry":{"type":"Point","coordinates":[37.77964,48.39805]}},
{"type":"Feature","id":"185704739","properties":{"josm":"w185704739","name":"вулиця Леніна","nameuk":"Леніна вулиця"},"geometry":{"type":"Point","coordinates":[37.77869,48.39893]}},
{"type":"Feature","id":"185704742","properties":{"josm":"w185704742","name":"вулиця Клименка","nameuk":"Клименко вулиця"},"geometry":{"type":"Point","coordinates":[37.79917,48.37144]}},
{"type":"Feature","id":"185704746","properties":{"josm":"w185704746","name":"вулиця Миру","nameuk":"Миру вулиця"},"geometry":{"type":"Point","coordinates":[37.77606,48.39748]}},
{"type":"Feature","id":"186657835","properties":{"josm":"w186657835","name":"Харьковская улица","nameuk":"Харківська вулиця"},"geometry":{"type":"Point","coordinates":[35.31543,50.0421]}},
{"type":"Feature","id":"186724962","properties":{"josm":"w186724962","name":"Набережная улица","nameuk":"Набережна вулиця"},"geometry":{"type":"Point","coordinates":[36.40827,49.80359]}},
{"type":"Feature","id":"186785546","properties":{"josm":"w186785546","name":"Вишнёвая улица","nameuk":"Вишнева вулиця"},"geometry":{"type":"Point","coordinates":[35.06766,50.0982]}},
{"type":"Feature","id":"186868471","properties":{"josm":"w186868471","name":"Хорив переулок","nameuk":"Хорiв провулок"},"geometry":{"type":"Point","coordinates":[35.03541,47.89072]}},
{"type":"Feature","id":"187676811","properties":{"josm":"w187676811","name":"вулиця Ярослава Мудрого","nameuk":"Ярослава Мудрого вулиця"},"geometry":{"type":"Point","coordinates":[30.82809,49.86602]}},
{"type":"Feature","id":"187837752","properties":{"josm":"w187837752","name":"провулок Феодосія Камінського","nameuk":"Феодосія Камінського провулок"},"geometry":{"type":"Point","coordinates":[32.01585,46.85223]}},
{"type":"Feature","id":"188135700","properties":{"josm":"w188135700","name":"Волинська вулиця","nameuk":"Волинськаька вулиця"},"geometry":{"type":"Point","coordinates":[24.15297,50.71968]}},
{"type":"Feature","id":"190136595","properties":{"josm":"w190136595","name":"Зелёная улица","nameuk":"Зелена вулиця"},"geometry":{"type":"Point","coordinates":[33.72595,47.5499]}},
{"type":"Feature","id":"191085576","properties":{"josm":"w191085576","name":"Центральна вулиця","nameuk":"Центральнаа вулиця"},"geometry":{"type":"Point","coordinates":[32.01667,49.92818]}},
{"type":"Feature","id":"191388692","properties":{"josm":"w191388692","name":"провулок Марии Рыбальченко","nameuk":"провулок Марії Рибальченко"},"geometry":{"type":"Point","coordinates":[32.00744,46.84577]}},
{"type":"Feature","id":"191560037","properties":{"josm":"w191560037","name":"Вознесенская улица","nameuk":"Вознесенська вулиця"},"geometry":{"type":"Point","coordinates":[35.75683,46.83415]}},
{"type":"Feature","id":"191903789","properties":{"josm":"w191903789","name":"Казацкая улица","nameuk":"Козацька вулиця"},"geometry":{"type":"Point","coordinates":[30.06618,46.84475]}},
{"type":"Feature","id":"192486384","properties":{"josm":"w192486384","name":"Садовая улица","nameuk":"Садова вулиця"},"geometry":{"type":"Point","coordinates":[35.16215,50.0744]}},
{"type":"Feature","id":"193152518","properties":{"josm":"w193152518","name":"вулиця Чернівецька","nameuk":"вулиця Черновицкая"},"geometry":{"type":"Point","coordinates":[26.48016,48.49575]}},
{"type":"Feature","id":"197524354","properties":{"josm":"w197524354","name":"Партизанська вулиця","nameuk":"Паотизанська вулиця"},"geometry":{"type":"Point","coordinates":[35.7416,47.14884]}},
{"type":"Feature","id":"197842111","properties":{"josm":"w197842111","name":"Каразинский переулок","nameuk":"Каразінський провулок"},"geometry":{"type":"Point","coordinates":[35.15899,50.08413]}},
{"type":"Feature","id":"198189137","properties":{"josm":"w198189137","name":"Річковий провулок","nameuk":"Річкоий провулок"},"geometry":{"type":"Point","coordinates":[38.36889,48.63769]}},
{"type":"Feature","id":"199542790","properties":{"josm":"w199542790","name":"Героїв України вулиця","nameuk":"Ворошилова вулиця"},"geometry":{"type":"Point","coordinates":[36.25341,47.65233]}},
{"type":"Feature","id":"199542796","properties":{"josm":"w199542796","name":"Франка Івана вулиця","nameuk":"Франка вулиця"},"geometry":{"type":"Point","coordinates":[36.24777,47.66916]}},
{"type":"Feature","id":"201427896","properties":{"josm":"w201427896","name":"Улица Зигмунда Квасневського","nameuk":"вулиця Зигмунда Квасьнєвського"},"geometry":{"type":"Point","coordinates":[26.9011,49.41428]}},
{"type":"Feature","id":"201437356","properties":{"josm":"w201437356","name":"улица Мира","nameuk":"вулиця Миру"},"geometry":{"type":"Point","coordinates":[26.90464,49.41392]}},
{"type":"Feature","id":"202566699","properties":{"josm":"w202566699","name":"Юбилейная улица","nameuk":"Ювілейна вулиця"},"geometry":{"type":"Point","coordinates":[35.13134,50.07163]}},
{"type":"Feature","id":"202614969","properties":{"josm":"w202614969","name":"333-ї Дивізії вулиця","nameuk":"333-ї дивізії вулиця"},"geometry":{"type":"Point","coordinates":[35.50627,48.33054]}},
{"type":"Feature","id":"202938490","properties":{"josm":"w202938490","name":"Об’їздна вулиця","nameuk":"Об’їзна вулиця"},"geometry":{"type":"Point","coordinates":[33.72367,46.99864]}},
{"type":"Feature","id":"205033450","properties":{"josm":"w205033450","name":"Грушевского вулиця","nameuk":"Грушевського вулиця"},"geometry":{"type":"Point","coordinates":[32.46614,52.03539]}},
{"type":"Feature","id":"205945702","properties":{"josm":"w205945702","name":"Юрьевская улица","nameuk":"Юр'ївська вулиця"},"geometry":{"type":"Point","coordinates":[35.07184,50.09531]}},
{"type":"Feature","id":"205955545","properties":{"josm":"w205955545","name":"улица Маламута Муссы","nameuk":"Маламута Мусси вулиця"},"geometry":{"type":"Point","coordinates":[35.19483,45.18246]}},
{"type":"Feature","id":"205960358","properties":{"josm":"w205960358","name":"вул. Чарівна (Чапаєва)","nameuk":"Чапаєва вулиця"},"geometry":{"type":"Point","coordinates":[34.91332,47.00758]}},
{"type":"Feature","id":"205977007","properties":{"josm":"w205977007","name":"Почтовая улица","nameuk":"Поштова вулиця"},"geometry":{"type":"Point","coordinates":[35.7614,46.82989]}},
{"type":"Feature","id":"206663187","properties":{"josm":"w206663187","name":"Светлый переулок","nameuk":"Бузкова вулиця"},"geometry":{"type":"Point","coordinates":[33.34098,45.21787]}},
{"type":"Feature","id":"208488516","properties":{"josm":"w208488516","name":"Центральная улица","nameuk":"Центральна вулиця"},"geometry":{"type":"Point","coordinates":[34.55975,46.59325]}},
{"type":"Feature","id":"208488545","properties":{"josm":"w208488545","name":"Мира улица","nameuk":"Миру вулиця"},"geometry":{"type":"Point","coordinates":[34.56218,46.59667]}},
{"type":"Feature","id":"208488584","properties":{"josm":"w208488584","name":"Мира улица","nameuk":"Миру вулиця"},"geometry":{"type":"Point","coordinates":[34.56153,46.59733]}},
{"type":"Feature","id":"208911797","properties":{"josm":"w208911797","name":"Героев Обороны улица","nameuk":"Героїв Оборони вулиця"},"geometry":{"type":"Point","coordinates":[35.12575,50.81558]}},
{"type":"Feature","id":"213434074","properties":{"josm":"w213434074","name":"Спортивна вулиця","nameuk":"Дніпровська вулиця"},"geometry":{"type":"Point","coordinates":[36.07823,48.5267]}},
{"type":"Feature","id":"214776430","properties":{"josm":"w214776430","name":"Хасановский переулок","nameuk":"Хасанівський провулок"},"geometry":{"type":"Point","coordinates":[34.35275,47.56593]}},
{"type":"Feature","id":"220260634","properties":{"josm":"w220260634","name":"Виноградна вулиця","nameuk":"Виноградка вулиця"},"geometry":{"type":"Point","coordinates":[34.80556,46.17865]}},
{"type":"Feature","id":"221584447","properties":{"josm":"w221584447","name":"Рейдовий провулок","nameuk":"Рейдовий переулок"},"geometry":{"type":"Point","coordinates":[30.67469,46.33891]}},
{"type":"Feature","id":"222880773","properties":{"josm":"w222880773","name":"Данила Галицького вулиця C091505 Гериня - Болехів","nameuk":"Данила Галицького вулиця"},"geometry":{"type":"Point","coordinates":[23.86605,49.06019]}},
{"type":"Feature","id":"222880774","properties":{"josm":"w222880774","name":"Данила Галицького вулиця C091505 Гериня - Болехів","nameuk":"Данила Галицького вулиця"},"geometry":{"type":"Point","coordinates":[23.85795,49.0677]}},
{"type":"Feature","id":"223216626","properties":{"josm":"w223216626","name":"улица Мусы Мамута","nameuk":"Муси Мамута вулиця"},"geometry":{"type":"Point","coordinates":[33.99424,44.79057]}},
{"type":"Feature","id":"223338097","properties":{"josm":"w223338097","name":"Новая улица","nameuk":"Нова вулиця"},"geometry":{"type":"Point","coordinates":[30.28116,46.53728]}},
{"type":"Feature","id":"223346705","properties":{"josm":"w223346705","name":"улица Мусы Мамута","nameuk":"Муси Мамута вулиця"},"geometry":{"type":"Point","coordinates":[33.99439,44.79006]}},
{"type":"Feature","id":"223804990","properties":{"josm":"w223804990","name":"Островського вулиця","nameuk":"Радісна вулиця"},"geometry":{"type":"Point","coordinates":[30.43231,46.25609]}},
{"type":"Feature","id":"224210906","properties":{"josm":"w224210906","name":"Лесной переулок","nameuk":"Лісовий провулок"},"geometry":{"type":"Point","coordinates":[30.83743,46.5608]}},
{"type":"Feature","id":"224655134","properties":{"josm":"w224655134","name":"Миру вулиця","nameuk":"Кірова вулиця"},"geometry":{"type":"Point","coordinates":[30.26949,46.41729]}},
{"type":"Feature","id":"224655155","properties":{"josm":"w224655155","name":"Гончарна вулиця","nameuk":"40 років Жовтня вулиця"},"geometry":{"type":"Point","coordinates":[30.26881,46.42695]}},
{"type":"Feature","id":"224657591","properties":{"josm":"w224657591","name":"Тиха вулиця","nameuk":"Карла Маркса вулиця"},"geometry":{"type":"Point","coordinates":[30.28306,46.41057]}},
{"type":"Feature","id":"224657592","properties":{"josm":"w224657592","name":"Черноморська вулиця","nameuk":"Котовського вулиця"},"geometry":{"type":"Point","coordinates":[30.27814,46.41427]}},
{"type":"Feature","id":"224657593","properties":{"josm":"w224657593","name":"Астрономічна вулиця","nameuk":"Леніна вулиця"},"geometry":{"type":"Point","coordinates":[30.27082,46.40409]}},
{"type":"Feature","id":"224657595","properties":{"josm":"w224657595","name":"Преображенська вулиця","nameuk":"Радянської Армії вулиця"},"geometry":{"type":"Point","coordinates":[30.27554,46.41551]}},
{"type":"Feature","id":"224657599","properties":{"josm":"w224657599","name":"Успенська вулиця","nameuk":"Щорса вулиця"},"geometry":{"type":"Point","coordinates":[30.2782,46.4096]}},
{"type":"Feature","id":"224747271","properties":{"josm":"w224747271","name":"улица Симиренко","nameuk":"Симеренка вулиця"},"geometry":{"type":"Point","coordinates":[34.86838,45.27785]}},
{"type":"Feature","id":"225921782","properties":{"josm":"w225921782","name":"Радостная улица","nameuk":"Радісна вулиця"},"geometry":{"type":"Point","coordinates":[30.60809,46.39862]}},
{"type":"Feature","id":"225931419","properties":{"josm":"w225931419","name":"улица Шевченко","nameuk":"Шевченка вулиця"},"geometry":{"type":"Point","coordinates":[33.99461,44.78689]}},
{"type":"Feature","id":"226519002","properties":{"josm":"w226519002","name":"Одесская улица","nameuk":"Одеська вулиця"},"geometry":{"type":"Point","coordinates":[30.64497,46.28528]}},
{"type":"Feature","id":"226717393","properties":{"josm":"w226717393","name":"Виноградная улица","nameuk":"Виноградна вулиця"},"geometry":{"type":"Point","coordinates":[30.69924,46.37718]}},
{"type":"Feature","id":"227760718","properties":{"josm":"w227760718","name":"Центральная улица","nameuk":"Центральна вулиця"},"geometry":{"type":"Point","coordinates":[31.00304,46.6435]}},
{"type":"Feature","id":"228973071","properties":{"josm":"w228973071","name":"Шевченка вулиця","nameuk":"Шевченко вулиця"},"geometry":{"type":"Point","coordinates":[31.02263,50.75112]}},
{"type":"Feature","id":"229119773","properties":{"josm":"w229119773","name":"Г. Сковороди вулиця","nameuk":"Комсомольська вулиця"},"geometry":{"type":"Point","coordinates":[34.28148,48.48092]}},
{"type":"Feature","id":"230102083","properties":{"josm":"w230102083","name":"улица Николаева","nameuk":"Фрунзе вулиця"},"geometry":{"type":"Point","coordinates":[33.97594,44.81918]}},
{"type":"Feature","id":"230172835","properties":{"josm":"w230172835","name":"Саксаганського (Пролетарська) вулиця","nameuk":"Пролетарська вулиця"},"geometry":{"type":"Point","coordinates":[32.52625,50.22329]}},
{"type":"Feature","id":"230593948","properties":{"josm":"w230593948","name":"Килийская улица","nameuk":"Кілійська вулиця"},"geometry":{"type":"Point","coordinates":[30.70156,46.37416]}},
{"type":"Feature","id":"230804362","properties":{"josm":"w230804362","name":"Рудничный проезд","nameuk":"Рудничний проїзд"},"geometry":{"type":"Point","coordinates":[33.58611,44.51302]}},
{"type":"Feature","id":"231093804","properties":{"josm":"w231093804","name":"Троянд провулок","nameuk":"2-й Вишневий провулок"},"geometry":{"type":"Point","coordinates":[33.27919,48.04376]}},
{"type":"Feature","id":"231180106","properties":{"josm":"w231180106","name":"Новая улица","nameuk":"Нова вулиця"},"geometry":{"type":"Point","coordinates":[32.11004,46.62048]}},
{"type":"Feature","id":"235090030","properties":{"josm":"w235090030","name":"Парковая улица","nameuk":"Паркова вулиця"},"geometry":{"type":"Point","coordinates":[30.25892,46.52538]}},
{"type":"Feature","id":"235989227","properties":{"josm":"w235989227","name":"Садовая улица","nameuk":"Садова вулиця"},"geometry":{"type":"Point","coordinates":[29.99272,46.59562]}},
{"type":"Feature","id":"235989229","properties":{"josm":"w235989229","name":"Хуторская улица","nameuk":"Хутірська вулиця"},"geometry":{"type":"Point","coordinates":[29.99965,46.61028]}},
{"type":"Feature","id":"235989237","properties":{"josm":"w235989237","name":"Степовая улица","nameuk":"Степова вулиця"},"geometry":{"type":"Point","coordinates":[30.0058,46.59045]}},
{"type":"Feature","id":"235989241","properties":{"josm":"w235989241","name":"Садовая улица","nameuk":"Садова вулиця"},"geometry":{"type":"Point","coordinates":[29.99436,46.58405]}},
{"type":"Feature","id":"235989253","properties":{"josm":"w235989253","name":"Победы улица","nameuk":"Перемоги вулиця"},"geometry":{"type":"Point","coordinates":[29.98366,46.60619]}},
{"type":"Feature","id":"235989254","properties":{"josm":"w235989254","name":"Хуторская улица","nameuk":"Хутірська вулиця"},"geometry":{"type":"Point","coordinates":[29.99922,46.60933]}},
{"type":"Feature","id":"236838813","properties":{"josm":"w236838813","name":"Незалежності провулок","nameuk":"Незалежності  провулок"},"geometry":{"type":"Point","coordinates":[28.4379,50.59623]}},
{"type":"Feature","id":"237069766","properties":{"josm":"w237069766","name":"Вербовая улица","nameuk":"Вербова вулиця"},"geometry":{"type":"Point","coordinates":[30.51442,50.48417]}},
{"type":"Feature","id":"237669994","properties":{"josm":"w237669994","name":"Бойківська вулиця","nameuk":"Бойківська  вулиця"},"geometry":{"type":"Point","coordinates":[33.78325,47.1922]}},
{"type":"Feature","id":"237670166","properties":{"josm":"w237670166","name":"Івана Франка вулиця","nameuk":"Комсомольська вулиця"},"geometry":{"type":"Point","coordinates":[33.77514,47.19497]}},
{"type":"Feature","id":"237715794","properties":{"josm":"w237715794","name":"Тараса Бульбы улица","nameuk":"Тараса Бульби вулиця"},"geometry":{"type":"Point","coordinates":[33.64358,49.95836]}},
{"type":"Feature","id":"238295194","properties":{"josm":"w238295194","name":"улица Комова","nameuk":"Комова вулиця"},"geometry":{"type":"Point","coordinates":[38.20261,47.92388]}},
{"type":"Feature","id":"238498877","properties":{"josm":"w238498877","name":"Лермонтова вулиця","nameuk":"Некрасова вулиця"},"geometry":{"type":"Point","coordinates":[26.97718,49.65622]}},
{"type":"Feature","id":"239162603","properties":{"josm":"w239162603","name":"вулиця Саркісова","nameuk":"Курганський провулок"},"geometry":{"type":"Point","coordinates":[37.59868,48.7653]}},
{"type":"Feature","id":"241071665","properties":{"josm":"w241071665","name":"Космонавта Попова бульвар","nameuk":"Попова площа"},"geometry":{"type":"Point","coordinates":[33.11711,48.6634]}},
{"type":"Feature","id":"241532648","properties":{"josm":"w241532648","name":"Лухтовская улица","nameuk":"Лухтівська вулиця"},"geometry":{"type":"Point","coordinates":[33.87499,51.23832]}},
{"type":"Feature","id":"241720836","properties":{"josm":"w241720836","name":"Вишнёвая улица","nameuk":"Вишнева вулиця"},"geometry":{"type":"Point","coordinates":[33.62114,44.8996]}},
{"type":"Feature","id":"242249683","properties":{"josm":"w242249683","name":"Ломоносова улица","nameuk":"Ломоносова вулиця"},"geometry":{"type":"Point","coordinates":[35.16325,50.34179]}},
{"type":"Feature","id":"242337057","properties":{"josm":"w242337057","name":"Шкільна вулиця","nameuk":"Чкалова вулиця"},"geometry":{"type":"Point","coordinates":[39.45048,48.67179]}},
{"type":"Feature","id":"242526395","properties":{"josm":"w242526395","name":"Нікольска вулиця","nameuk":"Чапаєва вулиця"},"geometry":{"type":"Point","coordinates":[34.04549,52.1905]}},
{"type":"Feature","id":"242940229","properties":{"josm":"w242940229","name":"Слесарная улица","nameuk":"Кузнечна вулиця"},"geometry":{"type":"Point","coordinates":[33.53346,44.59177]}},
{"type":"Feature","id":"243030032","properties":{"josm":"w243030032","name":"Улица Куйбышева","nameuk":"Чапаєва вулиця (вулиця Куйбышева)"},"geometry":{"type":"Point","coordinates":[34.34707,46.81979]}},
{"type":"Feature","id":"243050652","properties":{"josm":"w243050652","name":"Пушкина улица","nameuk":"Пушкіна вулиця"},"geometry":{"type":"Point","coordinates":[34.38714,46.82814]}},
{"type":"Feature","id":"243051087","properties":{"josm":"w243051087","name":"Калинина улица","nameuk":"Калініна вулиця"},"geometry":{"type":"Point","coordinates":[34.38245,46.83934]}},
{"type":"Feature","id":"246173085","properties":{"josm":"w246173085","name":"Нестора Махно вулиця","nameuk":"Щорса вулиця"},"geometry":{"type":"Point","coordinates":[34.2158,48.48298]}},
{"type":"Feature","id":"246867425","properties":{"josm":"w246867425","name":"улица Водохранилище","nameuk":"Водосховище вулиця"},"geometry":{"type":"Point","coordinates":[35.12107,45.0414]}},
{"type":"Feature","id":"247192215","properties":{"josm":"w247192215","name":"Макарова провулок","nameuk":"Комунальний провулок"},"geometry":{"type":"Point","coordinates":[25.35342,50.775]}},
{"type":"Feature","id":"247332301","properties":{"josm":"w247332301","name":"Другий Соборний провулок","nameuk":"Островського провулок"},"geometry":{"type":"Point","coordinates":[34.2513,48.48079]}},
{"type":"Feature","id":"248333791","properties":{"josm":"w248333791","name":"Центральна вулиця","nameuk":"Леніна вулиця"},"geometry":{"type":"Point","coordinates":[32.53763,48.54474]}},
{"type":"Feature","id":"249018162","properties":{"josm":"w249018162","name":"Івана Виговського вулиця","nameuk":"Карла Маркса вулиця"},"geometry":{"type":"Point","coordinates":[26.57877,49.17589]}},
{"type":"Feature","id":"250080828","properties":{"josm":"w250080828","name":"Школьный переулок","nameuk":"Шкільний провулок"},"geometry":{"type":"Point","coordinates":[36.21618,48.55874]}},
{"type":"Feature","id":"250527536","properties":{"josm":"w250527536","name":"Тиха  вулиця","nameuk":"Центральна вулиця"},"geometry":{"type":"Point","coordinates":[34.01819,48.79832]}},
{"type":"Feature","id":"251255495","properties":{"josm":"w251255495","name":"Зелёная улица","nameuk":"Зелена вулиця"},"geometry":{"type":"Point","coordinates":[33.3093,51.7711]}},
{"type":"Feature","id":"253892615","properties":{"josm":"w253892615","name":"Садовая улица","nameuk":"Садова вулиця"},"geometry":{"type":"Point","coordinates":[35.31486,50.03693]}},
{"type":"Feature","id":"254343015","properties":{"josm":"w254343015","name":"улица Лесная","nameuk":"вулиця Лісова"},"geometry":{"type":"Point","coordinates":[30.44195,50.33347]}},
{"type":"Feature","id":"258465524","properties":{"josm":"w258465524","name":"Південна вулиця","nameuk":"Южна вулиця"},"geometry":{"type":"Point","coordinates":[33.86438,48.04041]}},
{"type":"Feature","id":"258465525","properties":{"josm":"w258465525","name":"Південна вулиця","nameuk":"Южна вулиця"},"geometry":{"type":"Point","coordinates":[33.87091,48.03985]}},
{"type":"Feature","id":"258560629","properties":{"josm":"w258560629","name":"Ринкова вулиця","nameuk":"50 років Жовтня вулиця"},"geometry":{"type":"Point","coordinates":[30.45774,48.38591]}},
{"type":"Feature","id":"262030418","properties":{"josm":"w262030418","name":"Центральна вулиця","nameuk":"Леніна вулиця"},"geometry":{"type":"Point","coordinates":[32.52971,48.54481]}},
{"type":"Feature","id":"262721205","properties":{"josm":"w262721205","name":"Чайкиної вулиця","nameuk":"Чайкіної вулиця"},"geometry":{"type":"Point","coordinates":[37.52005,47.5843]}},
{"type":"Feature","id":"264767902","properties":{"josm":"w264767902","name":"Пушкина улица","nameuk":"Пушкіна вулиця"},"geometry":{"type":"Point","coordinates":[33.49222,46.7377]}},
{"type":"Feature","id":"265039805","properties":{"josm":"w265039805","name":"Святомиколаївська вулиця","nameuk":"Святомиколаївськаа вулиця"},"geometry":{"type":"Point","coordinates":[33.46003,51.84882]}},
{"type":"Feature","id":"265091648","properties":{"josm":"w265091648","name":"Крайний переулок","nameuk":"Крайня вулиця"},"geometry":{"type":"Point","coordinates":[34.95539,45.18745]}},
{"type":"Feature","id":"265974173","properties":{"josm":"w265974173","name":"8-а Лінія вулиця","nameuk":"8-а лінія вулиця"},"geometry":{"type":"Point","coordinates":[29.91719,50.56548]}},
{"type":"Feature","id":"266497136","properties":{"josm":"w266497136","name":"Лугова вулиця","nameuk":"Червоноармійська вулиця"},"geometry":{"type":"Point","coordinates":[36.24558,47.67164]}},
{"type":"Feature","id":"266705833","properties":{"josm":"w266705833","name":"Короленко вулиця","nameuk":"Короленка вулиця"},"geometry":{"type":"Point","coordinates":[34.53535,49.83016]}},
{"type":"Feature","id":"267064327","properties":{"josm":"w267064327","name":"5-й Кавказький проїзд","nameuk":"Ранкова вулиця"},"geometry":{"type":"Point","coordinates":[26.99478,49.38967]}},
{"type":"Feature","id":"268081418","properties":{"josm":"w268081418","name":"Улица Дружбы","nameuk":"Дружби вулиця"},"geometry":{"type":"Point","coordinates":[34.59679,45.14018]}},
{"type":"Feature","id":"270322915","properties":{"josm":"w270322915","name":"Островского улица","nameuk":"Островського вулиця"},"geometry":{"type":"Point","coordinates":[35.21293,50.35146]}},
{"type":"Feature","id":"271546835","properties":{"josm":"w271546835","name":"Провулок Міус","nameuk":"провулок Міус"},"geometry":{"type":"Point","coordinates":[39.00323,48.95995]}},
{"type":"Feature","id":"272266082","properties":{"josm":"w272266082","name":"переулок 23 Мая 1919 Года","nameuk":"23 Травня 1919 Року провулок"},"geometry":{"type":"Point","coordinates":[36.4696,45.35379]}},
{"type":"Feature","id":"273302870","properties":{"josm":"w273302870","name":"Новоуманська вулиця","nameuk":"Карла Маркса вулиця"},"geometry":{"type":"Point","coordinates":[30.23749,48.75471]}},
{"type":"Feature","id":"274662290","properties":{"josm":"w274662290","name":"Січових Стрільців вулиця","nameuk":"Січових стрільців вулиця"},"geometry":{"type":"Point","coordinates":[30.13329,49.77477]}},
{"type":"Feature","id":"276815260","properties":{"josm":"w276815260","name":"М. Немолота вулиця","nameuk":"М.Немолота вулиця"},"geometry":{"type":"Point","coordinates":[33.22701,51.22548]}},
{"type":"Feature","id":"280290326","properties":{"josm":"w280290326","name":"Спортивний провулок","nameuk":"Сортивний провулок"},"geometry":{"type":"Point","coordinates":[31.24081,47.35453]}},
{"type":"Feature","id":"281390337","properties":{"josm":"w281390337","name":"Інститутська провулок","nameuk":"Інститутський провулок"},"geometry":{"type":"Point","coordinates":[30.09328,49.78527]}},
{"type":"Feature","id":"282579005","properties":{"josm":"w282579005","name":"Тухачевського (Іподромна) вулиця","nameuk":"Тухачевського (Ипподромная) вулиця"},"geometry":{"type":"Point","coordinates":[35.12062,49.46842]}},
{"type":"Feature","id":"282579011","properties":{"josm":"w282579011","name":"Калініна (Дробця) вулиця","nameuk":"Калініна вулиця"},"geometry":{"type":"Point","coordinates":[35.12538,49.46093]}},
{"type":"Feature","id":"282667848","properties":{"josm":"w282667848","name":"Студентський провулок","nameuk":"Студентська провулок"},"geometry":{"type":"Point","coordinates":[30.09316,49.78698]}},
{"type":"Feature","id":"283311754","properties":{"josm":"w283311754","name":"Інститутський провулок","nameuk":"Інститутська вулиця"},"geometry":{"type":"Point","coordinates":[30.09205,49.78417]}},
{"type":"Feature","id":"283311756","properties":{"josm":"w283311756","name":"Студентська провулок","nameuk":"Студентський провулок"},"geometry":{"type":"Point","coordinates":[30.09276,49.78689]}},
{"type":"Feature","id":"284266507","properties":{"josm":"w284266507","name":"Шаумяна вулиця","nameuk":"Шаумяна"},"geometry":{"type":"Point","coordinates":[30.1057,49.79589]}},
{"type":"Feature","id":"288581554","properties":{"josm":"w288581554","name":"Садовая улица","nameuk":"Садова вулиця"},"geometry":{"type":"Point","coordinates":[29.9936,46.59384]}},
{"type":"Feature","id":"289229788","properties":{"josm":"w289229788","name":"Новоселівська вулиця","nameuk":"Щорса вулиця"},"geometry":{"type":"Point","coordinates":[32.64327,50.07593]}},
{"type":"Feature","id":"290359480","properties":{"josm":"w290359480","name":"Петропавловский провулок","nameuk":"Леніна провулок"},"geometry":{"type":"Point","coordinates":[37.78017,49.00161]}},
{"type":"Feature","id":"293912067","properties":{"josm":"w293912067","name":"улица Зелёная","nameuk":"Зелений провулок"},"geometry":{"type":"Point","coordinates":[36.45284,45.35428]}},
{"type":"Feature","id":"301242063","properties":{"josm":"w301242063","name":"Максименко провулок","nameuk":"Комсомольський провулок"},"geometry":{"type":"Point","coordinates":[35.14077,49.45904]}},
{"type":"Feature","id":"302895063","properties":{"josm":"w302895063","name":"Советская улица","nameuk":"Радянська вулиця"},"geometry":{"type":"Point","coordinates":[29.27366,47.88552]}},
{"type":"Feature","id":"304386665","properties":{"josm":"w304386665","name":"Молодежная улица","nameuk":"Молодіжна вулиця"},"geometry":{"type":"Point","coordinates":[38.07073,47.67642]}},
{"type":"Feature","id":"304386676","properties":{"josm":"w304386676","name":"Молодежная улица","nameuk":"Молодіжна вулиця"},"geometry":{"type":"Point","coordinates":[38.07138,47.67776]}},
{"type":"Feature","id":"306281266","properties":{"josm":"w306281266","name":"Максименко провулок","nameuk":"Комсомольський провулок"},"geometry":{"type":"Point","coordinates":[35.14239,49.45879]}},
{"type":"Feature","id":"307938865","properties":{"josm":"w307938865","name":"Козаченка вулиця","nameuk":"Козаченко вулиця"},"geometry":{"type":"Point","coordinates":[38.43313,48.8914]}},
{"type":"Feature","id":"307941928","properties":{"josm":"w307941928","name":"Івана Франка вулиця","nameuk":"Франка вулиця"},"geometry":{"type":"Point","coordinates":[38.43574,48.89034]}},
{"type":"Feature","id":"308454787","properties":{"josm":"w308454787","name":"улица Ешиль Ада","nameuk":"Мирна вулиця"},"geometry":{"type":"Point","coordinates":[34.9888,44.83917]}},
{"type":"Feature","id":"308959404","properties":{"josm":"w308959404","name":"Южная","nameuk":"Південна"},"geometry":{"type":"Point","coordinates":[30.63896,46.43847]}},
{"type":"Feature","id":"313254004","properties":{"josm":"w313254004","name":"Пролетарська вулиця","nameuk":"Европейська вулиця"},"geometry":{"type":"Point","coordinates":[33.36657,49.09969]}},
{"type":"Feature","id":"315891608","properties":{"josm":"w315891608","name":"Лісова вулиця","nameuk":"Лісна вулиця"},"geometry":{"type":"Point","coordinates":[33.28573,49.1199]}},
{"type":"Feature","id":"315891608","properties":{"josm":"w315891608","name":"Лісова вулиця","nameuk":"Лісна вулиця"},"geometry":{"type":"Point","coordinates":[33.28573,49.1199]}},
{"type":"Feature","id":"316504888","properties":{"josm":"w316504888","name":"Пушкина улица","nameuk":"Пушкіна вулиця"},"geometry":{"type":"Point","coordinates":[36.21681,48.55459]}},
{"type":"Feature","id":"316504902","properties":{"josm":"w316504902","name":"Соборная улица","nameuk":"Соборна вулиця"},"geometry":{"type":"Point","coordinates":[36.21727,48.55686]}},
{"type":"Feature","id":"316544561","properties":{"josm":"w316544561","name":"Галузевий проїзд","nameuk":"Галузевий провулок"},"geometry":{"type":"Point","coordinates":[33.45535,49.15754]}},
{"type":"Feature","id":"319671081","properties":{"josm":"w319671081","name":"Терешкова вулиця","nameuk":"Мічуріна вулиця"},"geometry":{"type":"Point","coordinates":[29.85431,47.07752]}},
{"type":"Feature","id":"320121311","properties":{"josm":"w320121311","name":"Східна вулиця","nameuk":"Skhidna"},"geometry":{"type":"Point","coordinates":[35.14095,48.56738]}},
{"type":"Feature","id":"322193053","properties":{"josm":"w322193053","name":"Круча вулиця","nameuk":"Свердлова вулиця"},"geometry":{"type":"Point","coordinates":[30.22881,50.4146]}},
{"type":"Feature","id":"325184739","properties":{"josm":"w325184739","name":"вулиця Росавська","nameuk":"Червоноармійська вулиця"},"geometry":{"type":"Point","coordinates":[30.83,49.8657]}},
{"type":"Feature","id":"325200717","properties":{"josm":"w325200717","name":"вулиця Відродження","nameuk":"Відродження вулиця"},"geometry":{"type":"Point","coordinates":[30.82548,49.86859]}},
{"type":"Feature","id":"327118718","properties":{"josm":"w327118718","name":"Залізнична вулиця","nameuk":"Шота вулиця"},"geometry":{"type":"Point","coordinates":[37.1524,48.28753]}},
{"type":"Feature","id":"329089928","properties":{"josm":"w329089928","name":"Енгельса вулиця","nameuk":"Килимова вулиця"},"geometry":{"type":"Point","coordinates":[34.07586,49.56077]}},
{"type":"Feature","id":"332249151","properties":{"josm":"w332249151","name":"Виноградський провулок","nameuk":"Виноградский провулок"},"geometry":{"type":"Point","coordinates":[33.45986,51.84214]}},
{"type":"Feature","id":"333432096","properties":{"josm":"w333432096","name":"Молодежная улица","nameuk":"Молодіжна вулиця"},"geometry":{"type":"Point","coordinates":[38.07158,47.67763]}},
{"type":"Feature","id":"333545976","properties":{"josm":"w333545976","name":"улица Милании Мусиенко","nameuk":"Меланії Мусієнко вулиця"},"geometry":{"type":"Point","coordinates":[36.56242,45.36011]}},
{"type":"Feature","id":"333884083","properties":{"josm":"w333884083","name":"Героїв Чорнобиля вулиця","nameuk":"вулиця Героїв Чорнобиля"},"geometry":{"type":"Point","coordinates":[37.51755,47.93412]}},
{"type":"Feature","id":"333884143","properties":{"josm":"w333884143","name":"Прокоф’єва вулиця","nameuk":"вулиця Прокоф’єва"},"geometry":{"type":"Point","coordinates":[37.50544,47.94183]}},
{"type":"Feature","id":"333891437","properties":{"josm":"w333891437","name":"Фундукліївська вулиця","nameuk":"Горького вулиця"},"geometry":{"type":"Point","coordinates":[32.67541,49.0728]}},
{"type":"Feature","id":"334219315","properties":{"josm":"w334219315","name":"Фундукліївська вулиця","nameuk":"Горького вулиця"},"geometry":{"type":"Point","coordinates":[32.67803,49.07477]}},
{"type":"Feature","id":"335890716","properties":{"josm":"w335890716","name":"Південний провулок","nameuk":"Чкалова провулок"},"geometry":{"type":"Point","coordinates":[37.55187,47.7075]}},
{"type":"Feature","id":"336116218","properties":{"josm":"w336116218","name":"Озерная улица","nameuk":"Озерна вулиця"},"geometry":{"type":"Point","coordinates":[37.44876,48.57494]}},
{"type":"Feature","id":"336925963","properties":{"josm":"w336925963","name":"вулиця Горького","nameuk":"Горького вулиця"},"geometry":{"type":"Point","coordinates":[37.78403,48.40066]}},
{"type":"Feature","id":"336925964","properties":{"josm":"w336925964","name":"вулиця Дзержинського","nameuk":"Дзержинського вулиця"},"geometry":{"type":"Point","coordinates":[37.80207,48.37934]}},
{"type":"Feature","id":"336925965","properties":{"josm":"w336925965","name":"вулиця Карла Маркса","nameuk":"Карла Маркса вулиця"},"geometry":{"type":"Point","coordinates":[37.78699,48.38625]}},
{"type":"Feature","id":"336925969","properties":{"josm":"w336925969","name":"вулиця Куйбишева","nameuk":"Куйбишева вулиця"},"geometry":{"type":"Point","coordinates":[37.80116,48.38657]}},
{"type":"Feature","id":"336925974","properties":{"josm":"w336925974","name":"вулиця Пилипенка","nameuk":"Пилипенко вулиця"},"geometry":{"type":"Point","coordinates":[37.80041,48.38436]}},
{"type":"Feature","id":"336925975","properties":{"josm":"w336925975","name":"вулиця Перемоги","nameuk":"Перемоги вулиця"},"geometry":{"type":"Point","coordinates":[37.78302,48.4026]}},
{"type":"Feature","id":"336925977","properties":{"josm":"w336925977","name":"вулиця Шевченка","nameuk":"Шевченка вулиця"},"geometry":{"type":"Point","coordinates":[37.77916,48.39989]}},
{"type":"Feature","id":"337646962","properties":{"josm":"w337646962","name":"Трейл Канатный","nameuk":"Трейл Канатний"},"geometry":{"type":"Point","coordinates":[36.24159,50.02535]}},
{"type":"Feature","id":"338984267","properties":{"josm":"w338984267","name":"провулок Чужбинського","nameuk":"провулок Чужбинского"},"geometry":{"type":"Point","coordinates":[26.47057,48.50593]}},
{"type":"Feature","id":"342018461","properties":{"josm":"w342018461","name":"Кольцевая вулиця","nameuk":"Кільцева вулиця"},"geometry":{"type":"Point","coordinates":[29.80531,49.92523]}},
{"type":"Feature","id":"348715556","properties":{"josm":"w348715556","name":"Садова вулиця","nameuk":"Садовий провулок"},"geometry":{"type":"Point","coordinates":[38.1616,48.55637]}},
{"type":"Feature","id":"349524842","properties":{"josm":"w349524842","name":"Школьная","nameuk":"Шкільна"},"geometry":{"type":"Point","coordinates":[28.94415,50.10129]}},
{"type":"Feature","id":"349524858","properties":{"josm":"w349524858","name":"Школьная","nameuk":"Шкільна"},"geometry":{"type":"Point","coordinates":[28.94346,50.1012]}},
{"type":"Feature","id":"349524861","properties":{"josm":"w349524861","name":"Школьная","nameuk":"Шкільна"},"geometry":{"type":"Point","coordinates":[28.94358,50.10249]}},
{"type":"Feature","id":"357853573","properties":{"josm":"w357853573","name":"Ткаченко вулиця","nameuk":"Лікарняна"},"geometry":{"type":"Point","coordinates":[29.63118,47.92709]}},
{"type":"Feature","id":"359633473","properties":{"josm":"w359633473","name":"Вишнева вулиця","nameuk":"Жовтнева вулиця"},"geometry":{"type":"Point","coordinates":[34.24159,48.47322]}},
{"type":"Feature","id":"360472395","properties":{"josm":"w360472395","name":"Переяславська провулок","nameuk":"Переяславський провулок"},"geometry":{"type":"Point","coordinates":[31.89955,49.19185]}},
{"type":"Feature","id":"360780680","properties":{"josm":"w360780680","name":"Щорса вулиця","nameuk":"Шевченка вулиця"},"geometry":{"type":"Point","coordinates":[27.17762,49.73306]}},
{"type":"Feature","id":"361075199","properties":{"josm":"w361075199","name":"Михальченка вулиця - Корольова вулиця","nameuk":"Михальченка вулиця-Корольова вулиця"},"geometry":{"type":"Point","coordinates":[31.94964,51.82714]}},
{"type":"Feature","id":"364235289","properties":{"josm":"w364235289","name":"Мельхіседека Значко-Яворського провулок","nameuk":"Карла Маркса провулок"},"geometry":{"type":"Point","coordinates":[32.66362,49.07163]}},
{"type":"Feature","id":"365316754","properties":{"josm":"w365316754","name":"Кірова вулиця","nameuk":"Патріотів України вулиця"},"geometry":{"type":"Point","coordinates":[36.23336,47.98437]}},
{"type":"Feature","id":"365349942","properties":{"josm":"w365349942","name":"Мира улица","nameuk":"Миру вулиця"},"geometry":{"type":"Point","coordinates":[36.20872,47.98325]}},
{"type":"Feature","id":"365349950","properties":{"josm":"w365349950","name":"Мира улица","nameuk":"Миру вулиця"},"geometry":{"type":"Point","coordinates":[36.21177,47.98497]}},
{"type":"Feature","id":"367052452","properties":{"josm":"w367052452","name":"проход","nameuk":"прохід"},"geometry":{"type":"Point","coordinates":[30.72804,46.44237]}},
{"type":"Feature","id":"370094427","properties":{"josm":"w370094427","name":"Островського провулок","nameuk":"Миру провулок"},"geometry":{"type":"Point","coordinates":[38.15959,48.55038]}},
{"type":"Feature","id":"371929831","properties":{"josm":"w371929831","name":"Шевченко улица","nameuk":"Шевченка вулиця"},"geometry":{"type":"Point","coordinates":[30.00931,46.59884]}},
{"type":"Feature","id":"372687704","properties":{"josm":"w372687704","name":"Парковая улица","nameuk":"Паркова вулиця"},"geometry":{"type":"Point","coordinates":[30.26092,46.52587]}},
{"type":"Feature","id":"372687705","properties":{"josm":"w372687705","name":"Парковая улица","nameuk":"Паркова вулиця"},"geometry":{"type":"Point","coordinates":[30.26081,46.52478]}},
{"type":"Feature","id":"372687706","properties":{"josm":"w372687706","name":"Парковая улица","nameuk":"Паркова вулиця"},"geometry":{"type":"Point","coordinates":[30.25906,46.52456]}},
{"type":"Feature","id":"372687707","properties":{"josm":"w372687707","name":"Парковая улица","nameuk":"Паркова вулиця"},"geometry":{"type":"Point","coordinates":[30.2603,46.52507]}},
{"type":"Feature","id":"374272283","properties":{"josm":"w374272283","name":"Зелёная улица","nameuk":"Зелена вулиця"},"geometry":{"type":"Point","coordinates":[33.30219,51.76598]}},
{"type":"Feature","id":"374272911","properties":{"josm":"w374272911","name":"Зелёная улица","nameuk":"Зелена вулиця"},"geometry":{"type":"Point","coordinates":[33.30461,51.76865]}},
{"type":"Feature","id":"375556191","properties":{"josm":"w375556191","name":"Молодіжна вулиця","nameuk":"Свердлова вулиця"},"geometry":{"type":"Point","coordinates":[30.27238,46.42716]}},
{"type":"Feature","id":"378032317","properties":{"josm":"w378032317","name":"Озёрная улица","nameuk":"Озерна вулиця"},"geometry":{"type":"Point","coordinates":[37.48062,49.28634]}},
{"type":"Feature","id":"385084331","properties":{"josm":"w385084331","name":"Кйбишева вулиця","nameuk":"Куйбишева вулиця"},"geometry":{"type":"Point","coordinates":[37.83232,48.95713]}},
{"type":"Feature","id":"385257640","properties":{"josm":"w385257640","name":"Пешеходный переход","nameuk":"Пішохідний перехід"},"geometry":{"type":"Point","coordinates":[30.73016,46.55859]}},
{"type":"Feature","id":"385413329","properties":{"josm":"w385413329","name":"Пешеходный переход","nameuk":"Пішохідний перехід"},"geometry":{"type":"Point","coordinates":[30.73517,46.55582]}},
{"type":"Feature","id":"385413330","properties":{"josm":"w385413330","name":"Пешеходный переход","nameuk":"Пішохідний перехід"},"geometry":{"type":"Point","coordinates":[30.73508,46.55625]}},
{"type":"Feature","id":"385472935","properties":{"josm":"w385472935","name":"Пешеходный переход","nameuk":"Пішохідний перехід"},"geometry":{"type":"Point","coordinates":[30.74041,46.53918]}},
{"type":"Feature","id":"387319577","properties":{"josm":"w387319577","name":"Воронцовская улица","nameuk":"Воронцовская"},"geometry":{"type":"Point","coordinates":[32.73726,46.68197]}},
{"type":"Feature","id":"388243183","properties":{"josm":"w388243183","name":"3-я лінія","nameuk":"3-а лінія"},"geometry":{"type":"Point","coordinates":[30.72738,46.4045]}},
{"type":"Feature","id":"390098801","properties":{"josm":"w390098801","name":"Корнієвського провулок","nameuk":"Корнiевського провулок"},"geometry":{"type":"Point","coordinates":[32.24705,51.78217]}},
{"type":"Feature","id":"395269031","properties":{"josm":"w395269031","name":"Носаль Є. І. вулиця","nameuk":"Носаль вулиця"},"geometry":{"type":"Point","coordinates":[35.3103,47.37529]}},
{"type":"Feature","id":"400220181","properties":{"josm":"w400220181","name":"провулок Грищенка","nameuk":"Грищенко вулиця"},"geometry":{"type":"Point","coordinates":[36.39105,49.98682]}},
{"type":"Feature","id":"404015264","properties":{"josm":"w404015264","name":"Калиновий проїзд","nameuk":"Калиновий провулок"},"geometry":{"type":"Point","coordinates":[35.8422,48.53972]}},
{"type":"Feature","id":"404015266","properties":{"josm":"w404015266","name":"Тополиний проїзд","nameuk":"Тополиний провулок"},"geometry":{"type":"Point","coordinates":[35.83968,48.53952]}},
{"type":"Feature","id":"413943505","properties":{"josm":"w413943505","name":"Оптимистов улица","nameuk":"Оптимістів вулиця"},"geometry":{"type":"Point","coordinates":[35.1119,48.37723]}},
{"type":"Feature","id":"415713504","properties":{"josm":"w415713504","name":"вул. Чапаєва (Чарівна)","nameuk":"Чапаєва вулиця"},"geometry":{"type":"Point","coordinates":[34.89004,47.02319]}},
{"type":"Feature","id":"415761359","properties":{"josm":"w415761359","name":"Кооперативна вулиця","nameuk":"Кооперативна вулиця "},"geometry":{"type":"Point","coordinates":[35.23245,47.28398]}},
{"type":"Feature","id":"416711197","properties":{"josm":"w416711197","name":"Болградская улица","nameuk":"Болгарська вулиця"},"geometry":{"type":"Point","coordinates":[28.83485,45.34318]}},
{"type":"Feature","id":"416784657","properties":{"josm":"w416784657","name":"Калинова вулиця","nameuk":"Калініна вулиця"},"geometry":{"type":"Point","coordinates":[34.26936,48.48079]}},
{"type":"Feature","id":"417364964","properties":{"josm":"w417364964","name":"Транспортная улица","nameuk":"вулиця Транспортна"},"geometry":{"type":"Point","coordinates":[36.12876,50.113]}},
{"type":"Feature","id":"417700935","properties":{"josm":"w417700935","name":"Банківська вулиця","nameuk":"Олександра Пушкіна вулиця"},"geometry":{"type":"Point","coordinates":[24.9022,49.80619]}},
{"type":"Feature","id":"417800569","properties":{"josm":"w417800569","name":"Максименко провулок","nameuk":"Комсомольський провулок"},"geometry":{"type":"Point","coordinates":[35.14683,49.4588]}},
{"type":"Feature","id":"420209686","properties":{"josm":"w420209686","name":"улица Пушкина","nameuk":"Жданова вулиця"},"geometry":{"type":"Point","coordinates":[34.38017,46.8265]}},
{"type":"Feature","id":"420214232","properties":{"josm":"w420214232","name":"ул. Карла Маркса","nameuk":"Жданова вулиця"},"geometry":{"type":"Point","coordinates":[34.38481,46.83593]}},
{"type":"Feature","id":"420225685","properties":{"josm":"w420225685","name":"ул. Карла Маркса","nameuk":"Жданова вулиця"},"geometry":{"type":"Point","coordinates":[34.38701,46.83955]}},
{"type":"Feature","id":"420792618","properties":{"josm":"w420792618","name":"Кооперативная улица","nameuk":"Кооперативна вулиця"},"geometry":{"type":"Point","coordinates":[35.75516,46.82599]}},
{"type":"Feature","id":"421240763","properties":{"josm":"w421240763","name":"Улица Цыбаня","nameuk":"Вулиця Цибаня"},"geometry":{"type":"Point","coordinates":[32.49178,50.25394]}},
{"type":"Feature","id":"421615811","properties":{"josm":"w421615811","name":"Героев труда улица","nameuk":"Героїв труда вулиця"},"geometry":{"type":"Point","coordinates":[35.00794,47.38561]}},
{"type":"Feature","id":"421777500","properties":{"josm":"w421777500","name":"Мира улица","nameuk":"Миру вулиця"},"geometry":{"type":"Point","coordinates":[34.5509,46.71783]}},
{"type":"Feature","id":"422840471","properties":{"josm":"w422840471","name":"Новая улица","nameuk":"Нова вулиця"},"geometry":{"type":"Point","coordinates":[36.22504,48.56591]}},
{"type":"Feature","id":"423497262","properties":{"josm":"w423497262","name":"Шевченко улица","nameuk":"Шевченка вулиця"},"geometry":{"type":"Point","coordinates":[36.20874,48.53847]}},
{"type":"Feature","id":"424436486","properties":{"josm":"w424436486","name":"Молодёжная улица","nameuk":"Молодіжна вулиця"},"geometry":{"type":"Point","coordinates":[36.09378,48.44954]}},
{"type":"Feature","id":"424772339","properties":{"josm":"w424772339","name":"1-й Заорільський провулок","nameuk":"3-й Заорільський провулок"},"geometry":{"type":"Point","coordinates":[34.52027,48.93094]}},
{"type":"Feature","id":"425193249","properties":{"josm":"w425193249","name":"Тихая улица","nameuk":"Тиха вулиця"},"geometry":{"type":"Point","coordinates":[36.08617,48.52721]}},
{"type":"Feature","id":"425318957","properties":{"josm":"w425318957","name":"Чапаева улица","nameuk":"Чапаєва вулиця"},"geometry":{"type":"Point","coordinates":[30.99815,46.70213]}},
{"type":"Feature","id":"425321594","properties":{"josm":"w425321594","name":"Вишнёвый переулок","nameuk":"Вишневий провулок"},"geometry":{"type":"Point","coordinates":[30.9977,46.69611]}},
{"type":"Feature","id":"425513277","properties":{"josm":"w425513277","name":"Вишнёвый переулок","nameuk":"Вишневий провулок"},"geometry":{"type":"Point","coordinates":[31.00032,46.69645]}},
{"type":"Feature","id":"425537979","properties":{"josm":"w425537979","name":"Чапаева улица","nameuk":"Чапаєва вулиця"},"geometry":{"type":"Point","coordinates":[30.9989,46.69334]}},
{"type":"Feature","id":"425537981","properties":{"josm":"w425537981","name":"Вишнёвый переулок","nameuk":"Вишневий провулок"},"geometry":{"type":"Point","coordinates":[30.99653,46.69596]}},
{"type":"Feature","id":"425538611","properties":{"josm":"w425538611","name":"Южный переулок","nameuk":"Південний провулок"},"geometry":{"type":"Point","coordinates":[30.99994,46.67119]}},
{"type":"Feature","id":"425539387","properties":{"josm":"w425539387","name":"Степовая улица","nameuk":"Степова вулиця"},"geometry":{"type":"Point","coordinates":[31.00514,46.68254]}},
{"type":"Feature","id":"439815043","properties":{"josm":"w439815043","name":"Архитекторская улица","nameuk":"Архітекторська вулиця"},"geometry":{"type":"Point","coordinates":[30.72272,46.3861]}},
{"type":"Feature","id":"439873459","properties":{"josm":"w439873459","name":"улица Людмилы Волошки","nameuk":"вулиця Людмили Волошки"},"geometry":{"type":"Point","coordinates":[29.0195,50.0437]}},
{"type":"Feature","id":"440234270","properties":{"josm":"w440234270","name":"Крикунівка вулиця","nameuk":"вулиця Крикунівка"},"geometry":{"type":"Point","coordinates":[36.96765,49.49662]}},
{"type":"Feature","id":"441611497","properties":{"josm":"w441611497","name":"Фонарная улица","nameuk":"Фонарна вулиця"},"geometry":{"type":"Point","coordinates":[34.47207,49.56819]}},
{"type":"Feature","id":"441877279","properties":{"josm":"w441877279","name":"Июльская улица","nameuk":"Липнева вулиця"},"geometry":{"type":"Point","coordinates":[34.47857,49.57951]}},
{"type":"Feature","id":"441880904","properties":{"josm":"w441880904","name":"ИваІванівська вулиця","nameuk":"Іванівська вулиця"},"geometry":{"type":"Point","coordinates":[34.47031,49.57263]}},
{"type":"Feature","id":"441880960","properties":{"josm":"w441880960","name":"Подсолнечная улица","nameuk":"Соняшникова вулиця"},"geometry":{"type":"Point","coordinates":[34.47054,49.5712]}},
{"type":"Feature","id":"444151183","properties":{"josm":"w444151183","name":"Славы переулок","nameuk":"Слави провулок"},"geometry":{"type":"Point","coordinates":[35.2623,50.76276]}},
{"type":"Feature","id":"444151370","properties":{"josm":"w444151370","name":"Тургенева улица","nameuk":"Тургенєва вулиця"},"geometry":{"type":"Point","coordinates":[35.25859,50.76124]}},
{"type":"Feature","id":"444152248","properties":{"josm":"w444152248","name":"Славы улица","nameuk":"Слави вулиця"},"geometry":{"type":"Point","coordinates":[35.26311,50.76167]}},
{"type":"Feature","id":"444153421","properties":{"josm":"w444153421","name":"Степная улица","nameuk":"Степова вулиця"},"geometry":{"type":"Point","coordinates":[35.2714,50.75939]}},
{"type":"Feature","id":"444571383","properties":{"josm":"w444571383","name":"вулиця Росавська","nameuk":"Шевченка вулиця"},"geometry":{"type":"Point","coordinates":[30.82928,49.86254]}},
{"type":"Feature","id":"445233138","properties":{"josm":"w445233138","name":"Данилевского улица","nameuk":"Данилевського вулиця"},"geometry":{"type":"Point","coordinates":[37.25676,49.19146]}},
{"type":"Feature","id":"446327863","properties":{"josm":"w446327863","name":"Воронежский переулок","nameuk":"Воронезький провулок"},"geometry":{"type":"Point","coordinates":[36.81222,46.77193]}},
{"type":"Feature","id":"447279953","properties":{"josm":"w447279953","name":"Донецкая улица","nameuk":"Донецька вулиця"},"geometry":{"type":"Point","coordinates":[37.29234,49.21642]}},
{"type":"Feature","id":"448651370","properties":{"josm":"w448651370","name":"Ворошилова вулиця","nameuk":"Ворошилова улица"},"geometry":{"type":"Point","coordinates":[35.89468,47.25025]}},
{"type":"Feature","id":"450355202","properties":{"josm":"w450355202","name":"Горького  вулиця","nameuk":"Горького вулиця"},"geometry":{"type":"Point","coordinates":[34.43011,48.60308]}},
{"type":"Feature","id":"451010945","properties":{"josm":"w451010945","name":"Робітничий провулок","nameuk":"Робітнича вулиця"},"geometry":{"type":"Point","coordinates":[34.40073,48.54415]}},
{"type":"Feature","id":"451878361","properties":{"josm":"w451878361","name":"Дружби  Народів вулиця","nameuk":"Гоголя вулиця"},"geometry":{"type":"Point","coordinates":[34.29163,48.65757]}},
{"type":"Feature","id":"451879315","properties":{"josm":"w451879315","name":"Підгірна вулиця","nameuk":"Шкільна вулиця"},"geometry":{"type":"Point","coordinates":[34.29288,48.65848]}},
{"type":"Feature","id":"452068367","properties":{"josm":"w452068367","name":"Могілевська","nameuk":"Тополина вулиця"},"geometry":{"type":"Point","coordinates":[36.81947,46.74247]}},
{"type":"Feature","id":"452207366","properties":{"josm":"w452207366","name":"Лісна  вулиця","nameuk":"Харківська вулиця"},"geometry":{"type":"Point","coordinates":[34.31908,48.65329]}},
{"type":"Feature","id":"452383661","properties":{"josm":"w452383661","name":"Г. Сковороди вулиця","nameuk":"Комсомольська вулиця"},