{
"type": "FeatureCollection",
"errorDescr": "Incorrect <b>name</b>-tag value",
"features": [
{"type":"Feature","id":"23757595","properties":{"josm":"w23757595","name":"майдан Павловський","nameuk":"Павловська площа"},"geometry":{"type":"Point","coordinates":[36.22773,49.98743]}},
{"type":"Feature","id":"23861941","properties":{"josm":"w23861941","name":"майдан Павловський","nameuk":"Павловська площа"},"geometry":{"type":"Point","coordinates":[36.23152,49.98804]}},
{"type":"Feature","id":"29110731","properties":{"josm":"w29110731","name":"Оскольська вулиця","nameuk":"Індустріальний проспект"},"geometry":{"type":"Point","coordinates":[36.38993,49.95617]}},
{"type":"Feature","id":"30173400","properties":{"josm":"w30173400","name":"Лозовеньківський проспект","nameuk":"Окружна дорога"},"geometry":{"type":"Point","coordinates":[36.18046,50.05363]}},
{"type":"Feature","id":"31526969","properties":{"josm":"w31526969","name":"Измаильская улица","nameuk":"Ізмаїльська вулиця"},"geometry":{"type":"Point","coordinates":[30.69979,46.37175]}},
{"type":"Feature","id":"31526975","properties":{"josm":"w31526975","name":"Институтская улица","nameuk":"Інститутська вулиця"},"geometry":{"type":"Point","coordinates":[30.70066,46.37729]}},
{"type":"Feature","id":"31526977","properties":{"josm":"w31526977","name":"Берёзовая улица","nameuk":"Березова вулиця"},"geometry":{"type":"Point","coordinates":[30.70058,46.38127]}},
{"type":"Feature","id":"31527021","properties":{"josm":"w31527021","name":"Арцизская улица","nameuk":"Арцизька вулиця"},"geometry":{"type":"Point","coordinates":[30.69995,46.37142]}},
{"type":"Feature","id":"33684480","properties":{"josm":"w33684480","name":"Руслана Плоходька вулиця","nameuk":"Роберта Ейдемана вулиця"},"geometry":{"type":"Point","coordinates":[36.35081,49.99435]}},
{"type":"Feature","id":"34203129","properties":{"josm":"w34203129","name":"Копиловська вулиця","nameuk":"Першої Маївки вулиця"},"geometry":{"type":"Point","coordinates":[36.2085,50.00102]}},
{"type":"Feature","id":"34497738","properties":{"josm":"w34497738","name":"3-й Зерновой проезд","nameuk":"3-й Зерновий проїзд"},"geometry":{"type":"Point","coordinates":[36.27116,49.95139]}},
{"type":"Feature","id":"34572897","properties":{"josm":"w34572897","name":"провулок Шарівський","nameuk":"Спортивна вулиця"},"geometry":{"type":"Point","coordinates":[36.157,49.9808]}},
{"type":"Feature","id":"34679755","properties":{"josm":"w34679755","name":"Терихівська вулиця","nameuk":"Скорохода вулиця"},"geometry":{"type":"Point","coordinates":[36.18191,49.99515]}},
{"type":"Feature","id":"34838730","properties":{"josm":"w34838730","name":"Сільський в’їзд","nameuk":"Колгоспний в’їзд"},"geometry":{"type":"Point","coordinates":[36.30029,50.05467]}},
{"type":"Feature","id":"34839561","properties":{"josm":"w34839561","name":"вулиця Стара Озерянка","nameuk":"Аральська вулиця"},"geometry":{"type":"Point","coordinates":[36.33871,50.04067]}},
{"type":"Feature","id":"36813327","properties":{"josm":"w36813327","name":"Весняна вулиця","nameuk":"Дзержинського вулиця"},"geometry":{"type":"Point","coordinates":[30.92993,50.25435]}},
{"type":"Feature","id":"38169952","properties":{"josm":"w38169952","name":"Симферопольское шоссе 2","nameuk":"Сімферопольське шосе"},"geometry":{"type":"Point","coordinates":[34.20098,44.51376]}},
{"type":"Feature","id":"38240751","properties":{"josm":"w38240751","name":"майдан Павловський","nameuk":"Павловська площа"},"geometry":{"type":"Point","coordinates":[36.22857,49.98722]}},
{"type":"Feature","id":"38651053","properties":{"josm":"w38651053","name":"Тимірязєва провулок","nameuk":"Тимирязєва провулок"},"geometry":{"type":"Point","coordinates":[32.08116,49.41897]}},
{"type":"Feature","id":"52136083","properties":{"josm":"w52136083","name":"Курортна вулиця","nameuk":"Бутоми вулиця"},"geometry":{"type":"Point","coordinates":[31.94629,46.95335]}},
{"type":"Feature","id":"61009925","properties":{"josm":"w61009925","name":"Лычака вулиця","nameuk":"Личака вулиця"},"geometry":{"type":"Point","coordinates":[30.24545,50.51365]}},
{"type":"Feature","id":"69253381","properties":{"josm":"w69253381","name":"Волошкова вулиця","nameuk":"Василькова вулиця"},"geometry":{"type":"Point","coordinates":[34.75931,50.93465]}},
{"type":"Feature","id":"79817063","properties":{"josm":"w79817063","name":"П. Морозова вулиця","nameuk":"П.Морозова вулиця"},"geometry":{"type":"Point","coordinates":[37.29987,48.13853]}},
{"type":"Feature","id":"83296600","properties":{"josm":"w83296600","name":"Чонгарский мост","nameuk":"Чонгарський міст"},"geometry":{"type":"Point","coordinates":[34.55253,45.98796]}},
{"type":"Feature","id":"86463430","properties":{"josm":"w86463430","name":"Терихівська вулиця","nameuk":"Скорохода вулиця"},"geometry":{"type":"Point","coordinates":[36.18417,49.99402]}},
{"type":"Feature","id":"86859486","properties":{"josm":"w86859486","name":"Колійний провулок","nameuk":"Піщаний провулок"},"geometry":{"type":"Point","coordinates":[36.24212,49.95272]}},
{"type":"Feature","id":"96562257","properties":{"josm":"w96562257","name":"Балтийская улица","nameuk":"Балтійська вулиця"},"geometry":{"type":"Point","coordinates":[33.34176,47.89339]}},
{"type":"Feature","id":"99176484","properties":{"josm":"w99176484","name":"Набережная улица","nameuk":"Набережна вулиця"},"geometry":{"type":"Point","coordinates":[30.38033,50.32272]}},
{"type":"Feature","id":"99556174","properties":{"josm":"w99556174","name":"Звёздная улица","nameuk":"Зоряна вулиця"},"geometry":{"type":"Point","coordinates":[30.31791,50.43977]}},
{"type":"Feature","id":"99556199","properties":{"josm":"w99556199","name":"Радужная улица","nameuk":"Райдужна вулиця"},"geometry":{"type":"Point","coordinates":[30.31907,50.43991]}},
{"type":"Feature","id":"101176826","properties":{"josm":"w101176826","name":"Ковпака улица","nameuk":"Ковпака вулиця"},"geometry":{"type":"Point","coordinates":[30.37403,50.31848]}},
{"type":"Feature","id":"101176828","properties":{"josm":"w101176828","name":"Шевченко улица","nameuk":"Шевченка вулиця"},"geometry":{"type":"Point","coordinates":[30.37636,50.31905]}},
{"type":"Feature","id":"101176835","properties":{"josm":"w101176835","name":"Мичурина улица","nameuk":"Мічуріна вулиця"},"geometry":{"type":"Point","coordinates":[30.37512,50.31704]}},
{"type":"Feature","id":"101176839","properties":{"josm":"w101176839","name":"Полевая улица","nameuk":"Польова вулиця"},"geometry":{"type":"Point","coordinates":[30.37611,50.30979]}},
{"type":"Feature","id":"101176844","properties":{"josm":"w101176844","name":"Прорезная улица","nameuk":"Прорізна вулиця"},"geometry":{"type":"Point","coordinates":[30.37537,50.31815]}},
{"type":"Feature","id":"101682510","properties":{"josm":"w101682510","name":"вулиця Сумський шлях","nameuk":"Петровського вулиця"},"geometry":{"type":"Point","coordinates":[36.12641,50.10309]}},
{"type":"Feature","id":"102008331","properties":{"josm":"w102008331","name":"улица Инам","nameuk":"Інан вулиця"},"geometry":{"type":"Point","coordinates":[34.0918,44.89976]}},
{"type":"Feature","id":"102008347","properties":{"josm":"w102008347","name":"улица Инам","nameuk":"Інан вулиця"},"geometry":{"type":"Point","coordinates":[34.09265,44.89678]}},
{"type":"Feature","id":"102327272","properties":{"josm":"w102327272","name":"Руслана Плоходька вулиця","nameuk":"Роберта Ейдемана вулиця"},"geometry":{"type":"Point","coordinates":[36.35014,49.99119]}},
{"type":"Feature","id":"104438109","properties":{"josm":"w104438109","name":"Яновського провулок","nameuk":"Яновського вулиця"},"geometry":{"type":"Point","coordinates":[30.92932,50.3432]}},
{"type":"Feature","id":"106089998","properties":{"josm":"w106089998","name":"11-а Лінія","nameuk":"11-а лінія"},"geometry":{"type":"Point","coordinates":[30.27181,50.54138]}},
{"type":"Feature","id":"106284380","properties":{"josm":"w106284380","name":"Кривулевская улица","nameuk":"Кривулевського вулиця"},"geometry":{"type":"Point","coordinates":[31.33118,51.50708]}},
{"type":"Feature","id":"107359063","properties":{"josm":"w107359063","name":"Локомотивная улица","nameuk":"Локомотивна вулиця"},"geometry":{"type":"Point","coordinates":[33.47216,47.9139]}},
{"type":"Feature","id":"107909041","properties":{"josm":"w107909041","name":"Об’їздна дорога","nameuk":"Об’їзна дорога"},"geometry":{"type":"Point","coordinates":[24.64346,50.74088]}},
{"type":"Feature","id":"109013094","properties":{"josm":"w109013094","name":"Віталія Дульчика вулиця","nameuk":"Дульчика"},"geometry":{"type":"Point","coordinates":[28.58487,49.89445]}},
{"type":"Feature","id":"109582437","properties":{"josm":"w109582437","name":"Восьмого Березня вулиця","nameuk":"Першої Маївки вулиця"},"geometry":{"type":"Point","coordinates":[36.20954,49.99917]}},
{"type":"Feature","id":"111802482","properties":{"josm":"w111802482","name":"Кірова вулиця","nameuk":"Кірова"},"geometry":{"type":"Point","coordinates":[38.3884,48.88603]}},
{"type":"Feature","id":"115477215","properties":{"josm":"w115477215","name":"Школьная ул.","nameuk":"Шкільна вул."},"geometry":{"type":"Point","coordinates":[30.29556,50.16494]}},
{"type":"Feature","id":"115477235","properties":{"josm":"w115477235","name":"Школьная ул.","nameuk":"Шкільна вул."},"geometry":{"type":"Point","coordinates":[30.29165,50.16478]}},
{"type":"Feature","id":"117517380","properties":{"josm":"w117517380","name":"Молодёжная улица","nameuk":"Молодіжна вулиця"},"geometry":{"type":"Point","coordinates":[30.21835,50.21241]}},
{"type":"Feature","id":"118421843","properties":{"josm":"w118421843","name":"Черноморская улица","nameuk":"Чорноморська вулиця"},"geometry":{"type":"Point","coordinates":[30.46371,46.06965]}},
{"type":"Feature","id":"119774813","properties":{"josm":"w119774813","name":"Строительная улица","nameuk":"Гагаріна вулиця"},"geometry":{"type":"Point","coordinates":[34.36201,45.78924]}},
{"type":"Feature","id":"121115896","properties":{"josm":"w121115896","name":"провулок","nameuk":"Калініна вулиця"},"geometry":{"type":"Point","coordinates":[33.12329,48.65869]}},
{"type":"Feature","id":"121117051","properties":{"josm":"w121117051","name":"Кам'яна вулиця","nameuk":"Сакко і Ванцетті вулиця; Мурманський провулок"},"geometry":{"type":"Point","coordinates":[33.1038,48.68824]}},
{"type":"Feature","id":"121117054","properties":{"josm":"w121117054","name":"Покровська площа","nameuk":"Кірова площа"},"geometry":{"type":"Point","coordinates":[33.11163,48.68636]}},
{"type":"Feature","id":"121519877","properties":{"josm":"w121519877","name":"Павлова вулиця","nameuk":"Павлова вулиця "},"geometry":{"type":"Point","coordinates":[37.63769,48.87761]}},
{"type":"Feature","id":"121791109","properties":{"josm":"w121791109","name":"Оскольська вулиця","nameuk":"Індустріальний проспект"},"geometry":{"type":"Point","coordinates":[36.39392,49.96641]}},
{"type":"Feature","id":"124197826","properties":{"josm":"w124197826","name":"Мар'ївський провулок","nameuk":"Котовського провулок"},"geometry":{"type":"Point","coordinates":[33.10445,48.68996]}},
{"type":"Feature","id":"124892288","properties":{"josm":"w124892288","name":"Леси Украинки улица","nameuk":"Лесі Українки вулиця"},"geometry":{"type":"Point","coordinates":[30.37245,50.31824]}},
{"type":"Feature","id":"124892290","properties":{"josm":"w124892290","name":"Кооперативная улица","nameuk":"Кооперативна вулиця"},"geometry":{"type":"Point","coordinates":[30.3833,50.32348]}},
{"type":"Feature","id":"124990636","properties":{"josm":"w124990636","name":"Восточная","nameuk":"Східна вулиця"},"geometry":{"type":"Point","coordinates":[32.7486,46.62477]}},
{"type":"Feature","id":"126735022","properties":{"josm":"w126735022","name":"Соборна вулиця","nameuk":"Центральна вулиця"},"geometry":{"type":"Point","coordinates":[30.45719,48.38906]}},
{"type":"Feature","id":"126776302","properties":{"josm":"w126776302","name":"Затишна вулиця","nameuk":"Будьонного вулиця"},"geometry":{"type":"Point","coordinates":[30.44948,48.38732]}},
{"type":"Feature","id":"126998341","properties":{"josm":"w126998341","name":"Пірогова вулиця","nameuk":"Пирогова вулиця"},"geometry":{"type":"Point","coordinates":[30.4728,48.38245]}},
{"type":"Feature","id":"128505290","properties":{"josm":"w128505290","name":"Юрія Паращука вулиця","nameuk":"Івана Минайленка вулиця"},"geometry":{"type":"Point","coordinates":[36.18228,49.97959]}},
{"type":"Feature","id":"128976367","properties":{"josm":"w128976367","name":"Коцюбинского","nameuk":"Коцюбинського"},"geometry":{"type":"Point","coordinates":[32.73893,46.68151]}},
{"type":"Feature","id":"129818758","properties":{"josm":"w129818758","name":"Проспект Василя Стуса","nameuk":"Комсомольський проспект"},"geometry":{"type":"Point","coordinates":[34.58168,48.51582]}},
{"type":"Feature","id":"129911527","properties":{"josm":"w129911527","name":"8-го Березня вулиця","nameuk":"8-го безерня вулиця"},"geometry":{"type":"Point","coordinates":[33.86523,48.06255]}},
{"type":"Feature","id":"130659531","properties":{"josm":"w130659531","name":"Чапаєва вулиця","nameuk":"Козацька вулиця"},"geometry":{"type":"Point","coordinates":[33.69316,47.66994]}},
{"type":"Feature","id":"130659533","properties":{"josm":"w130659533","name":"Покровська вулиця","nameuk":"Дзержинського вулиця"},"geometry":{"type":"Point","coordinates":[33.70349,47.66748]}},
{"type":"Feature","id":"131606761","properties":{"josm":"w131606761","name":"Юрія Паращука вулиця","nameuk":"Івана Минайленка вулиця"},"geometry":{"type":"Point","coordinates":[36.18676,49.97667]}},
{"type":"Feature","id":"131860045","properties":{"josm":"w131860045","name":"Соняшникова вулиця","nameuk":"Балашівська вулиця"},"geometry":{"type":"Point","coordinates":[38.36614,48.94955]}},
{"type":"Feature","id":"132610731","properties":{"josm":"w132610731","name":"Соборна вулиця","nameuk":"Леніна вулиця"},"geometry":{"type":"Point","coordinates":[35.28171,47.44308]}},
{"type":"Feature","id":"134690294","properties":{"josm":"w134690294","name":"Соняшникова вулиця","nameuk":"Балашівська вулиця"},"geometry":{"type":"Point","coordinates":[38.36765,48.94872]}},
{"type":"Feature","id":"135271038","properties":{"josm":"w135271038","name":"Бригадная вулиця","nameuk":"Бригадна вулиця"},"geometry":{"type":"Point","coordinates":[32.04669,46.87591]}},
{"type":"Feature","id":"135294028","properties":{"josm":"w135294028","name":"Марії Заньковецької вулиця","nameuk":"Канатенка вулиця"},"geometry":{"type":"Point","coordinates":[33.12798,48.68173]}},
{"type":"Feature","id":"135330250","properties":{"josm":"w135330250","name":"Захисників Україний вулиця","nameuk":"Дзержинського вулиця"},"geometry":{"type":"Point","coordinates":[33.12743,48.67949]}},
{"type":"Feature","id":"135364971","properties":{"josm":"w135364971","name":"Івана Головка вулиця","nameuk":"Тихий провулок"},"geometry":{"type":"Point","coordinates":[33.07684,48.6713]}},
{"type":"Feature","id":"135567259","properties":{"josm":"w135567259","name":"Визволення площа","nameuk":"Перемоги площа"},"geometry":{"type":"Point","coordinates":[33.09966,48.67356]}},
{"type":"Feature","id":"135684332","properties":{"josm":"w135684332","name":"Івана Піянзіна провулок","nameuk":"Пиянзина провулок; Марини Раскової провулок"},"geometry":{"type":"Point","coordinates":[33.1085,48.6898]}},
{"type":"Feature","id":"135691235","properties":{"josm":"w135691235","name":"Івана Гороновича провулок","nameuk":"Ленінський провулок"},"geometry":{"type":"Point","coordinates":[33.10923,48.66876]}},
{"type":"Feature","id":"136240219","properties":{"josm":"w136240219","name":"Носаль Є. І. вулиця","nameuk":"Носаль вулиця"},"geometry":{"type":"Point","coordinates":[35.29509,47.37318]}},
{"type":"Feature","id":"136285283","properties":{"josm":"w136285283","name":"Веселкова вулиця","nameuk":"Зелений провулок"},"geometry":{"type":"Point","coordinates":[33.10803,48.66841]}},
{"type":"Feature","id":"138099205","properties":{"josm":"w138099205","name":"Бурковського вулиця","nameuk":"Костюка вулиця"},"geometry":{"type":"Point","coordinates":[27.64529,50.5706]}},
{"type":"Feature","id":"138226863","properties":{"josm":"w138226863","name":"Героев труда улица","nameuk":"Героїв труда вулиця"},"geometry":{"type":"Point","coordinates":[35.00066,47.38507]}},
{"type":"Feature","id":"144792776","properties":{"josm":"w144792776","name":"Комарова улица","nameuk":"Комарова вулиця"},"geometry":{"type":"Point","coordinates":[30.3356,50.44396]}},
{"type":"Feature","id":"144792777","properties":{"josm":"w144792777","name":"Комсомольская улица","nameuk":"Комсомольська вулиця"},"geometry":{"type":"Point","coordinates":[30.34515,50.43274]}},
{"type":"Feature","id":"146430525","properties":{"josm":"w146430525","name":"вулиця Лазурна","nameuk":"Гайдара бульвар"},"geometry":{"type":"Point","coordinates":[30.65668,46.29606]}},
{"type":"Feature","id":"148010118","properties":{"josm":"w148010118","name":"Кар'єрний тупик","nameuk":"Каръерный тупик"},"geometry":{"type":"Point","coordinates":[32.24616,48.47959]}},
{"type":"Feature","id":"148112944","properties":{"josm":"w148112944","name":"Щорса вулиця (стор. пос.Дослідної ст.), Степова ввулиця (стор. с.Вигода)","nameuk":"Щорса вулиця"},"geometry":{"type":"Point","coordinates":[30.39234,46.60883]}},
{"type":"Feature","id":"148490174","properties":{"josm":"w148490174","name":"Степная улица","nameuk":"Олега Кошового вулиця"},"geometry":{"type":"Point","coordinates":[32.72089,45.5052]}},
{"type":"Feature","id":"154686328","properties":{"josm":"w154686328","name":"Свободи вулиця","nameuk":"Іванова вулиця"},"geometry":{"type":"Point","coordinates":[36.24017,50.00291]}},
{"type":"Feature","id":"156597060","properties":{"josm":"w156597060","name":"Лозовеньківський проспект","nameuk":"Окружна дорога"},"geometry":{"type":"Point","coordinates":[36.23382,50.08989]}},
{"type":"Feature","id":"158361441","properties":{"josm":"w158361441","name":"Чаплієвська вулиця","nameuk":"Миру вулиця"},"geometry":{"type":"Point","coordinates":[36.39359,49.98839]}},
{"type":"Feature","id":"159813362","properties":{"josm":"w159813362","name":"Лозовеньківський проспект","nameuk":"Окружна дорога"},"geometry":{"type":"Point","coordinates":[36.26322,50.1021]}},
{"type":"Feature","id":"159813363","properties":{"josm":"w159813363","name":"Лозовеньківський проспект","nameuk":"Окружна дорога"},"geometry":{"type":"Point","coordinates":[36.26582,50.1019]}},
{"type":"Feature","id":"159815292","properties":{"josm":"w159815292","name":"Лозовеньківський проспект","nameuk":"Окружна дорога"},"geometry":{"type":"Point","coordinates":[36.1968,50.064]}},
{"type":"Feature","id":"159815293","properties":{"josm":"w159815293","name":"Лозовеньківський проспект","nameuk":"Окружна дорога"},"geometry":{"type":"Point","coordinates":[36.18377,50.05505]}},
{"type":"Feature","id":"159815294","properties":{"josm":"w159815294","name":"Лозовеньківський проспект","nameuk":"Окружна дорога"},"geometry":{"type":"Point","coordinates":[36.18203,50.05422]}},
{"type":"Feature","id":"159981419","properties":{"josm":"w159981419","name":"майдан Павловський","nameuk":"Павловська площа"},"geometry":{"type":"Point","coordinates":[36.23287,49.98833]}},
{"type":"Feature","id":"161808590","properties":{"josm":"w161808590","name":"Семьи Бобринских вулиця","nameuk":"Родини Бобринських вулиця"},"geometry":{"type":"Point","coordinates":[31.8572,49.22554]}},
{"type":"Feature","id":"161853411","properties":{"josm":"w161853411","name":"Феофановская улица","nameuk":"Феофанівська вулиця"},"geometry":{"type":"Point","coordinates":[30.47734,50.33204]}},
{"type":"Feature","id":"161855004","properties":{"josm":"w161855004","name":"Партизанская улица","nameuk":"Партизанська вулиця"},"geometry":{"type":"Point","coordinates":[30.48132,50.32696]}},
{"type":"Feature","id":"162361872","properties":{"josm":"w162361872","name":"Полтавська (Радевича) вулиця","nameuk":"Полтавська вулиця"},"geometry":{"type":"Point","coordinates":[35.09855,49.44263]}},
{"type":"Feature","id":"162361874","properties":{"josm":"w162361874","name":"Полтавська (Радевича) вулиця","nameuk":"Полтавська вулиця"},"geometry":{"type":"Point","coordinates":[35.13742,49.45199]}},
{"type":"Feature","id":"163270423","properties":{"josm":"w163270423","name":"Чехова вулиця","nameuk":"Чєхова вулиця"},"geometry":{"type":"Point","coordinates":[34.53187,49.82097]}},
{"type":"Feature","id":"164141513","properties":{"josm":"w164141513","name":"Магістральна вулиця","nameuk":"Магістральна  вулиця"},"geometry":{"type":"Point","coordinates":[33.45757,47.90598]}},
{"type":"Feature","id":"164750319","properties":{"josm":"w164750319","name":"Суворова улица","nameuk":"Суворова вулиця"},"geometry":{"type":"Point","coordinates":[30.4603,50.32944]}},
{"type":"Feature","id":"167991159","properties":{"josm":"w167991159","name":"Садова провулок чи вулиця?","nameuk":"Садова провулок"},"geometry":{"type":"Point","coordinates":[33.17754,49.59085]}},
{"type":"Feature","id":"168200938","properties":{"josm":"w168200938","name":"Міліонна вулиця","nameuk":"Паризької Комуни вулиця"},"geometry":{"type":"Point","coordinates":[32.67938,49.074]}},
{"type":"Feature","id":"168201046","properties":{"josm":"w168201046","name":"Фундукліївська вулиця","nameuk":"Горького вулиця"},"geometry":{"type":"Point","coordinates":[32.66987,49.06871]}},
{"type":"Feature","id":"168413718","properties":{"josm":"w168413718","name":"Охотничий пер.","nameuk":"Мисливський пров."},"geometry":{"type":"Point","coordinates":[30.30976,50.19105]}},
{"type":"Feature","id":"168908093","properties":{"josm":"w168908093","name":"Героїв-підпільників вулиця","nameuk":"Ленінської Іскри вулиця"},"geometry":{"type":"Point","coordinates":[37.54655,48.59575]}},
{"type":"Feature","id":"172302821","properties":{"josm":"w172302821","name":"Безхлібна (Гребінківська) вулиця","nameuk":"Безхлібна вулиця"},"geometry":{"type":"Point","coordinates":[32.4403,50.10397]}},
{"type":"Feature","id":"175083114","properties":{"josm":"w175083114","name":"Рози Люксембург переулок","nameuk":"Рози Люксембург вулиця"},"geometry":{"type":"Point","coordinates":[38.56009,48.85844]}},
{"type":"Feature","id":"175324967","properties":{"josm":"w175324967","name":"Залізнична вулиця","nameuk":"Шота вулиця"},"geometry":{"type":"Point","coordinates":[37.16357,48.28704]}},
{"type":"Feature","id":"175802142","properties":{"josm":"w175802142","name":"Залізнична вулиця","nameuk":"Шота вулиця"},"geometry":{"type":"Point","coordinates":[37.15583,48.28773]}},
{"type":"Feature","id":"175802156","properties":{"josm":"w175802156","name":"Залізнична вулиця","nameuk":"Шота вулиця"},"geometry":{"type":"Point","coordinates":[37.17156,48.28534]}},
{"type":"Feature","id":"175802157","properties":{"josm":"w175802157","name":"Залізнична вулиця","nameuk":"Шота вулиця"},"geometry":{"type":"Point","coordinates":[37.14862,48.2872]}},
{"type":"Feature","id":"181264317","properties":{"josm":"w181264317","name":"Ванди Біневськой провулок","nameuk":"Джерельний провулок"},"geometry":{"type":"Point","coordinates":[36.35264,49.97136]}},
{"type":"Feature","id":"182760159","properties":{"josm":"w182760159","name":"Октябрьская улица","nameuk":"Жовтнева вулиця"},"geometry":{"type":"Point","coordinates":[30.13379,50.48487]}},
{"type":"Feature","id":"184420700","properties":{"josm":"w184420700","name":"Леніна проспект","nameuk":"Незалежності проспект"},"geometry":{"type":"Point","coordinates":[31.18015,47.82179]}},
{"type":"Feature","id":"184432596","properties":{"josm":"w184432596","name":"Леніна проспект","nameuk":"Незалежності проспект"},"geometry":{"type":"Point","coordinates":[31.18019,47.82186]}},
{"type":"Feature","id":"185143064","properties":{"josm":"w185143064","name":"Варненская улица","nameuk":"Варненська вулиця"},"geometry":{"type":"Point","coordinates":[31.99765,47.03053]}},
{"type":"Feature","id":"185747654","properties":{"josm":"w185747654","name":"Визволителів вулиця","nameuk":"Червоноармійська вулиця"},"geometry":{"type":"Point","coordinates":[36.06263,49.98417]}},
{"type":"Feature","id":"188038701","properties":{"josm":"w188038701","name":"10-а Слобідська вулиця","nameuk":"10-а Слобідська  вулиця"},"geometry":{"type":"Point","coordinates":[32.03226,46.96236]}},
{"type":"Feature","id":"188287368","properties":{"josm":"w188287368","name":"ул. 2-я Сортоиспытательная","nameuk":"вул. 2-я Сортовипробувальна"},"geometry":{"type":"Point","coordinates":[30.56051,46.45858]}},
{"type":"Feature","id":"188744198","properties":{"josm":"w188744198","name":"Боженка вулиця","nameuk":"Ушакова вулиця"},"geometry":{"type":"Point","coordinates":[32.15092,48.37634]}},
{"type":"Feature","id":"188944900","properties":{"josm":"w188944900","name":"Першотравневий провулок","nameuk":"Радянська вулиця"},"geometry":{"type":"Point","coordinates":[34.44048,49.57406]}},
{"type":"Feature","id":"191560037","properties":{"josm":"w191560037","name":"Вознесенская улица","nameuk":"Вознесенська вулиця"},"geometry":{"type":"Point","coordinates":[35.75693,46.83415]}},
{"type":"Feature","id":"197843257","properties":{"josm":"w197843257","name":"майдан Павловський","nameuk":"Павловська площа"},"geometry":{"type":"Point","coordinates":[36.22929,49.9877]}},
{"type":"Feature","id":"198082110","properties":{"josm":"w198082110","name":"майдан Павловський","nameuk":"Павловська площа"},"geometry":{"type":"Point","coordinates":[36.23,49.98734]}},
{"type":"Feature","id":"198082111","properties":{"josm":"w198082111","name":"майдан Павловський","nameuk":"Павловська площа"},"geometry":{"type":"Point","coordinates":[36.23148,49.98784]}},
{"type":"Feature","id":"198189137","properties":{"josm":"w198189137","name":"Річковий провулок","nameuk":"Річкоий провулок"},"geometry":{"type":"Point","coordinates":[38.36889,48.63769]}},
{"type":"Feature","id":"199247188","properties":{"josm":"w199247188","name":"Набережна ріки Сумка вулиця","nameuk":"Горького вулиця"},"geometry":{"type":"Point","coordinates":[34.80297,50.91328]}},
{"type":"Feature","id":"200562485","properties":{"josm":"w200562485","name":"Рыночная улица","nameuk":"Ринкова вулиця"},"geometry":{"type":"Point","coordinates":[30.70173,46.38146]}},
{"type":"Feature","id":"200562490","properties":{"josm":"w200562490","name":"Миндальная улица","nameuk":"Мигдальна вулиця"},"geometry":{"type":"Point","coordinates":[30.69308,46.37935]}},
{"type":"Feature","id":"200562493","properties":{"josm":"w200562493","name":"Новосёлов улица","nameuk":"вулиця Новоселів"},"geometry":{"type":"Point","coordinates":[30.69412,46.37952]}},
{"type":"Feature","id":"202703843","properties":{"josm":"w202703843","name":"Гагарина улиця","nameuk":"Гагаріна вулиця"},"geometry":{"type":"Point","coordinates":[36.3992,48.34157]}},
{"type":"Feature","id":"202938490","properties":{"josm":"w202938490","name":"Об’їздна вулиця","nameuk":"Об’їзна вулиця"},"geometry":{"type":"Point","coordinates":[33.72367,46.99864]}},
{"type":"Feature","id":"205724828","properties":{"josm":"w205724828","name":"Києво-Московська вулиця","nameuk":"Київо-Московська вулиця"},"geometry":{"type":"Point","coordinates":[33.92007,51.67801]}},
{"type":"Feature","id":"205960358","properties":{"josm":"w205960358","name":"вул. Чарівна (Чапаєва)","nameuk":"Чапаєва вулиця"},"geometry":{"type":"Point","coordinates":[34.91332,47.00755]}},
{"type":"Feature","id":"205976975","properties":{"josm":"w205976975","name":"Мелитопольская улица","nameuk":"Мелітопольська вулиця"},"geometry":{"type":"Point","coordinates":[35.68639,46.9102]}},
{"type":"Feature","id":"205976978","properties":{"josm":"w205976978","name":"Астраханская улица","nameuk":"Астраханська вулиця"},"geometry":{"type":"Point","coordinates":[35.74277,46.83786]}},
{"type":"Feature","id":"205977007","properties":{"josm":"w205977007","name":"Почтовая улица","nameuk":"Поштова вулиця"},"geometry":{"type":"Point","coordinates":[35.76127,46.82988]}},
{"type":"Feature","id":"208446072","properties":{"josm":"w208446072","name":"майдан Павловський","nameuk":"Павловська площа"},"geometry":{"type":"Point","coordinates":[36.22773,49.98706]}},
{"type":"Feature","id":"216092481","properties":{"josm":"w216092481","name":"Покровский переулок","nameuk":"Покровський провулок "},"geometry":{"type":"Point","coordinates":[30.4251,46.26048]}},
{"type":"Feature","id":"220343265","properties":{"josm":"w220343265","name":"Небесної Сотні вулиця (Комсомольська вулиця)","nameuk":"Небесної Сотні вулиця"},"geometry":{"type":"Point","coordinates":[34.01625,49.87304]}},
{"type":"Feature","id":"220723359","properties":{"josm":"w220723359","name":"Кирила Осьмака вулиця (Леніна вулиця)","nameuk":"Кирила Осьмака вулиця"},"geometry":{"type":"Point","coordinates":[34.01265,49.87598]}},
{"type":"Feature","id":"221866315","properties":{"josm":"w221866315","name":"Соборнана вулиця","nameuk":"Червоних Партизан вулиця"},"geometry":{"type":"Point","coordinates":[31.77196,47.30851]}},
{"type":"Feature","id":"225784838","properties":{"josm":"w225784838","name":"Рыбачья улица","nameuk":"Рибальська вулиця"},"geometry":{"type":"Point","coordinates":[30.7444,46.38974]}},
{"type":"Feature","id":"226717386","properties":{"josm":"w226717386","name":"Северная улица","nameuk":"Північна вулиця"},"geometry":{"type":"Point","coordinates":[30.69989,46.38299]}},
{"type":"Feature","id":"226717391","properties":{"josm":"w226717391","name":"Ёлочный переулок","nameuk":"Ялинковий провулок"},"geometry":{"type":"Point","coordinates":[30.69794,46.38143]}},
{"type":"Feature","id":"226717393","properties":{"josm":"w226717393","name":"Виноградная улица","nameuk":"Виноградна вулиця"},"geometry":{"type":"Point","coordinates":[30.69926,46.37717]}},
{"type":"Feature","id":"229017815","properties":{"josm":"w229017815","name":"Зерова улица","nameuk":"Зерова вулиця"},"geometry":{"type":"Point","coordinates":[31.33377,50.34875]}},
{"type":"Feature","id":"229017820","properties":{"josm":"w229017820","name":"Зерова улица","nameuk":"Зерова вулиця"},"geometry":{"type":"Point","coordinates":[31.33558,50.35201]}},
{"type":"Feature","id":"229017822","properties":{"josm":"w229017822","name":"проулок Червоный","nameuk":"провулок Червоний"},"geometry":{"type":"Point","coordinates":[31.32373,50.34977]}},
{"type":"Feature","id":"229017833","properties":{"josm":"w229017833","name":"Трубежская улица","nameuk":"Трубіжська вулиця"},"geometry":{"type":"Point","coordinates":[31.33445,50.34999]}},
{"type":"Feature","id":"229017834","properties":{"josm":"w229017834","name":"Одесская улица","nameuk":"Одеська вулиця"},"geometry":{"type":"Point","coordinates":[31.33245,50.34917]}},
{"type":"Feature","id":"229018444","properties":{"josm":"w229018444","name":"Ватутина","nameuk":"Ватутіна"},"geometry":{"type":"Point","coordinates":[31.30321,50.36082]}},
{"type":"Feature","id":"230172835","properties":{"josm":"w230172835","name":"Саксаганського (Пролетарська) вулиця","nameuk":"Пролетарська вулиця"},"geometry":{"type":"Point","coordinates":[32.52625,50.22329]}},
{"type":"Feature","id":"230533116","properties":{"josm":"w230533116","name":"Полевой переулок","nameuk":"Перемоги вулиця"},"geometry":{"type":"Point","coordinates":[35.21985,45.03614]}},
{"type":"Feature","id":"230593943","properties":{"josm":"w230593943","name":"Балтская улица","nameuk":"Балтська вулиця"},"geometry":{"type":"Point","coordinates":[30.69523,46.36997]}},
{"type":"Feature","id":"230593948","properties":{"josm":"w230593948","name":"Килийская улица","nameuk":"Кілійська вулиця"},"geometry":{"type":"Point","coordinates":[30.70155,46.37415]}},
{"type":"Feature","id":"230593954","properties":{"josm":"w230593954","name":"Кодымская улица","nameuk":"Кодимська вулиця"},"geometry":{"type":"Point","coordinates":[30.69659,46.37378]}},
{"type":"Feature","id":"232637004","properties":{"josm":"w232637004","name":"улица Октябрьская","nameuk":"вулиця Жовтнева"},"geometry":{"type":"Point","coordinates":[31.80637,47.20997]}},
{"type":"Feature","id":"232643582","properties":{"josm":"w232643582","name":"улица Октябрьская","nameuk":"вулиця Жовтнева"},"geometry":{"type":"Point","coordinates":[31.82498,47.20016]}},
{"type":"Feature","id":"234318375","properties":{"josm":"w234318375","name":"Ленина улица","nameuk":"Фрунзе вулиця"},"geometry":{"type":"Point","coordinates":[30.28561,50.1974]}},
{"type":"Feature","id":"238063400","properties":{"josm":"w238063400","name":"Леніна вулиця","nameuk":"Кленова (Леніна) вулиця"},"geometry":{"type":"Point","coordinates":[30.15085,50.54638]}},
{"type":"Feature","id":"238498877","properties":{"josm":"w238498877","name":"Лермонтова вулиця","nameuk":"Некрасова вулиця"},"geometry":{"type":"Point","coordinates":[26.97718,49.65622]}},
{"type":"Feature","id":"240455145","properties":{"josm":"w240455145","name":"Молодёжная улица","nameuk":"Молодіжна вулиця"},"geometry":{"type":"Point","coordinates":[36.39475,48.34986]}},
{"type":"Feature","id":"241071665","properties":{"josm":"w241071665","name":"Космонавта Попова бульвар","nameuk":"Попова площа"},"geometry":{"type":"Point","coordinates":[33.11699,48.66341]}},
{"type":"Feature","id":"242337057","properties":{"josm":"w242337057","name":"Шкільна вулиця","nameuk":"Чкалова вулиця"},"geometry":{"type":"Point","coordinates":[39.45045,48.67181]}},
{"type":"Feature","id":"242940229","properties":{"josm":"w242940229","name":"Слесарная улица","nameuk":"Кузнечна вулиця"},"geometry":{"type":"Point","coordinates":[33.53346,44.59177]}},
{"type":"Feature","id":"243030032","properties":{"josm":"w243030032","name":"Улица Куйбышева","nameuk":"Чапаєва вулиця (вулиця Куйбышева)"},"geometry":{"type":"Point","coordinates":[34.34707,46.81979]}},
{"type":"Feature","id":"246272218","properties":{"josm":"w246272218","name":"Yalta Kart","nameuk":"Ялта Карт"},"geometry":{"type":"Point","coordinates":[34.16029,44.48817]}},
{"type":"Feature","id":"251255495","properties":{"josm":"w251255495","name":"Зелёная улица","nameuk":"Зелена вулиця"},"geometry":{"type":"Point","coordinates":[33.3093,51.7711]}},
{"type":"Feature","id":"255405131","properties":{"josm":"w255405131","name":"Московський проспект","nameuk":"Індустріальний проспект"},"geometry":{"type":"Point","coordinates":[36.38625,49.95142]}},
{"type":"Feature","id":"258465524","properties":{"josm":"w258465524","name":"Південна вулиця","nameuk":"Южна вулиця"},"geometry":{"type":"Point","coordinates":[33.86436,48.04041]}},
{"type":"Feature","id":"258465525","properties":{"josm":"w258465525","name":"Південна вулиця","nameuk":"Южна вулиця"},"geometry":{"type":"Point","coordinates":[33.8709,48.03983]}},
{"type":"Feature","id":"258817069","properties":{"josm":"w258817069","name":"Пролетарская улица","nameuk":"Пролетарська вулиця"},"geometry":{"type":"Point","coordinates":[30.1325,50.52452]}},
{"type":"Feature","id":"260997155","properties":{"josm":"w260997155","name":"Московський проспект","nameuk":"Індустріальний проспект"},"geometry":{"type":"Point","coordinates":[36.38642,49.9516]}},
{"type":"Feature","id":"262721205","properties":{"josm":"w262721205","name":"Чайкиної вулиця","nameuk":"Чайкіної вулиця"},"geometry":{"type":"Point","coordinates":[37.52005,47.5843]}},
{"type":"Feature","id":"265929288","properties":{"josm":"w265929288","name":"Победы улица","nameuk":"Перемоги вулиця"},"geometry":{"type":"Point","coordinates":[30.45766,50.32314]}},
{"type":"Feature","id":"266705833","properties":{"josm":"w266705833","name":"Короленко вулиця","nameuk":"Короленка вулиця"},"geometry":{"type":"Point","coordinates":[34.53535,49.83016]}},
{"type":"Feature","id":"269520685","properties":{"josm":"w269520685","name":"Полищука улица","nameuk":"Молодіжна вулиця"},"geometry":{"type":"Point","coordinates":[35.15311,45.14509]}},
{"type":"Feature","id":"276815260","properties":{"josm":"w276815260","name":"М. Немолота вулиця","nameuk":"М.Немолота вулиця"},"geometry":{"type":"Point","coordinates":[33.22701,51.22548]}},
{"type":"Feature","id":"282579005","properties":{"josm":"w282579005","name":"Тухачевського (Іподромна) вулиця","nameuk":"Тухачевського (Ипподромная) вулиця"},"geometry":{"type":"Point","coordinates":[35.12062,49.46842]}},
{"type":"Feature","id":"282579011","properties":{"josm":"w282579011","name":"Калініна (Дробця) вулиця","nameuk":"Калініна вулиця"},"geometry":{"type":"Point","coordinates":[35.1254,49.46092]}},
{"type":"Feature","id":"301072528","properties":{"josm":"w301072528","name":"Отамана Головатого (Леніна) вулиця","nameuk":"Леніна вулиця"},"geometry":{"type":"Point","coordinates":[30.18989,46.49794]}},
{"type":"Feature","id":"301072529","properties":{"josm":"w301072529","name":"Отамана Головатого (Леніна) вулиця","nameuk":"Леніна вулиця"},"geometry":{"type":"Point","coordinates":[30.18953,46.49812]}},
{"type":"Feature","id":"301242063","properties":{"josm":"w301242063","name":"Комсомольський (Максименко) провулок","nameuk":"Комсомольський провулок"},"geometry":{"type":"Point","coordinates":[35.14077,49.45904]}},
{"type":"Feature","id":"302903843","properties":{"josm":"w302903843","name":"Островского улица","nameuk":"Островського вулиця"},"geometry":{"type":"Point","coordinates":[30.37596,50.32015]}},
{"type":"Feature","id":"304386665","properties":{"josm":"w304386665","name":"Молодежная улица","nameuk":"Молодіжна вулиця"},"geometry":{"type":"Point","coordinates":[38.07073,47.67644]}},
{"type":"Feature","id":"304386676","properties":{"josm":"w304386676","name":"Молодежная улица","nameuk":"Молодіжна вулиця"},"geometry":{"type":"Point","coordinates":[38.07138,47.67776]}},
{"type":"Feature","id":"306281266","properties":{"josm":"w306281266","name":"Комсомольський (Максименко) провулок","nameuk":"Комсомольський провулок"},"geometry":{"type":"Point","coordinates":[35.14239,49.45879]}},
{"type":"Feature","id":"307938865","properties":{"josm":"w307938865","name":"Козаченка вулиця","nameuk":"Козаченко вулиця"},"geometry":{"type":"Point","coordinates":[38.43313,48.8914]}},
{"type":"Feature","id":"308454787","properties":{"josm":"w308454787","name":"Ешиль Ада","nameuk":"Мирна вулиця"},"geometry":{"type":"Point","coordinates":[34.98896,44.83923]}},
{"type":"Feature","id":"308959403","properties":{"josm":"w308959403","name":"Северная","nameuk":"Північна"},"geometry":{"type":"Point","coordinates":[30.63795,46.44187]}},
{"type":"Feature","id":"308959404","properties":{"josm":"w308959404","name":"Южная","nameuk":"Південна"},"geometry":{"type":"Point","coordinates":[30.63896,46.43847]}},
{"type":"Feature","id":"308959405","properties":{"josm":"w308959405","name":"Розовая","nameuk":"Рожева"},"geometry":{"type":"Point","coordinates":[30.63747,46.44009]}},
{"type":"Feature","id":"308959406","properties":{"josm":"w308959406","name":"Серая","nameuk":"Сіра"},"geometry":{"type":"Point","coordinates":[30.63773,46.44011]}},
{"type":"Feature","id":"308959407","properties":{"josm":"w308959407","name":"Зелёная","nameuk":"Зелена"},"geometry":{"type":"Point","coordinates":[30.63797,46.44013]}},
{"type":"Feature","id":"308959408","properties":{"josm":"w308959408","name":"Центральная","nameuk":"Центральна"},"geometry":{"type":"Point","coordinates":[30.63815,46.44015]}},
{"type":"Feature","id":"308959409","properties":{"josm":"w308959409","name":"Абрикосовая","nameuk":"Абрикосова"},"geometry":{"type":"Point","coordinates":[30.63839,46.44017]}},
{"type":"Feature","id":"308959410","properties":{"josm":"w308959410","name":"Бежевая","nameuk":"Бежева"},"geometry":{"type":"Point","coordinates":[30.63862,46.44018]}},
{"type":"Feature","id":"308959411","properties":{"josm":"w308959411","name":"Голубая","nameuk":"Блакитна"},"geometry":{"type":"Point","coordinates":[30.63886,46.4402]}},
{"type":"Feature","id":"308959412","properties":{"josm":"w308959412","name":"Синяя","nameuk":"Синя"},"geometry":{"type":"Point","coordinates":[30.6391,46.44022]}},
{"type":"Feature","id":"308959413","properties":{"josm":"w308959413","name":"Рыночная","nameuk":"Ринкова"},"geometry":{"type":"Point","coordinates":[30.63933,46.44025]}},
{"type":"Feature","id":"308959414","properties":{"josm":"w308959414","name":"Авангардная","nameuk":"Авангардна"},"geometry":{"type":"Point","coordinates":[30.63953,46.44027]}},
{"type":"Feature","id":"310094797","properties":{"josm":"w310094797","name":"Пушкина улица","nameuk":"Миру вулиця"},"geometry":{"type":"Point","coordinates":[35.38324,45.16939]}},
{"type":"Feature","id":"313556680","properties":{"josm":"w313556680","name":"Залізнична вулиця","nameuk":"Шота вулиця"},"geometry":{"type":"Point","coordinates":[37.17813,48.28415]}},
{"type":"Feature","id":"315891608","properties":{"josm":"w315891608","name":"Лісова вулиця","nameuk":"Лісна вулиця"},"geometry":{"type":"Point","coordinates":[33.28573,49.1199]}},
{"type":"Feature","id":"315891608","properties":{"josm":"w315891608","name":"Лісова вулиця","nameuk":"Лісна вулиця"},"geometry":{"type":"Point","coordinates":[33.28573,49.1199]}},
{"type":"Feature","id":"319671081","properties":{"josm":"w319671081","name":"Терешкова вулиця","nameuk":"Мічуріна вулиця"},"geometry":{"type":"Point","coordinates":[29.85431,47.07752]}},
{"type":"Feature","id":"322891234","properties":{"josm":"w322891234","name":"Небесної Сотні вулиця","nameuk":"Небесної сотні вулиця"},"geometry":{"type":"Point","coordinates":[32.62486,46.64314]}},
{"type":"Feature","id":"327118715","properties":{"josm":"w327118715","name":"Залізнична вулиця","nameuk":"Шота вулиця"},"geometry":{"type":"Point","coordinates":[37.16709,48.28619]}},
{"type":"Feature","id":"327118718","properties":{"josm":"w327118718","name":"Залізнична вулиця","nameuk":"Шота вулиця"},"geometry":{"type":"Point","coordinates":[37.1524,48.28753]}},
{"type":"Feature","id":"328910335","properties":{"josm":"w328910335","name":"Головурівська вулиця","nameuk":"Галавурівська вулиця"},"geometry":{"type":"Point","coordinates":[31.03847,50.22506]}},
{"type":"Feature","id":"333432096","properties":{"josm":"w333432096","name":"Молодежная улица","nameuk":"Молодіжна вулиця"},"geometry":{"type":"Point","coordinates":[38.07158,47.67763]}},
{"type":"Feature","id":"333891437","properties":{"josm":"w333891437","name":"Фундукліївська вулиця","nameuk":"Горького вулиця"},"geometry":{"type":"Point","coordinates":[32.67541,49.0728]}},
{"type":"Feature","id":"334219315","properties":{"josm":"w334219315","name":"Фундукліївська вулиця","nameuk":"Горького вулиця"},"geometry":{"type":"Point","coordinates":[32.67803,49.07477]}},
{"type":"Feature","id":"336116218","properties":{"josm":"w336116218","name":"Озерная улица","nameuk":"Озерна вулиця"},"geometry":{"type":"Point","coordinates":[37.44876,48.57494]}},
{"type":"Feature","id":"336121459","properties":{"josm":"w336121459","name":"Дальний переулок","nameuk":"Дальній провулок"},"geometry":{"type":"Point","coordinates":[30.69628,46.38128]}},
{"type":"Feature","id":"337646962","properties":{"josm":"w337646962","name":"Трейл Канатный","nameuk":"Трейл Канатний"},"geometry":{"type":"Point","coordinates":[36.24159,50.02535]}},
{"type":"Feature","id":"357853573","properties":{"josm":"w357853573","name":"Ткаченко вулиця","nameuk":"Лікарняна"},"geometry":{"type":"Point","coordinates":[29.63118,47.92709]}},
{"type":"Feature","id":"359616480","properties":{"josm":"w359616480","name":"Петровського (Магістральна) вулиця","nameuk":"Петровського вулиця"},"geometry":{"type":"Point","coordinates":[32.43332,50.12067]}},
{"type":"Feature","id":"364235289","properties":{"josm":"w364235289","name":"Мельхіседека Значко-Яворського провулок","nameuk":"Карла Маркса провулок"},"geometry":{"type":"Point","coordinates":[32.66362,49.07163]}},
{"type":"Feature","id":"366629525","properties":{"josm":"w366629525","name":"Закарпатская улица","nameuk":"Закарпатська вулиця"},"geometry":{"type":"Point","coordinates":[30.31917,50.4363]}},
{"type":"Feature","id":"374272283","properties":{"josm":"w374272283","name":"Зелёная улица","nameuk":"Зелена вулиця"},"geometry":{"type":"Point","coordinates":[33.30219,51.76598]}},
{"type":"Feature","id":"374272911","properties":{"josm":"w374272911","name":"Зелёная улица","nameuk":"Зелена вулиця"},"geometry":{"type":"Point","coordinates":[33.30461,51.76865]}},
{"type":"Feature","id":"376722503","properties":{"josm":"w376722503","name":"Дабриняна вулиця","nameuk":"вулиця Дарбіняна"},"geometry":{"type":"Point","coordinates":[29.06549,50.31734]}},
{"type":"Feature","id":"387319577","properties":{"josm":"w387319577","name":"Воронцовская улица","nameuk":"Воронцовская"},"geometry":{"type":"Point","coordinates":[32.73726,46.68197]}},
{"type":"Feature","id":"390098801","properties":{"josm":"w390098801","name":"Корниевского","nameuk":"Корнiевського"},"geometry":{"type":"Point","coordinates":[32.24594,51.7791]}},
{"type":"Feature","id":"395269031","properties":{"josm":"w395269031","name":"Носаль Є. І. вулиця","nameuk":"Носаль вулиця"},"geometry":{"type":"Point","coordinates":[35.3103,47.37529]}},
{"type":"Feature","id":"396763280","properties":{"josm":"w396763280","name":"улица Ленина","nameuk":"Леніна вулиця"},"geometry":{"type":"Point","coordinates":[39.27501,48.49452]}},
{"type":"Feature","id":"400220181","properties":{"josm":"w400220181","name":"провулок Грищенка","nameuk":"Грищенко вулиця"},"geometry":{"type":"Point","coordinates":[36.39105,49.98682]}},
{"type":"Feature","id":"401182047","properties":{"josm":"w401182047","name":"Житомирская улица","nameuk":"Житомирська вулиця"},"geometry":{"type":"Point","coordinates":[30.32989,50.42628]}},
{"type":"Feature","id":"401215882","properties":{"josm":"w401215882","name":"Карла Маркса улица","nameuk":"Карла Маркса вулиця"},"geometry":{"type":"Point","coordinates":[30.37878,50.31722]}},
{"type":"Feature","id":"403840698","properties":{"josm":"w403840698","name":"Одесская улица","nameuk":"Одеська вулиця"},"geometry":{"type":"Point","coordinates":[30.44596,46.24578]}},
{"type":"Feature","id":"404862353","properties":{"josm":"w404862353","name":"переулок 1й Гетьмана Сагайдачного","nameuk":"провулок 1й Гетьмана Сагайдачного"},"geometry":{"type":"Point","coordinates":[35.36596,46.85472]}},
{"type":"Feature","id":"405153195","properties":{"josm":"w405153195","name":"Звёздная улица","nameuk":"Зоряна вулиця"},"geometry":{"type":"Point","coordinates":[30.13452,50.48181]}},
{"type":"Feature","id":"405179712","properties":{"josm":"w405179712","name":"Центральная улица","nameuk":"Центральна вулиця"},"geometry":{"type":"Point","coordinates":[30.11977,50.42157]}},
{"type":"Feature","id":"405311501","properties":{"josm":"w405311501","name":"Островского улица","nameuk":"Островського вулиця"},"geometry":{"type":"Point","coordinates":[30.37302,50.32134]}},
{"type":"Feature","id":"405311504","properties":{"josm":"w405311504","name":"Молодёжная улица","nameuk":"Молодіжна вулиця"},"geometry":{"type":"Point","coordinates":[30.3764,50.30852]}},
{"type":"Feature","id":"405311505","properties":{"josm":"w405311505","name":"Парковая улица","nameuk":"Паркова вулиця"},"geometry":{"type":"Point","coordinates":[30.37553,50.30764]}},
{"type":"Feature","id":"405311506","properties":{"josm":"w405311506","name":"Карла Маркса улица","nameuk":"Карла Маркса вулиця"},"geometry":{"type":"Point","coordinates":[30.37526,50.31153]}},
{"type":"Feature","id":"405672254","properties":{"josm":"w405672254","name":"Школьный переулок","nameuk":"Центральна вулиця"},"geometry":{"type":"Point","coordinates":[35.56085,45.24398]}},
{"type":"Feature","id":"409020375","properties":{"josm":"w409020375","name":"Клубничный переулок","nameuk":" Полуничний провулок"},"geometry":{"type":"Point","coordinates":[35.85674,48.50653]}},
{"type":"Feature","id":"409183751","properties":{"josm":"w409183751","name":"Набережная парка победы","nameuk":"Льотчиків вулиця"},"geometry":{"type":"Point","coordinates":[33.45665,44.60846]}},
{"type":"Feature","id":"411955040","properties":{"josm":"w411955040","name":"В’ячеслава Чорновола вулиця","nameuk":"В'ячеслава Чорновола вулиця"},"geometry":{"type":"Point","coordinates":[32.04336,49.39853]}},
{"type":"Feature","id":"411955043","properties":{"josm":"w411955043","name":"В’ячеслава Чорновола вулиця","nameuk":"В'ячеслава Чорновола вулиця"},"geometry":{"type":"Point","coordinates":[32.03984,49.3959]}},
{"type":"Feature","id":"415713504","properties":{"josm":"w415713504","name":"вул. Чапаєва (Чарівна)","nameuk":"Чапаєва вулиця"},"geometry":{"type":"Point","coordinates":[34.89006,47.02314]}},
{"type":"Feature","id":"415713505","properties":{"josm":"w415713505","name":"вул. Жданова","nameuk":"Горького"},"geometry":{"type":"Point","coordinates":[34.87798,47.01619]}},
{"type":"Feature","id":"415761359","properties":{"josm":"w415761359","name":"Кооперативна вулиця","nameuk":"Кооперативна вулиця "},"geometry":{"type":"Point","coordinates":[35.23245,47.28398]}},
{"type":"Feature","id":"416062063","properties":{"josm":"w416062063","name":"вул. Жданова","nameuk":"Чапаєва вулиця"},"geometry":{"type":"Point","coordinates":[34.8767,47.02229]}},
{"type":"Feature","id":"416062544","properties":{"josm":"w416062544","name":"вул. Горького","nameuk":"Горького"},"geometry":{"type":"Point","coordinates":[34.89021,47.01435]}},
{"type":"Feature","id":"417364964","properties":{"josm":"w417364964","name":"Транспортная улица","nameuk":"вулиця Транспортна"},"geometry":{"type":"Point","coordinates":[36.12876,50.113]}},
{"type":"Feature","id":"417364968","properties":{"josm":"w417364968","name":"Борейская улица","nameuk":"вулиця Борейська"},"geometry":{"type":"Point","coordinates":[36.12861,50.11751]}},
{"type":"Feature","id":"417800569","properties":{"josm":"w417800569","name":"Комсомольський (Максименко) провулок","nameuk":"Комсомольський провулок"},"geometry":{"type":"Point","coordinates":[35.14683,49.4588]}},
{"type":"Feature","id":"417808320","properties":{"josm":"w417808320","name":"Розумовських вулиця","nameuk":"Разумовских улица"},"geometry":{"type":"Point","coordinates":[35.14631,49.44896]}},
{"type":"Feature","id":"420209686","properties":{"josm":"w420209686","name":"улица Пушкина","nameuk":"Жданова вулиця"},"geometry":{"type":"Point","coordinates":[34.38017,46.8265]}},
{"type":"Feature","id":"420214232","properties":{"josm":"w420214232","name":"ул. Карла Маркса","nameuk":"Жданова вулиця"},"geometry":{"type":"Point","coordinates":[34.38481,46.83593]}},
{"type":"Feature","id":"420225685","properties":{"josm":"w420225685","name":"ул. Карла Маркса","nameuk":"Жданова вулиця"},"geometry":{"type":"Point","coordinates":[34.38701,46.83955]}},
{"type":"Feature","id":"420792618","properties":{"josm":"w420792618","name":"Кооперативная улица","nameuk":"Кооперативна вулиця"},"geometry":{"type":"Point","coordinates":[35.75516,46.82599]}},
{"type":"Feature","id":"421240763","properties":{"josm":"w421240763","name":"Улица Цыбаня","nameuk":"Вулиця Цибаня"},"geometry":{"type":"Point","coordinates":[32.49183,50.25393]}},
{"type":"Feature","id":"421563884","properties":{"josm":"w421563884","name":"Богданівський узвіз","nameuk":"Богданівський провулок"},"geometry":{"type":"Point","coordinates":[32.06986,49.44705]}},
{"type":"Feature","id":"421615811","properties":{"josm":"w421615811","name":"Героев труда улица","nameuk":"Героїв труда вулиця"},"geometry":{"type":"Point","coordinates":[35.00794,47.38561]}},
{"type":"Feature","id":"424772339","properties":{"josm":"w424772339","name":"1-й Заорільський провулок","nameuk":"3-й Заорільський провулок"},"geometry":{"type":"Point","coordinates":[34.52027,48.93094]}},
{"type":"Feature","id":"430771908","properties":{"josm":"w430771908","name":"улица Гоголя","nameuk":"вулиця Гоголя"},"geometry":{"type":"Point","coordinates":[36.40797,48.35522]}},
{"type":"Feature","id":"430774631","properties":{"josm":"w430774631","name":"улица Театральная","nameuk":"вулиця Театральна"},"geometry":{"type":"Point","coordinates":[36.39638,48.35366]}},
{"type":"Feature","id":"430777275","properties":{"josm":"w430777275","name":"улица Сташкова","nameuk":"вулиця Сташкова"},"geometry":{"type":"Point","coordinates":[36.40781,48.35838]}},
{"type":"Feature","id":"430778375","properties":{"josm":"w430778375","name":"улица Украинская","nameuk":"вулиця Українська"},"geometry":{"type":"Point","coordinates":[36.4077,48.35907]}},
{"type":"Feature","id":"430778593","properties":{"josm":"w430778593","name":"переулок Цветочный","nameuk":"провулок Квітковий"},"geometry":{"type":"Point","coordinates":[36.40588,48.35735]}},
{"type":"Feature","id":"430788267","properties":{"josm":"w430788267","name":"улица Степная","nameuk":"вулиця Степова"},"geometry":{"type":"Point","coordinates":[36.41061,48.34097]}},
{"type":"Feature","id":"430788268","properties":{"josm":"w430788268","name":"улица Полевая","nameuk":"вулиця Польова"},"geometry":{"type":"Point","coordinates":[36.41186,48.34019]}},
{"type":"Feature"}
]}
