{
"type": "FeatureCollection",
"errorDescr": "Incorrect <b>name</b>-tag value",
"features": [
{"type":"Feature","id":"24933435","properties":{"josm":"w24933435","name":"Площадь Комбата Неустроева","nameuk":"Комбата Неустроєва площа"},"geometry":{"type":"Point","coordinates":[33.45198,44.59577]}},
{"type":"Feature","id":"24933436","properties":{"josm":"w24933436","name":"Площадь Комбата Неустроева","nameuk":"Комбата Неустроєва площа"},"geometry":{"type":"Point","coordinates":[33.45232,44.59526]}},
{"type":"Feature","id":"24933437","properties":{"josm":"w24933437","name":"Площадь Комбата Неустроева","nameuk":"Комбата Неустроєва площа"},"geometry":{"type":"Point","coordinates":[33.4521,44.59516]}},
{"type":"Feature","id":"24933459","properties":{"josm":"w24933459","name":"Площадь Комбата Неустроева","nameuk":"Комбата Неустроєва площа"},"geometry":{"type":"Point","coordinates":[33.45103,44.59557]}},
{"type":"Feature","id":"24933482","properties":{"josm":"w24933482","name":"Площадь Комбата Неустроева","nameuk":"Комбата Неустроєва площа"},"geometry":{"type":"Point","coordinates":[33.45108,44.59538]}},
{"type":"Feature","id":"25048969","properties":{"josm":"w25048969","name":"Площадь Лазарева","nameuk":"Лазарева площа"},"geometry":{"type":"Point","coordinates":[33.52012,44.61147]}},
{"type":"Feature","id":"28619107","properties":{"josm":"w28619107","name":"Площадь Комбата Неустроева","nameuk":"Комбата Неустроєва площа"},"geometry":{"type":"Point","coordinates":[33.45262,44.59599]}},
{"type":"Feature","id":"28619108","properties":{"josm":"w28619108","name":"Площадь Комбата Неустроева","nameuk":"Комбата Неустроєва площа"},"geometry":{"type":"Point","coordinates":[33.45238,44.5961]}},
{"type":"Feature","id":"36781585","properties":{"josm":"w36781585","name":"улица Героев Сталинграда","nameuk":"Героїв Сталінграда вулиця"},"geometry":{"type":"Point","coordinates":[34.06333,44.93836]}},
{"type":"Feature","id":"36781586","properties":{"josm":"w36781586","name":"улица Героев Сталинграда","nameuk":"Героїв Сталінграда вулиця"},"geometry":{"type":"Point","coordinates":[34.06563,44.93842]}},
{"type":"Feature","id":"39754948","properties":{"josm":"w39754948","name":"переулок Новикова","nameuk":"Новікова провулок"},"geometry":{"type":"Point","coordinates":[33.55465,44.52708]}},
{"type":"Feature","id":"75377328","properties":{"josm":"w75377328","name":"Польський ринок площа","nameuk":"Польський Ринок площа"},"geometry":{"type":"Point","coordinates":[26.57405,48.67503]}},
{"type":"Feature","id":"83296600","properties":{"josm":"w83296600","name":"Чонгарский мост","nameuk":"Чонгарський міст"},"geometry":{"type":"Point","coordinates":[34.55253,45.98796]}},
{"type":"Feature","id":"85648613","properties":{"josm":"w85648613","name":"улица Героев Сталинграда","nameuk":"Героїв Сталінграда вулиця"},"geometry":{"type":"Point","coordinates":[34.05147,44.93721]}},
{"type":"Feature","id":"88208769","properties":{"josm":"w88208769","name":"улица Февральская","nameuk":"Лютнева вулиця"},"geometry":{"type":"Point","coordinates":[34.10895,44.96241]}},
{"type":"Feature","id":"90398599","properties":{"josm":"w90398599","name":"Московская улица","nameuk":"Москальова вулиця"},"geometry":{"type":"Point","coordinates":[34.07436,44.95725]}},
{"type":"Feature","id":"97509104","properties":{"josm":"w97509104","name":"улица Героев Сталинграда","nameuk":"Героїв Сталінграда вулиця"},"geometry":{"type":"Point","coordinates":[34.05504,44.9381]}},
{"type":"Feature","id":"98310354","properties":{"josm":"w98310354","name":"Ерёменко улца","nameuk":"Єрьоменка вулиця"},"geometry":{"type":"Point","coordinates":[33.85784,45.70602]}},
{"type":"Feature","id":"101682232","properties":{"josm":"w101682232","name":"Краснодарская","nameuk":"Краснодарська вулиця"},"geometry":{"type":"Point","coordinates":[33.88341,45.70198]}},
{"type":"Feature","id":"102717232","properties":{"josm":"w102717232","name":"проезд Дюльбер","nameuk":"Дюльбер проїзд"},"geometry":{"type":"Point","coordinates":[34.07214,44.90911]}},
{"type":"Feature","id":"107546595","properties":{"josm":"w107546595","name":"Студентська вулиця; Калузька вулиця","nameuk":"Калузька вулиця"},"geometry":{"type":"Point","coordinates":[33.2922,47.90127]}},
{"type":"Feature","id":"107935273","properties":{"josm":"w107935273","name":"Симоненко улица","nameuk":"Симеренка вулиця"},"geometry":{"type":"Point","coordinates":[34.98392,44.84909]}},
{"type":"Feature","id":"108127184","properties":{"josm":"w108127184","name":"Селянська вулиця (15-я линия)","nameuk":"Селянська вулиця"},"geometry":{"type":"Point","coordinates":[30.33717,50.55378]}},
{"type":"Feature","id":"108339076","properties":{"josm":"w108339076","name":"шоссе Дражинского","nameuk":"Дражинського шосе"},"geometry":{"type":"Point","coordinates":[34.22205,44.5084]}},
{"type":"Feature","id":"116930612","properties":{"josm":"w116930612","name":"улица Сапунагорская","nameuk":"Сапунгорська вулиця"},"geometry":{"type":"Point","coordinates":[33.55737,44.53089]}},
{"type":"Feature","id":"118887283","properties":{"josm":"w118887283","name":"Молодежная улица","nameuk":"Молодіжна вулиця"},"geometry":{"type":"Point","coordinates":[33.07909,45.66292]}},
{"type":"Feature","id":"122389855","properties":{"josm":"w122389855","name":"улица Героев Сталинграда","nameuk":"Героїв Сталінграда вулиця"},"geometry":{"type":"Point","coordinates":[34.0584,44.93745]}},
{"type":"Feature","id":"127003031","properties":{"josm":"w127003031","name":"Номан Челебиджихана улица","nameuk":"Номана Челебіджіхана вулиця"},"geometry":{"type":"Point","coordinates":[33.35509,45.23169]}},
{"type":"Feature","id":"127004460","properties":{"josm":"w127004460","name":"Номан Челебиджихана улица","nameuk":"Номана Челебіджіхана вулиця"},"geometry":{"type":"Point","coordinates":[33.35514,45.22746]}},
{"type":"Feature","id":"129743641","properties":{"josm":"w129743641","name":"улица Козлова","nameuk":"Козлова вулиця"},"geometry":{"type":"Point","coordinates":[34.09653,44.941]}},
{"type":"Feature","id":"135727947","properties":{"josm":"w135727947","name":"Индустриальня улица","nameuk":"Індустріальна вулиця"},"geometry":{"type":"Point","coordinates":[32.54001,45.38087]}},
{"type":"Feature","id":"135746706","properties":{"josm":"w135746706","name":"Дежнєва вулиця","nameuk":"Дежньова вулиця"},"geometry":{"type":"Point","coordinates":[38.38602,48.93415]}},
{"type":"Feature","id":"139831048","properties":{"josm":"w139831048","name":"Школьная улица","nameuk":"Шкільна вулиця"},"geometry":{"type":"Point","coordinates":[30.56252,46.4667]}},
{"type":"Feature","id":"140678955","properties":{"josm":"w140678955","name":"Центральна Паркова алея","nameuk":"Центральна паркова алея"},"geometry":{"type":"Point","coordinates":[30.95128,50.35236]}},
{"type":"Feature","id":"143178618","properties":{"josm":"w143178618","name":"улица Новая Дача","nameuk":"Новая Дача вулиця"},"geometry":{"type":"Point","coordinates":[36.55289,45.34947]}},
{"type":"Feature","id":"148112944","properties":{"josm":"w148112944","name":"Щорса вулиця (стор. пос.Дослідної ст.), Степова ввулиця (стор. с.Вигода)","nameuk":"Щорса вулиця"},"geometry":{"type":"Point","coordinates":[30.39234,46.60883]}},
{"type":"Feature","id":"148826914","properties":{"josm":"w148826914","name":"Молодежная улица","nameuk":"Молодіжна вулиця"},"geometry":{"type":"Point","coordinates":[32.54035,45.37792]}},
{"type":"Feature","id":"159681436","properties":{"josm":"w159681436","name":"Радостная улица","nameuk":"Радісна вулиця"},"geometry":{"type":"Point","coordinates":[30.58375,46.40025]}},
{"type":"Feature","id":"159681437","properties":{"josm":"w159681437","name":"Спортивная улица","nameuk":"Спортивна вулиця"},"geometry":{"type":"Point","coordinates":[30.58901,46.39696]}},
{"type":"Feature","id":"159681441","properties":{"josm":"w159681441","name":"Шевченко улица","nameuk":"Шевченка вулиця"},"geometry":{"type":"Point","coordinates":[30.58014,46.39777]}},
{"type":"Feature","id":"159973382","properties":{"josm":"w159973382","name":"Тенистая улица","nameuk":"Тіниста вулиця"},"geometry":{"type":"Point","coordinates":[30.5862,46.39198]}},
{"type":"Feature","id":"179397528","properties":{"josm":"w179397528","name":"Новая улица","nameuk":"Нова вулиця"},"geometry":{"type":"Point","coordinates":[30.53579,46.58947]}},
{"type":"Feature","id":"179397530","properties":{"josm":"w179397530","name":"Новая улица","nameuk":"Нова вулиця"},"geometry":{"type":"Point","coordinates":[30.54673,46.58656]}},
{"type":"Feature","id":"198937459","properties":{"josm":"w198937459","name":"Любірецька вулиця","nameuk":"Люберецька вулиця"},"geometry":{"type":"Point","coordinates":[38.04715,48.06432]}},
{"type":"Feature","id":"198937886","properties":{"josm":"w198937886","name":"Луговцева вулиця","nameuk":"Луговцова вулиця"},"geometry":{"type":"Point","coordinates":[38.04447,48.06233]}},
{"type":"Feature","id":"200204865","properties":{"josm":"w200204865","name":"Руднева вулиця","nameuk":"Руднєва вулиця"},"geometry":{"type":"Point","coordinates":[33.85632,51.34041]}},
{"type":"Feature","id":"211412837","properties":{"josm":"w211412837","name":"переулок Шевкопляса","nameuk":"Шевкопляса провулок"},"geometry":{"type":"Point","coordinates":[33.61131,44.61709]}},
{"type":"Feature","id":"243866526","properties":{"josm":"w243866526","name":"аллея Декабристов","nameuk":"Декабристів алея"},"geometry":{"type":"Point","coordinates":[34.40983,44.66357]}},
{"type":"Feature","id":"249768985","properties":{"josm":"w249768985","name":"Володимира Івасюка вулиця","nameuk":"Івасюка вулиця"},"geometry":{"type":"Point","coordinates":[24.07986,49.97877]}},
{"type":"Feature","id":"265974169","properties":{"josm":"w265974169","name":"4-го липня вулиця","nameuk":"4-а лінія, Дружня вулиця"},"geometry":{"type":"Point","coordinates":[29.92004,50.56372]}},
{"type":"Feature","id":"265974170","properties":{"josm":"w265974170","name":"5-го липня вулиця","nameuk":"5-а лінія вулиця"},"geometry":{"type":"Point","coordinates":[29.91916,50.56389]}},
{"type":"Feature","id":"265974171","properties":{"josm":"w265974171","name":"6-го липня вулиця","nameuk":"6-а лінія вулиця"},"geometry":{"type":"Point","coordinates":[29.91832,50.56411]}},
{"type":"Feature","id":"266285504","properties":{"josm":"w266285504","name":"Дм. Ульянова  вулиця","nameuk":"Дм. Ульянова вулиця"},"geometry":{"type":"Point","coordinates":[34.81105,46.16361]}},
{"type":"Feature","id":"269520685","properties":{"josm":"w269520685","name":"Молодежная улица","nameuk":"Молодіжна вулиця"},"geometry":{"type":"Point","coordinates":[35.15311,45.14509]}},
{"type":"Feature","id":"270277223","properties":{"josm":"w270277223","name":"Молодежная улица","nameuk":"Молодіжна вулиця"},"geometry":{"type":"Point","coordinates":[35.15109,45.28425]}},
{"type":"Feature","id":"271829129","properties":{"josm":"w271829129","name":"Котовского вулиця","nameuk":"Котовського вулиця"},"geometry":{"type":"Point","coordinates":[38.29829,49.00294]}},
{"type":"Feature","id":"272795138","properties":{"josm":"w272795138","name":"Охрімова Гора вулиця","nameuk":"Охримова Гора вулиця"},"geometry":{"type":"Point","coordinates":[28.64692,50.25916]}},
{"type":"Feature","id":"273656229","properties":{"josm":"w273656229","name":"улица Воли","nameuk":"Волі вулиця"},"geometry":{"type":"Point","coordinates":[34.57448,45.59416]}},
{"type":"Feature","id":"273656230","properties":{"josm":"w273656230","name":"улица Надежды","nameuk":"Надії вулиця"},"geometry":{"type":"Point","coordinates":[34.57342,45.59466]}},
{"type":"Feature","id":"282604390","properties":{"josm":"w282604390","name":"22 січня вулиця","nameuk":"22-го Січня вулиця"},"geometry":{"type":"Point","coordinates":[25.44858,48.66441]}},
{"type":"Feature","id":"282604425","properties":{"josm":"w282604425","name":"16 липня вулиця","nameuk":"16-го Липня вулиця"},"geometry":{"type":"Point","coordinates":[25.44417,48.65969]}},
{"type":"Feature","id":"288157613","properties":{"josm":"w288157613","name":"Крупська вулиця","nameuk":"Надії Крупської вулиця"},"geometry":{"type":"Point","coordinates":[29.98136,46.34741]}},
{"type":"Feature","id":"291320992","properties":{"josm":"w291320992","name":"Площадь Комбата Неустроева","nameuk":"Комбата Неустроєва площа"},"geometry":{"type":"Point","coordinates":[33.45202,44.59535]}},
{"type":"Feature","id":"291320993","properties":{"josm":"w291320993","name":"Площадь Комбата Неустроева","nameuk":"Комбата Неустроєва площа"},"geometry":{"type":"Point","coordinates":[33.45154,44.59552]}},
{"type":"Feature","id":"302680745","properties":{"josm":"w302680745","name":"1-ї Лікарні проїзд","nameuk":"1-ї лікарні проїзд"},"geometry":{"type":"Point","coordinates":[33.41093,49.08429]}},
{"type":"Feature","id":"304486398","properties":{"josm":"w304486398","name":"16 липня вулиця","nameuk":"16-го Липня вулиця"},"geometry":{"type":"Point","coordinates":[25.44122,48.59489]}},
{"type":"Feature","id":"308598154","properties":{"josm":"w308598154","name":"Щорса провулок","nameuk":"Щорса вулиця"},"geometry":{"type":"Point","coordinates":[32.63774,50.08181]}},
{"type":"Feature"}
]}
