{
"type": "FeatureCollection",
"errorDescr": "Incorrect <b>name</b>-tag value",
"features": [
{"type":"Feature","id":"10503390","properties":{"josm":"w10503390","name":"улица Университетская","nameuk":"Університетська вулиця"},"geometry":{"type":"Point","coordinates":[37.79887,47.99563]}},
{"type":"Feature","id":"24520257","properties":{"josm":"w24520257","name":"улица Университетская","nameuk":"Університетська вулиця"},"geometry":{"type":"Point","coordinates":[37.79903,48.00312]}},
{"type":"Feature","id":"31505264","properties":{"josm":"w31505264","name":"Куприна вулиця","nameuk":"Купріна вулиця"},"geometry":{"type":"Point","coordinates":[30.74692,46.41052]}},
{"type":"Feature","id":"37678473","properties":{"josm":"w37678473","name":"Дімітрова вулиця","nameuk":"Димитрова вулиця"},"geometry":{"type":"Point","coordinates":[30.95111,50.37323]}},
{"type":"Feature","id":"38723164","properties":{"josm":"w38723164","name":"50 Років СРСР вулиця","nameuk":"50 років СРСР вулиця"},"geometry":{"type":"Point","coordinates":[36.78583,46.76947]}},
{"type":"Feature","id":"38813348","properties":{"josm":"w38813348","name":"Рубанівська вулиця","nameuk":"Клапцова вулиця"},"geometry":{"type":"Point","coordinates":[36.19559,49.98244]}},
{"type":"Feature","id":"67118549","properties":{"josm":"w67118549","name":"50 Років СРСР вулиця","nameuk":"50 років СРСР вулиця"},"geometry":{"type":"Point","coordinates":[36.78607,46.76942]}},
{"type":"Feature","id":"76858025","properties":{"josm":"w76858025","name":"1-я лінія","nameuk":"1-а лінія"},"geometry":{"type":"Point","coordinates":[30.81517,50.61811]}},
{"type":"Feature","id":"76858269","properties":{"josm":"w76858269","name":"2-я лінія","nameuk":"2-а лінія"},"geometry":{"type":"Point","coordinates":[30.81434,50.61843]}},
{"type":"Feature","id":"83296600","properties":{"josm":"w83296600","name":"Чонгарский мост","nameuk":"Чонгарський міст"},"geometry":{"type":"Point","coordinates":[34.55253,45.98796]}},
{"type":"Feature","id":"90369463","properties":{"josm":"w90369463","name":"Постишєва вулиця","nameuk":"Сонячна вулиця"},"geometry":{"type":"Point","coordinates":[36.14399,50.09911]}},
{"type":"Feature","id":"94337890","properties":{"josm":"w94337890","name":"50 Років СРСР вулиця","nameuk":"50 років СРСР вулиця"},"geometry":{"type":"Point","coordinates":[36.78564,46.76475]}},
{"type":"Feature","id":"97532905","properties":{"josm":"w97532905","name":"улица Крупской","nameuk":"Крупської вулиця"},"geometry":{"type":"Point","coordinates":[34.30225,45.50348]}},
{"type":"Feature","id":"97532908","properties":{"josm":"w97532908","name":"улица Крупской","nameuk":"Крупської вулиця"},"geometry":{"type":"Point","coordinates":[34.30845,45.51213]}},
{"type":"Feature","id":"97533681","properties":{"josm":"w97533681","name":"улица Чкалова","nameuk":"Чкалова вулиця"},"geometry":{"type":"Point","coordinates":[34.29979,45.50357]}},
{"type":"Feature","id":"105136350","properties":{"josm":"w105136350","name":"улица Гагарина","nameuk":"Гагаріна вулиця"},"geometry":{"type":"Point","coordinates":[33.66619,45.78392]}},
{"type":"Feature","id":"106089998","properties":{"josm":"w106089998","name":"11-а Лінія","nameuk":"11-а лінія"},"geometry":{"type":"Point","coordinates":[30.27181,50.54138]}},
{"type":"Feature","id":"106873201","properties":{"josm":"w106873201","name":"площадь Ленина","nameuk":"площа Леніна"},"geometry":{"type":"Point","coordinates":[37.58696,48.739]}},
{"type":"Feature","id":"108127184","properties":{"josm":"w108127184","name":"Селянська вулиця (15-я лінія)","nameuk":"Селянська вулиця"},"geometry":{"type":"Point","coordinates":[30.33989,50.55525]}},
{"type":"Feature","id":"110016927","properties":{"josm":"w110016927","name":"60-Річчя Жовтня вулиця","nameuk":"60-річчя Жовтня вулиця"},"geometry":{"type":"Point","coordinates":[36.36302,46.72526]}},
{"type":"Feature","id":"111621239","properties":{"josm":"w111621239","name":"Советская улица","nameuk":"Радгоспна вулиця"},"geometry":{"type":"Point","coordinates":[38.28168,47.81092]}},
{"type":"Feature","id":"115466741","properties":{"josm":"w115466741","name":"Советская улица","nameuk":"Радгоспна вулиця"},"geometry":{"type":"Point","coordinates":[38.19639,47.78267]}},
{"type":"Feature","id":"125729493","properties":{"josm":"w125729493","name":"2-й Гніванського Шосе провулок","nameuk":"2-й Гніванського шосе провулок"},"geometry":{"type":"Point","coordinates":[28.41758,49.20924]}},
{"type":"Feature","id":"126735022","properties":{"josm":"w126735022","name":"Центральна вулиця","nameuk":"Леніна вулиця"},"geometry":{"type":"Point","coordinates":[30.45719,48.38905]}},
{"type":"Feature","id":"136115682","properties":{"josm":"w136115682","name":"2-й Баштанский переулок","nameuk":"2-й Баштанський провулок"},"geometry":{"type":"Point","coordinates":[32.05401,46.96212]}},
{"type":"Feature","id":"148112944","properties":{"josm":"w148112944","name":"Щорса вулиця (стор. пос.Дослідної ст.), Степова ввулиця (стор. с.Вигода)","nameuk":"Щорса вулиця"},"geometry":{"type":"Point","coordinates":[30.39234,46.60883]}},
{"type":"Feature","id":"148133804","properties":{"josm":"w148133804","name":"1-й Лелеківський провулок","nameuk":"1й Лелеківський провулок"},"geometry":{"type":"Point","coordinates":[32.22817,48.53988]}},
{"type":"Feature","id":"148826918","properties":{"josm":"w148826918","name":"Веселая улица","nameuk":"Весела вулиця"},"geometry":{"type":"Point","coordinates":[32.53732,45.3766]}},
{"type":"Feature","id":"150431029","properties":{"josm":"w150431029","name":"20 років Міліції вулиця","nameuk":"20 років міліції вулиця"},"geometry":{"type":"Point","coordinates":[32.26615,48.49447]}},
{"type":"Feature","id":"155861824","properties":{"josm":"w155861824","name":"ул. Ленина","nameuk":"вул. Леніна"},"geometry":{"type":"Point","coordinates":[30.55065,46.48445]}},
{"type":"Feature","id":"161255355","properties":{"josm":"w161255355","name":"Дно карьера","nameuk":"Дно кар'єра"},"geometry":{"type":"Point","coordinates":[35.15765,48.2936]}},
{"type":"Feature","id":"169690831","properties":{"josm":"w169690831","name":"50 лет Образования СССР","nameuk":"50 років утворення СРСР вулиця"},"geometry":{"type":"Point","coordinates":[37.96781,48.10117]}},
{"type":"Feature","id":"169690833","properties":{"josm":"w169690833","name":"50 лет Образования СССР","nameuk":"50 років утворення СРСР вулиця"},"geometry":{"type":"Point","coordinates":[37.96045,48.09963]}},
{"type":"Feature","id":"169690835","properties":{"josm":"w169690835","name":"50 лет Образования СССР","nameuk":"50 років утворення СРСР вулиця"},"geometry":{"type":"Point","coordinates":[37.96043,48.09978]}},
{"type":"Feature","id":"169690836","properties":{"josm":"w169690836","name":"ул. Богдана Хмельницкого","nameuk":"Богдана Хмельницького вулиця"},"geometry":{"type":"Point","coordinates":[37.96536,48.09766]}},
{"type":"Feature","id":"171633340","properties":{"josm":"w171633340","name":"Верхньошевченківський провулок","nameuk":"Верхнешевченківский провулок"},"geometry":{"type":"Point","coordinates":[37.17433,48.41055]}},
{"type":"Feature","id":"174312303","properties":{"josm":"w174312303","name":"Шевченкa вулиця","nameuk":"Шевченка вулиця"},"geometry":{"type":"Point","coordinates":[30.96716,49.07628]}},
{"type":"Feature","id":"175083114","properties":{"josm":"w175083114","name":"Рози Люксембург переулок","nameuk":"Рози Люксембург вулиця"},"geometry":{"type":"Point","coordinates":[38.56009,48.85844]}},
{"type":"Feature","id":"180916997","properties":{"josm":"w180916997","name":"улица Университетская","nameuk":"Університетська вулиця"},"geometry":{"type":"Point","coordinates":[37.79865,47.99235]}},
{"type":"Feature","id":"183666170","properties":{"josm":"w183666170","name":"Скелевая улица","nameuk":"Смирнова вулиця"},"geometry":{"type":"Point","coordinates":[38.47919,47.89175]}},
{"type":"Feature","id":"188287368","properties":{"josm":"w188287368","name":"ул. 2-я Сортоиспытательная","nameuk":"вул. 2-я Сортовипробувальна"},"geometry":{"type":"Point","coordinates":[30.56051,46.45858]}},
{"type":"Feature","id":"188287407","properties":{"josm":"w188287407","name":"ул. Черноморская","nameuk":"вул. Чорноморська"},"geometry":{"type":"Point","coordinates":[30.55858,46.45833]}},
{"type":"Feature","id":"188289299","properties":{"josm":"w188289299","name":"ул. Шевченко","nameuk":"вул. Шевченко"},"geometry":{"type":"Point","coordinates":[30.57788,46.44246]}},
{"type":"Feature","id":"200763050","properties":{"josm":"w200763050","name":"Южная дорога","nameuk":"Південна дорога"},"geometry":{"type":"Point","coordinates":[30.78038,46.56134]}},
{"type":"Feature","id":"203796935","properties":{"josm":"w203796935","name":"улица Университетская","nameuk":"Університетська вулиця"},"geometry":{"type":"Point","coordinates":[37.79893,48.01419]}},
{"type":"Feature","id":"203796936","properties":{"josm":"w203796936","name":"улица Университетская","nameuk":"Університетська вулиця"},"geometry":{"type":"Point","coordinates":[37.79894,48.00861]}},
{"type":"Feature","id":"204000180","properties":{"josm":"w204000180","name":"улица Университетская","nameuk":"Університетська вулиця"},"geometry":{"type":"Point","coordinates":[37.79909,47.99934]}},
{"type":"Feature","id":"205185203","properties":{"josm":"w205185203","name":"Южная дорога","nameuk":"Південна дорога"},"geometry":{"type":"Point","coordinates":[30.78052,46.56124]}},
{"type":"Feature","id":"210554239","properties":{"josm":"w210554239","name":"Магеллана Ф. вулиця","nameuk":"Магеллана вулиця"},"geometry":{"type":"Point","coordinates":[37.99315,48.06218]}},
{"type":"Feature","id":"220886021","properties":{"josm":"w220886021","name":"40-Річчя Жовтня вулиця","nameuk":"40-річчя Жовтня вулиця"},"geometry":{"type":"Point","coordinates":[35.43983,47.93831]}},
{"type":"Feature","id":"226267792","properties":{"josm":"w226267792","name":"Gaidara street","nameuk":"вулиця Гайдара"},"geometry":{"type":"Point","coordinates":[27.00817,49.4771]}},
{"type":"Feature","id":"227460040","properties":{"josm":"w227460040","name":"ул. Черноморская","nameuk":"вул. Чорноморська"},"geometry":{"type":"Point","coordinates":[30.5602,46.45419]}},
{"type":"Feature","id":"227460043","properties":{"josm":"w227460043","name":"ул. Профсоюзная","nameuk":"вул. Профспілкова"},"geometry":{"type":"Point","coordinates":[30.56245,46.4524]}},
{"type":"Feature","id":"228045928","properties":{"josm":"w228045928","name":"Карпатська провулок","nameuk":"Карпатський провулок"},"geometry":{"type":"Point","coordinates":[32.30956,48.52201]}},
{"type":"Feature","id":"229651153","properties":{"josm":"w229651153","name":"Броварі вулиця","nameuk":"Бровари вулиця"},"geometry":{"type":"Point","coordinates":[23.82992,49.83836]}},
{"type":"Feature","id":"232315949","properties":{"josm":"w232315949","name":"Броварі вулиця","nameuk":"Бровари вулиця"},"geometry":{"type":"Point","coordinates":[23.8315,49.83785]}},
{"type":"Feature","id":"232315950","properties":{"josm":"w232315950","name":"Броварі вулиця","nameuk":"Бровари вулиця"},"geometry":{"type":"Point","coordinates":[23.82883,49.83798]}},
{"type":"Feature","id":"258734564","properties":{"josm":"w258734564","name":"Крупской улица","nameuk":"Крупська вулиця"},"geometry":{"type":"Point","coordinates":[32.767,45.36857]}},
{"type":"Feature","id":"259065920","properties":{"josm":"w259065920","name":"Карла Макргса вулиця","nameuk":"Карла Маркса вулиця"},"geometry":{"type":"Point","coordinates":[29.59481,50.69473]}},
{"type":"Feature","id":"260620816","properties":{"josm":"w260620816","name":"улица Матросова","nameuk":"Матросова вулиця"},"geometry":{"type":"Point","coordinates":[34.74448,45.44781]}},
{"type":"Feature","id":"260620840","properties":{"josm":"w260620840","name":"улица Матросова","nameuk":"Матросова вулиця"},"geometry":{"type":"Point","coordinates":[34.74344,45.4481]}},
{"type":"Feature","id":"260620841","properties":{"josm":"w260620841","name":"улица Матросова","nameuk":"Матросова вулиця"},"geometry":{"type":"Point","coordinates":[34.74159,45.44861]}},
{"type":"Feature","id":"260620851","properties":{"josm":"w260620851","name":"улица Матросова","nameuk":"Матросова вулиця"},"geometry":{"type":"Point","coordinates":[34.73895,45.44863]}},
{"type":"Feature","id":"263736875","properties":{"josm":"w263736875","name":"Sport út","nameuk":"Спортивна вулиця"},"geometry":{"type":"Point","coordinates":[22.39319,48.42632]}},
{"type":"Feature","id":"264635943","properties":{"josm":"w264635943","name":"улица Чкалова","nameuk":"Чкалова вулиця"},"geometry":{"type":"Point","coordinates":[34.29671,45.49962]}},
{"type":"Feature","id":"265039802","properties":{"josm":"w265039802","name":"2-го Вересня вулиця","nameuk":"2 Вересня вулиця"},"geometry":{"type":"Point","coordinates":[33.45912,51.85792]}},
{"type":"Feature","id":"267598137","properties":{"josm":"w267598137","name":"ДУбина вулиця","nameuk":"Дубина вулиця"},"geometry":{"type":"Point","coordinates":[24.18771,48.79231]}},
{"type":"Feature","id":"272921005","properties":{"josm":"w272921005","name":"Матяхина переулок","nameuk":"Матяхіна провулок"},"geometry":{"type":"Point","coordinates":[34.93156,45.33989]}},
{"type":"Feature","id":"278609092","properties":{"josm":"w278609092","name":"100 Років Нафтовиків вулиця","nameuk":"100 років Нафтовиків вулиця"},"geometry":{"type":"Point","coordinates":[24.5621,48.62747]}},
{"type":"Feature","id":"279050463","properties":{"josm":"w279050463","name":"Привокзальная улица","nameuk":"Добролюбова провулок"},"geometry":{"type":"Point","coordinates":[37.81388,48.59216]}},
{"type":"Feature","id":"295281340","properties":{"josm":"w295281340","name":"Чкалова улица","nameuk":"Садова вулиця"},"geometry":{"type":"Point","coordinates":[30.24314,46.44675]}},
{"type":"Feature","id":"315917350","properties":{"josm":"w315917350","name":"ул. Шевченко","nameuk":"вул. Шевченко"},"geometry":{"type":"Point","coordinates":[30.57709,46.44972]}},
{"type":"Feature","id":"315917992","properties":{"josm":"w315917992","name":"ул. Шевченко","nameuk":"вул. Шевченко"},"geometry":{"type":"Point","coordinates":[30.5795,46.43511]}},
{"type":"Feature","id":"322425998","properties":{"josm":"w322425998","name":"Перемоги","nameuk":"Перемоги вулиця"},"geometry":{"type":"Point","coordinates":[25.34411,50.39788]}},
{"type":"Feature","id":"333836079","properties":{"josm":"w333836079","name":"Дальницьке шосе","nameuk":"Стовпова вулиця"},"geometry":{"type":"Point","coordinates":[30.65927,46.47246]}},
{"type":"Feature","id":"336559661","properties":{"josm":"w336559661","name":"Горького улица","nameuk":"Горького вулиця"},"geometry":{"type":"Point","coordinates":[38.57684,47.82714]}},
{"type":"Feature","id":"336594620","properties":{"josm":"w336594620","name":"Западный переулок","nameuk":"Заводський провулок"},"geometry":{"type":"Point","coordinates":[38.47359,47.87461]}},
{"type":"Feature","id":"336594621","properties":{"josm":"w336594621","name":"Западный переулок","nameuk":"Заводський провулок"},"geometry":{"type":"Point","coordinates":[38.47208,47.87426]}},
{"type":"Feature","id":"336594652","properties":{"josm":"w336594652","name":"Советская улица","nameuk":"Радгоспна вулиця"},"geometry":{"type":"Point","coordinates":[38.48292,47.89314]}},
{"type":"Feature","id":"337792156","properties":{"josm":"w337792156","name":"Терешкова","nameuk":"Терешкова вулиця"},"geometry":{"type":"Point","coordinates":[25.84263,48.69351]}},
{"type":"Feature","id":"338941249","properties":{"josm":"w338941249","name":"Санаторная улица","nameuk":"Шкільна вулиця"},"geometry":{"type":"Point","coordinates":[33.62067,45.02752]}},
{"type":"Feature","id":"340229633","properties":{"josm":"w340229633","name":"Великобурлуцька вулиця","nameuk":"Плиткова вулиця"},"geometry":{"type":"Point","coordinates":[36.41925,49.94796]}},
{"type":"Feature","id":"343221568","properties":{"josm":"w343221568","name":"2-а Лінія","nameuk":"2-я Лінія"},"geometry":{"type":"Point","coordinates":[30.76057,50.46211]}},
{"type":"Feature","id":"344279212","properties":{"josm":"w344279212","name":"16-го Липня вулиця","nameuk":"16-го липня вулиця"},"geometry":{"type":"Point","coordinates":[24.66137,48.89262]}},
{"type":"Feature","id":"361935039","properties":{"josm":"w361935039","name":"Чкалова вулиця","nameuk":"Чкалова Вулиця"},"geometry":{"type":"Point","coordinates":[30.96363,49.0923]}},
{"type":"Feature","id":"363213217","properties":{"josm":"w363213217","name":"Броварі вулиця","nameuk":"Бровари вулиця"},"geometry":{"type":"Point","coordinates":[23.83041,49.83788]}},
{"type":"Feature","id":"363355505","properties":{"josm":"w363355505","name":"Шевченкa вулиця","nameuk":"Шевченка вулиця"},"geometry":{"type":"Point","coordinates":[30.96553,49.07392]}},
{"type":"Feature","id":"363439991","properties":{"josm":"w363439991","name":"12-та Східна вулиця","nameuk":"12-та східна вулиця"},"geometry":{"type":"Point","coordinates":[30.24563,48.72877]}},
{"type":"Feature","id":"364642151","properties":{"josm":"w364642151","name":"Котовського вулиця","nameuk":"Калініна вулиця"},"geometry":{"type":"Point","coordinates":[30.95814,49.06469]}},
{"type":"Feature","id":"365003953","properties":{"josm":"w365003953","name":"Івана Сірка провулок","nameuk":"Івана Сірка вулиця"},"geometry":{"type":"Point","coordinates":[23.85254,49.26025]}},
{"type":"Feature","id":"365475943","properties":{"josm":"w365475943","name":"Незалежності Майдан","nameuk":"Нензалежності майдан"},"geometry":{"type":"Point","coordinates":[25.13611,49.26934]}},
{"type":"Feature","id":"365507906","properties":{"josm":"w365507906","name":"Остапа Нижанківського провулок","nameuk":"Остапа Нижанківського вулиця"},"geometry":{"type":"Point","coordinates":[23.85167,49.26215]}},
{"type":"Feature","id":"366301409","properties":{"josm":"w366301409","name":"Перемоги","nameuk":"Перемоги вулиця"},"geometry":{"type":"Point","coordinates":[25.35496,50.39034]}},
{"type":"Feature","id":"369049739","properties":{"josm":"w369049739","name":"Перемоги","nameuk":"Перемоги вулиця"},"geometry":{"type":"Point","coordinates":[25.34935,50.39332]}},
{"type":"Feature","id":"369049740","properties":{"josm":"w369049740","name":"Перемоги","nameuk":"Перемоги вулиця"},"geometry":{"type":"Point","coordinates":[25.34584,50.39577]}},
{"type":"Feature","id":"370310331","properties":{"josm":"w370310331","name":"Селянська вулиця (15-я лінія)","nameuk":"Селянська вулиця"},"geometry":{"type":"Point","coordinates":[30.33604,50.55317]}},
{"type":"Feature"}
]}
