{
"type": "FeatureCollection",
"errorDescr": "Incorrect <b>name</b>-tag value",
"features": [
{"type":"Feature","id":"10503390","properties":{"josm":"w10503390","name":"улица Университетская","nameuk":"Університетська вулиця"},"geometry":{"type":"Point","coordinates":[37.79887,47.99563]}},
{"type":"Feature","id":"24520257","properties":{"josm":"w24520257","name":"улица Университетская","nameuk":"Університетська вулиця"},"geometry":{"type":"Point","coordinates":[37.79903,48.00312]}},
{"type":"Feature","id":"31505264","properties":{"josm":"w31505264","name":"Куприна вулиця","nameuk":"Купріна вулиця"},"geometry":{"type":"Point","coordinates":[30.74692,46.41052]}},
{"type":"Feature","id":"33762100","properties":{"josm":"w33762100","name":"Лукияна Січинського вулиця","nameuk":"Лукіяна Січинського вулиця"},"geometry":{"type":"Point","coordinates":[23.79938,49.83054]}},
{"type":"Feature","id":"33868373","properties":{"josm":"w33868373","name":"Мирона Тарновського вулиця","nameuk":"Мирона Тарнавського вулиця"},"geometry":{"type":"Point","coordinates":[23.83795,49.83292]}},
{"type":"Feature","id":"37678473","properties":{"josm":"w37678473","name":"Дімітрова вулиця","nameuk":"Димитрова вулиця"},"geometry":{"type":"Point","coordinates":[30.95111,50.37323]}},
{"type":"Feature","id":"38813348","properties":{"josm":"w38813348","name":"Рубанівська вулиця","nameuk":"Клапцова вулиця"},"geometry":{"type":"Point","coordinates":[36.19559,49.98244]}},
{"type":"Feature","id":"42257997","properties":{"josm":"w42257997","name":"Сабарівське шосе","nameuk":"Сабаровське шосе"},"geometry":{"type":"Point","coordinates":[28.43548,49.2082]}},
{"type":"Feature","id":"42487081","properties":{"josm":"w42487081","name":"Героїв Чорнобиля вулиця","nameuk":"Жовтнева вулиця"},"geometry":{"type":"Point","coordinates":[31.43696,49.28696]}},
{"type":"Feature","id":"42487091","properties":{"josm":"w42487091","name":"1-го Травня вулиця","nameuk":"1-го Грудня вулиця"},"geometry":{"type":"Point","coordinates":[31.44792,49.29291]}},
{"type":"Feature","id":"43513830","properties":{"josm":"w43513830","name":"Совєтська вулиця","nameuk":"Радянська вулиця"},"geometry":{"type":"Point","coordinates":[38.22075,49.04596]}},
{"type":"Feature","id":"76858025","properties":{"josm":"w76858025","name":"1-я лінія","nameuk":"1-а лінія"},"geometry":{"type":"Point","coordinates":[30.81517,50.61811]}},
{"type":"Feature","id":"76858269","properties":{"josm":"w76858269","name":"2-я лінія","nameuk":"2-а лінія"},"geometry":{"type":"Point","coordinates":[30.81434,50.61843]}},
{"type":"Feature","id":"82714423","properties":{"josm":"w82714423","name":"Ясенова вулиця","nameuk":"Ясенoва вулиця"},"geometry":{"type":"Point","coordinates":[25.29535,50.74429]}},
{"type":"Feature","id":"83296600","properties":{"josm":"w83296600","name":"Чонгарский мост","nameuk":"Чонгарський міст"},"geometry":{"type":"Point","coordinates":[34.55253,45.98796]}},
{"type":"Feature","id":"90369463","properties":{"josm":"w90369463","name":"Постишєва вулиця","nameuk":"Сонячна вулиця"},"geometry":{"type":"Point","coordinates":[36.14399,50.09911]}},
{"type":"Feature","id":"108127184","properties":{"josm":"w108127184","name":"Селянська вулиця (15-я лінія)","nameuk":"Селянська вулиця"},"geometry":{"type":"Point","coordinates":[30.33725,50.55382]}},
{"type":"Feature","id":"110279276","properties":{"josm":"w110279276","name":"Братьев Михеевых улица","nameuk":"Братів Міхєєвих вулиця"},"geometry":{"type":"Point","coordinates":[28.58655,49.87562]}},
{"type":"Feature","id":"111621239","properties":{"josm":"w111621239","name":"Советская улица","nameuk":"Радгоспна вулиця"},"geometry":{"type":"Point","coordinates":[38.28168,47.81092]}},
{"type":"Feature","id":"111810910","properties":{"josm":"w111810910","name":"Жуковського вулиця","nameuk":"Желєзнякова вулиця"},"geometry":{"type":"Point","coordinates":[35.38866,46.8751]}},
{"type":"Feature","id":"115466741","properties":{"josm":"w115466741","name":"Советская улица","nameuk":"Радгоспна вулиця"},"geometry":{"type":"Point","coordinates":[38.19639,47.78267]}},
{"type":"Feature","id":"119132920","properties":{"josm":"w119132920","name":"ХХІ Партзїзду вулиця","nameuk":"Балашовська вулиця"},"geometry":{"type":"Point","coordinates":[35.93625,48.4936]}},
{"type":"Feature","id":"121523047","properties":{"josm":"w121523047","name":"Ясенова вулиця","nameuk":"Ясенoва вулиця"},"geometry":{"type":"Point","coordinates":[25.29508,50.74607]}},
{"type":"Feature","id":"126735022","properties":{"josm":"w126735022","name":"Центральна вулиця","nameuk":"Леніна вулиця"},"geometry":{"type":"Point","coordinates":[30.45719,48.38905]}},
{"type":"Feature","id":"136115682","properties":{"josm":"w136115682","name":"2-й Баштанский переулок","nameuk":"2-й Баштанський провулок"},"geometry":{"type":"Point","coordinates":[32.05401,46.96212]}},
{"type":"Feature","id":"148112944","properties":{"josm":"w148112944","name":"Щорса вулиця (стор. пос.Дослідної ст.), Степова ввулиця (стор. с.Вигода)","nameuk":"Щорса вулиця"},"geometry":{"type":"Point","coordinates":[30.39234,46.60883]}},
{"type":"Feature","id":"148826918","properties":{"josm":"w148826918","name":"Веселая улица","nameuk":"Весела вулиця"},"geometry":{"type":"Point","coordinates":[32.53732,45.3766]}},
{"type":"Feature","id":"150431029","properties":{"josm":"w150431029","name":"20 років Міліції вулиця","nameuk":"20 років міліції вулиця"},"geometry":{"type":"Point","coordinates":[32.26615,48.49447]}},
{"type":"Feature","id":"155861824","properties":{"josm":"w155861824","name":"ул. Ленина","nameuk":"вул. Леніна"},"geometry":{"type":"Point","coordinates":[30.55065,46.48445]}},
{"type":"Feature","id":"169690831","properties":{"josm":"w169690831","name":"50 лет образования СССР","nameuk":"50 років утворення СРСР вулиця"},"geometry":{"type":"Point","coordinates":[37.96781,48.10117]}},
{"type":"Feature","id":"169690833","properties":{"josm":"w169690833","name":"50 лет образования СССР","nameuk":"50 років утворення СРСР вулиця"},"geometry":{"type":"Point","coordinates":[37.96045,48.09963]}},
{"type":"Feature","id":"169690835","properties":{"josm":"w169690835","name":"50 лет образования СССР","nameuk":"50 років утворення СРСР вулиця"},"geometry":{"type":"Point","coordinates":[37.96043,48.09978]}},
{"type":"Feature","id":"169690836","properties":{"josm":"w169690836","name":"ул. Богдана Хмельницкого","nameuk":"Богдана Хмельницького вулиця"},"geometry":{"type":"Point","coordinates":[37.96536,48.09766]}},
{"type":"Feature","id":"171633340","properties":{"josm":"w171633340","name":"Верхньошевченківський провулок","nameuk":"Верхнешевченківский провулок"},"geometry":{"type":"Point","coordinates":[37.17433,48.41055]}},
{"type":"Feature","id":"174312303","properties":{"josm":"w174312303","name":"Шевченкa вулиця","nameuk":"Шевченка вулиця"},"geometry":{"type":"Point","coordinates":[30.96716,49.07628]}},
{"type":"Feature","id":"175083114","properties":{"josm":"w175083114","name":"Рози Люксембург переулок","nameuk":"Рози Люксембург вулиця"},"geometry":{"type":"Point","coordinates":[38.56009,48.85844]}},
{"type":"Feature","id":"177229958","properties":{"josm":"w177229958","name":"Зиґзаґ вулиця","nameuk":"Зигзаг вулиця"},"geometry":{"type":"Point","coordinates":[23.98225,49.83129]}},
{"type":"Feature","id":"180916997","properties":{"josm":"w180916997","name":"улица Университетская","nameuk":"Університетська вулиця"},"geometry":{"type":"Point","coordinates":[37.79865,47.99235]}},
{"type":"Feature","id":"183666170","properties":{"josm":"w183666170","name":"Скелевая улица","nameuk":"Смирнова вулиця"},"geometry":{"type":"Point","coordinates":[38.47919,47.89175]}},
{"type":"Feature","id":"188152176","properties":{"josm":"w188152176","name":"Журавлинна вулиця","nameuk":"Журавлина вулиця"},"geometry":{"type":"Point","coordinates":[23.86944,49.83497]}},
{"type":"Feature","id":"188287368","properties":{"josm":"w188287368","name":"ул. 2-я Сортоиспытательная","nameuk":"вул. 2-я Сортовипробувальна"},"geometry":{"type":"Point","coordinates":[30.56051,46.45858]}},
{"type":"Feature","id":"188287407","properties":{"josm":"w188287407","name":"ул. Черноморская","nameuk":"вул. Чорноморська"},"geometry":{"type":"Point","coordinates":[30.55858,46.45833]}},
{"type":"Feature","id":"188289094","properties":{"josm":"w188289094","name":"Прилюка Улица","nameuk":"Вулиця Прилюка"},"geometry":{"type":"Point","coordinates":[27.42401,49.2726]}},
{"type":"Feature","id":"188289104","properties":{"josm":"w188289104","name":"Пионерский переулок","nameuk":"Піонерский провулок"},"geometry":{"type":"Point","coordinates":[27.42805,49.26977]}},
{"type":"Feature","id":"188289125","properties":{"josm":"w188289125","name":"Слобода улица","nameuk":"Вулиця Слобода"},"geometry":{"type":"Point","coordinates":[27.4326,49.27163]}},
{"type":"Feature","id":"188289299","properties":{"josm":"w188289299","name":"ул. Шевченко","nameuk":"вул. Шевченко"},"geometry":{"type":"Point","coordinates":[30.57788,46.44246]}},
{"type":"Feature","id":"198140836","properties":{"josm":"w198140836","name":"Привокзальная улица","nameuk":"Привокзальна вулиця"},"geometry":{"type":"Point","coordinates":[35.35753,47.80868]}},
{"type":"Feature","id":"198140839","properties":{"josm":"w198140839","name":"Привокзальная улица","nameuk":"Привокзальна вулиця"},"geometry":{"type":"Point","coordinates":[35.36207,47.80977]}},
{"type":"Feature","id":"200763050","properties":{"josm":"w200763050","name":"Южная дорога","nameuk":"Південна дорога"},"geometry":{"type":"Point","coordinates":[30.78038,46.56134]}},
{"type":"Feature","id":"203796935","properties":{"josm":"w203796935","name":"улица Университетская","nameuk":"Університетська вулиця"},"geometry":{"type":"Point","coordinates":[37.79893,48.01419]}},
{"type":"Feature","id":"203796936","properties":{"josm":"w203796936","name":"улица Университетская","nameuk":"Університетська вулиця"},"geometry":{"type":"Point","coordinates":[37.79894,48.00861]}},
{"type":"Feature","id":"204000180","properties":{"josm":"w204000180","name":"улица Университетская","nameuk":"Університетська вулиця"},"geometry":{"type":"Point","coordinates":[37.79909,47.99934]}},
{"type":"Feature","id":"205185203","properties":{"josm":"w205185203","name":"Южная дорога","nameuk":"Південна дорога"},"geometry":{"type":"Point","coordinates":[30.78052,46.56124]}},
{"type":"Feature","id":"210554239","properties":{"josm":"w210554239","name":"Магеллана Ф. вулиця","nameuk":"Магеллана вулиця"},"geometry":{"type":"Point","coordinates":[37.99315,48.06218]}},
{"type":"Feature","id":"219894577","properties":{"josm":"w219894577","name":"ул. Гагарина","nameuk":"вулиця Гагаріна"},"geometry":{"type":"Point","coordinates":[27.46008,49.26523]}},
{"type":"Feature","id":"219894581","properties":{"josm":"w219894581","name":"Ул. Стрелецкого","nameuk":"Вулиця Стрілецького"},"geometry":{"type":"Point","coordinates":[27.45803,49.26613]}},
{"type":"Feature","id":"219894585","properties":{"josm":"w219894585","name":"Козацкая Ул.","nameuk":"Козацька вулиця"},"geometry":{"type":"Point","coordinates":[27.45633,49.26671]}},
{"type":"Feature","id":"219894586","properties":{"josm":"w219894586","name":"Пионерский переулок","nameuk":"Піонерский провулок"},"geometry":{"type":"Point","coordinates":[27.42971,49.27001]}},
{"type":"Feature","id":"226267792","properties":{"josm":"w226267792","name":"Gaidara street","nameuk":"вулиця Гайдара"},"geometry":{"type":"Point","coordinates":[27.00817,49.4771]}},
{"type":"Feature","id":"227460040","properties":{"josm":"w227460040","name":"ул. Черноморская","nameuk":"вул. Чорноморська"},"geometry":{"type":"Point","coordinates":[30.5602,46.45419]}},
{"type":"Feature","id":"227460043","properties":{"josm":"w227460043","name":"ул. Профсоюзная","nameuk":"вул. Профспілкова"},"geometry":{"type":"Point","coordinates":[30.56245,46.4524]}},
{"type":"Feature","id":"228045928","properties":{"josm":"w228045928","name":"Карпатська провулок","nameuk":"Карпатський провулок"},"geometry":{"type":"Point","coordinates":[32.30956,48.52201]}},
{"type":"Feature","id":"229651153","properties":{"josm":"w229651153","name":"Броварі вулиця","nameuk":"Бровари вулиця"},"geometry":{"type":"Point","coordinates":[23.82992,49.83836]}},
{"type":"Feature","id":"232315949","properties":{"josm":"w232315949","name":"Броварі вулиця","nameuk":"Бровари вулиця"},"geometry":{"type":"Point","coordinates":[23.8315,49.83785]}},
{"type":"Feature","id":"232315950","properties":{"josm":"w232315950","name":"Броварі вулиця","nameuk":"Бровари вулиця"},"geometry":{"type":"Point","coordinates":[23.82883,49.83798]}},
{"type":"Feature","id":"247036580","properties":{"josm":"w247036580","name":"Zvyazkivtsiv Street","nameuk":"Зв'язківців"},"geometry":{"type":"Point","coordinates":[26.98877,49.44545]}},
{"type":"Feature","id":"254263620","properties":{"josm":"w254263620","name":"вулиця Нагрощина","nameuk":"Нагрощина"},"geometry":{"type":"Point","coordinates":[25.35146,50.39506]}},
{"type":"Feature","id":"258734564","properties":{"josm":"w258734564","name":"Крупской улица","nameuk":"Крупська вулиця"},"geometry":{"type":"Point","coordinates":[32.767,45.36857]}},
{"type":"Feature","id":"259065920","properties":{"josm":"w259065920","name":"Карла Макргса вулиця","nameuk":"Карла Маркса вулиця"},"geometry":{"type":"Point","coordinates":[29.59481,50.69473]}},
{"type":"Feature","id":"260647558","properties":{"josm":"w260647558","name":"Коммунальная улица","nameuk":"Комунальна вулиця"},"geometry":{"type":"Point","coordinates":[34.73338,45.44689]}},
{"type":"Feature","id":"263736875","properties":{"josm":"w263736875","name":"Sport út","nameuk":"Спортивна вулиця"},"geometry":{"type":"Point","coordinates":[22.39319,48.42632]}},
{"type":"Feature","id":"267598137","properties":{"josm":"w267598137","name":"ДУбина вулиця","nameuk":"Дубина вулиця"},"geometry":{"type":"Point","coordinates":[24.18771,48.79231]}},
{"type":"Feature","id":"272921005","properties":{"josm":"w272921005","name":"Матяхина переулок","nameuk":"Матяхіна провулок"},"geometry":{"type":"Point","coordinates":[34.93156,45.33989]}},
{"type":"Feature","id":"278922286","properties":{"josm":"w278922286","name":"XX Партз'їзду вулиця","nameuk":"XX Партз’їзду вулиця"},"geometry":{"type":"Point","coordinates":[37.72135,47.17541]}},
{"type":"Feature","id":"279050463","properties":{"josm":"w279050463","name":"Привокзальная улица","nameuk":"Добролюбова провулок"},"geometry":{"type":"Point","coordinates":[37.81388,48.59216]}},
{"type":"Feature","id":"281113632","properties":{"josm":"w281113632","name":"Ул. Криничная","nameuk":"вул. Кринична"},"geometry":{"type":"Point","coordinates":[27.46333,49.26584]}},
{"type":"Feature","id":"281113648","properties":{"josm":"w281113648","name":"Ул. Горького","nameuk":"вулиця Горького"},"geometry":{"type":"Point","coordinates":[27.46218,49.26478]}},
{"type":"Feature","id":"292713173","properties":{"josm":"w292713173","name":"Соборна вулиця","nameuk":"3-го Інтернаціонала вулиця"},"geometry":{"type":"Point","coordinates":[30.24807,50.5002]}},
{"type":"Feature","id":"315917350","properties":{"josm":"w315917350","name":"ул. Шевченко","nameuk":"вул. Шевченко"},"geometry":{"type":"Point","coordinates":[30.57709,46.44972]}},
{"type":"Feature","id":"315917992","properties":{"josm":"w315917992","name":"ул. Шевченко","nameuk":"вул. Шевченко"},"geometry":{"type":"Point","coordinates":[30.5795,46.43511]}},
{"type":"Feature","id":"322425998","properties":{"josm":"w322425998","name":"Перемоги","nameuk":"Перемоги вулиця"},"geometry":{"type":"Point","coordinates":[25.34733,50.39507]}},
{"type":"Feature","id":"336559661","properties":{"josm":"w336559661","name":"Горького улица","nameuk":"Горького вулиця"},"geometry":{"type":"Point","coordinates":[38.57684,47.82714]}},
{"type":"Feature","id":"336594620","properties":{"josm":"w336594620","name":"Западный переулок","nameuk":"Заводський провулок"},"geometry":{"type":"Point","coordinates":[38.47359,47.87461]}},
{"type":"Feature","id":"336594621","properties":{"josm":"w336594621","name":"Западный переулок","nameuk":"Заводський провулок"},"geometry":{"type":"Point","coordinates":[38.47208,47.87426]}},
{"type":"Feature","id":"336594652","properties":{"josm":"w336594652","name":"Советская улица","nameuk":"Радгоспна вулиця"},"geometry":{"type":"Point","coordinates":[38.48292,47.89314]}},
{"type":"Feature","id":"337792156","properties":{"josm":"w337792156","name":"Терешкова","nameuk":"Терешкова вулиця"},"geometry":{"type":"Point","coordinates":[25.84263,48.69351]}},
{"type":"Feature","id":"338941249","properties":{"josm":"w338941249","name":"Санаторная улица","nameuk":"Шкільна вулиця"},"geometry":{"type":"Point","coordinates":[33.62067,45.02752]}},
{"type":"Feature","id":"341897964","properties":{"josm":"w341897964","name":"?? Василя Іванишина вулиця ??","nameuk":"Василя Іванишина вулиця"},"geometry":{"type":"Point","coordinates":[23.48852,49.36006]}},
{"type":"Feature","id":"360023216","properties":{"josm":"w360023216","name":"1-го Травня вулиця","nameuk":"1-го Грудня вулиця"},"geometry":{"type":"Point","coordinates":[31.45715,49.30654]}},
{"type":"Feature","id":"361935039","properties":{"josm":"w361935039","name":"Чкалова вулиця","nameuk":"Чкалова Вулиця"},"geometry":{"type":"Point","coordinates":[30.96363,49.0923]}},
{"type":"Feature","id":"362052222","properties":{"josm":"w362052222","name":"Совхозная улица","nameuk":"Радгоспна вулиця"},"geometry":{"type":"Point","coordinates":[35.36754,47.80949]}},
{"type":"Feature","id":"362053507","properties":{"josm":"w362053507","name":"Садовая улица","nameuk":"Садова вулиця"},"geometry":{"type":"Point","coordinates":[35.36067,47.8045]}},
{"type":"Feature","id":"362053508","properties":{"josm":"w362053508","name":"Шевченко улица","nameuk":"Шевченка вулиця"},"geometry":{"type":"Point","coordinates":[35.3622,47.80286]}},
{"type":"Feature","id":"362055042","properties":{"josm":"w362055042","name":"Строителей улица","nameuk":"Будівельників вулиця"},"geometry":{"type":"Point","coordinates":[35.3579,47.81236]}},
{"type":"Feature","id":"362668327","properties":{"josm":"w362668327","name":"Верстатобудівників вулиця","nameuk":"Балашовська вулиця"},"geometry":{"type":"Point","coordinates":[35.93436,48.49311]}},
{"type":"Feature","id":"363213217","properties":{"josm":"w363213217","name":"Броварі вулиця","nameuk":"Бровари вулиця"},"geometry":{"type":"Point","coordinates":[23.83041,49.83788]}},
{"type":"Feature","id":"363355505","properties":{"josm":"w363355505","name":"Шевченкa вулиця","nameuk":"Шевченка вулиця"},"geometry":{"type":"Point","coordinates":[30.96553,49.07392]}},
{"type":"Feature","id":"364642151","properties":{"josm":"w364642151","name":"Котовського вулиця","nameuk":"Калініна вулиця"},"geometry":{"type":"Point","coordinates":[30.95814,49.06469]}},
{"type":"Feature","id":"365003953","properties":{"josm":"w365003953","name":"Івана Сірка провулок","nameuk":"Івана Сірка вулиця"},"geometry":{"type":"Point","coordinates":[23.85254,49.26025]}},
{"type":"Feature","id":"365475943","properties":{"josm":"w365475943","name":"Незалежності Майдан","nameuk":"Нензалежності майдан"},"geometry":{"type":"Point","coordinates":[25.13611,49.26934]}},
{"type":"Feature","id":"365507906","properties":{"josm":"w365507906","name":"Остапа Нижанківського провулок","nameuk":"Остапа Нижанківського вулиця"},"geometry":{"type":"Point","coordinates":[23.85167,49.26215]}},
{"type":"Feature","id":"366301409","properties":{"josm":"w366301409","name":"Перемоги","nameuk":"Перемоги вулиця"},"geometry":{"type":"Point","coordinates":[25.35496,50.39034]}},
{"type":"Feature","id":"368128721","properties":{"josm":"w368128721","name":"Барская улица","nameuk":"Барська вулиця"},"geometry":{"type":"Point","coordinates":[27.42235,49.26514]}},
{"type":"Feature","id":"368131148","properties":{"josm":"w368131148","name":"Ул. Леси Украинки","nameuk":"Лесі Українки вул."},"geometry":{"type":"Point","coordinates":[27.42699,49.27093]}},
{"type":"Feature","id":"368165108","properties":{"josm":"w368165108","name":"Московський провулок","nameuk":"Московский переулок"},"geometry":{"type":"Point","coordinates":[34.80987,46.16992]}},
{"type":"Feature","id":"368439058","properties":{"josm":"w368439058","name":"Ул. Туза","nameuk":"Вул. Туза"},"geometry":{"type":"Point","coordinates":[27.43157,49.26967]}},
{"type":"Feature","id":"368474766","properties":{"josm":"w368474766","name":"Слобода улица","nameuk":"Вулиця Слобода"},"geometry":{"type":"Point","coordinates":[27.45325,49.2687]}},
{"type":"Feature","id":"368603293","properties":{"josm":"w368603293","name":"Примакова улица","nameuk":"Примакова вулиця"},"geometry":{"type":"Point","coordinates":[27.42056,49.26597]}},
{"type":"Feature","id":"368603295","properties":{"josm":"w368603295","name":"Барская улица","nameuk":"Барська вулиця"},"geometry":{"type":"Point","coordinates":[27.41975,49.26524]}},
{"type":"Feature"}
]}
