{
"type": "FeatureCollection",
"errorDescr": "Incorrect <b>name</b>-tag value",
"features": [
{"type":"Feature","id":"23757595","properties":{"josm":"w23757595","name":"майдан Павловський","nameuk":"Павловська площа"},"geometry":{"type":"Point","coordinates":[36.22773,49.98743]}},
{"type":"Feature","id":"23861941","properties":{"josm":"w23861941","name":"майдан Павловський","nameuk":"Павловська площа"},"geometry":{"type":"Point","coordinates":[36.23152,49.98804]}},
{"type":"Feature","id":"25674391","properties":{"josm":"w25674391","name":"Вулиця Миру","nameuk":"Улица Мира"},"geometry":{"type":"Point","coordinates":[37.99886,48.59431]}},
{"type":"Feature","id":"29110731","properties":{"josm":"w29110731","name":"Оскольська вулиця","nameuk":"Індустріальний проспект"},"geometry":{"type":"Point","coordinates":[36.38993,49.95617]}},
{"type":"Feature","id":"30173400","properties":{"josm":"w30173400","name":"Лозовеньківський проспект","nameuk":"Окружна дорога"},"geometry":{"type":"Point","coordinates":[36.18046,50.05363]}},
{"type":"Feature","id":"31526969","properties":{"josm":"w31526969","name":"Измаильская улица","nameuk":"Ізмаїльська вулиця"},"geometry":{"type":"Point","coordinates":[30.69979,46.37175]}},
{"type":"Feature","id":"31526975","properties":{"josm":"w31526975","name":"Институтская улица","nameuk":"Інститутська вулиця"},"geometry":{"type":"Point","coordinates":[30.70066,46.37729]}},
{"type":"Feature","id":"31526977","properties":{"josm":"w31526977","name":"Берёзовая улица","nameuk":"Березова вулиця"},"geometry":{"type":"Point","coordinates":[30.70058,46.38127]}},
{"type":"Feature","id":"31527021","properties":{"josm":"w31527021","name":"Арцизская улица","nameuk":"Арцизька вулиця"},"geometry":{"type":"Point","coordinates":[30.69995,46.37142]}},
{"type":"Feature","id":"33792915","properties":{"josm":"w33792915","name":"Площадь Ленина","nameuk":"Площа Леніна"},"geometry":{"type":"Point","coordinates":[35.25617,48.63399]}},
{"type":"Feature","id":"34080124","properties":{"josm":"w34080124","name":"Карякінська вулиця","nameuk":"Ростовська вулиця"},"geometry":{"type":"Point","coordinates":[36.28262,50.01174]}},
{"type":"Feature","id":"34497738","properties":{"josm":"w34497738","name":"3-й Зерновой проезд","nameuk":"3-й Зерновий проїзд"},"geometry":{"type":"Point","coordinates":[36.27116,49.95139]}},
{"type":"Feature","id":"34679755","properties":{"josm":"w34679755","name":"Терихівська вулиця","nameuk":"Скорохода вулиця"},"geometry":{"type":"Point","coordinates":[36.18191,49.99515]}},
{"type":"Feature","id":"34699688","properties":{"josm":"w34699688","name":"Андріївська вулиця","nameuk":"Кубасова вулиця"},"geometry":{"type":"Point","coordinates":[36.19547,50.0011]}},
{"type":"Feature","id":"34702212","properties":{"josm":"w34702212","name":"Велика Панасівська вулиця","nameuk":"Котлова вулиця"},"geometry":{"type":"Point","coordinates":[36.20518,49.99829]}},
{"type":"Feature","id":"34838171","properties":{"josm":"w34838171","name":"Міщенковська вулиця","nameuk":"Лісова вулиця"},"geometry":{"type":"Point","coordinates":[36.26368,50.09211]}},
{"type":"Feature","id":"34838612","properties":{"josm":"w34838612","name":"Юрія Кондратюка провулок","nameuk":"Івана Кулика в’їзд"},"geometry":{"type":"Point","coordinates":[36.29206,50.04103]}},
{"type":"Feature","id":"38169952","properties":{"josm":"w38169952","name":"Симферопольское шоссе 2","nameuk":"Сімферопольське шосе"},"geometry":{"type":"Point","coordinates":[34.20098,44.51376]}},
{"type":"Feature","id":"38240751","properties":{"josm":"w38240751","name":"майдан Павловський","nameuk":"Павловська площа"},"geometry":{"type":"Point","coordinates":[36.22857,49.98722]}},
{"type":"Feature","id":"38651053","properties":{"josm":"w38651053","name":"Тимірязєва провулок","nameuk":"Тимирязєва провулок"},"geometry":{"type":"Point","coordinates":[32.08118,49.41898]}},
{"type":"Feature","id":"53629224","properties":{"josm":"w53629224","name":"Швейцарська вулиця","nameuk":"Дзержинського вулиця"},"geometry":{"type":"Point","coordinates":[30.37544,46.14156]}},
{"type":"Feature","id":"83296600","properties":{"josm":"w83296600","name":"Чонгарский мост","nameuk":"Чонгарський міст"},"geometry":{"type":"Point","coordinates":[34.55253,45.98796]}},
{"type":"Feature","id":"85851041","properties":{"josm":"w85851041","name":"Козацький шлях вулиця","nameuk":"Куйбишева вулиця"},"geometry":{"type":"Point","coordinates":[33.09136,48.66948]}},
{"type":"Feature","id":"86463430","properties":{"josm":"w86463430","name":"Терихівська вулиця","nameuk":"Скорохода вулиця"},"geometry":{"type":"Point","coordinates":[36.18417,49.99402]}},
{"type":"Feature","id":"86859486","properties":{"josm":"w86859486","name":"Колійний провулок","nameuk":"Піщаний провулок"},"geometry":{"type":"Point","coordinates":[36.24212,49.95272]}},
{"type":"Feature","id":"89529678","properties":{"josm":"w89529678","name":"Велика Панасівська вулиця","nameuk":"Котлова вулиця"},"geometry":{"type":"Point","coordinates":[36.17757,50.03779]}},
{"type":"Feature","id":"96584416","properties":{"josm":"w96584416","name":"Соборний проспект","nameuk":"Леніна проспект"},"geometry":{"type":"Point","coordinates":[33.11235,48.68805]}},
{"type":"Feature","id":"102008331","properties":{"josm":"w102008331","name":"улица Инам","nameuk":"Інан вулиця"},"geometry":{"type":"Point","coordinates":[34.0918,44.89976]}},
{"type":"Feature","id":"102008347","properties":{"josm":"w102008347","name":"улица Инам","nameuk":"Інан вулиця"},"geometry":{"type":"Point","coordinates":[34.09263,44.89679]}},
{"type":"Feature","id":"106089998","properties":{"josm":"w106089998","name":"11-а Лінія","nameuk":"11-а лінія"},"geometry":{"type":"Point","coordinates":[30.27181,50.54138]}},
{"type":"Feature","id":"109582437","properties":{"josm":"w109582437","name":"Восьмого Березня вулиця","nameuk":"Першої Маївки вулиця"},"geometry":{"type":"Point","coordinates":[36.20954,49.99917]}},
{"type":"Feature","id":"114975730","properties":{"josm":"w114975730","name":"Покровська площа","nameuk":"Кірова площа"},"geometry":{"type":"Point","coordinates":[33.11436,48.68356]}},
{"type":"Feature","id":"118421843","properties":{"josm":"w118421843","name":"Черноморская улица","nameuk":"Чорноморська вулиця"},"geometry":{"type":"Point","coordinates":[30.46371,46.06965]}},
{"type":"Feature","id":"120418169","properties":{"josm":"w120418169","name":"Велика Панасівська вулиця","nameuk":"Котлова вулиця"},"geometry":{"type":"Point","coordinates":[36.18907,50.0215]}},
{"type":"Feature","id":"120418172","properties":{"josm":"w120418172","name":"Бориса Шрамка вулиця","nameuk":"Дацька вулиця"},"geometry":{"type":"Point","coordinates":[36.19789,50.00453]}},
{"type":"Feature","id":"120418930","properties":{"josm":"w120418930","name":"Велика Панасівська вулиця","nameuk":"Котлова вулиця"},"geometry":{"type":"Point","coordinates":[36.21509,49.99366]}},
{"type":"Feature","id":"121111951","properties":{"josm":"w121111951","name":"Софіївська вулиця","nameuk":"Луначарського вулиця"},"geometry":{"type":"Point","coordinates":[33.12035,48.66649]}},
{"type":"Feature","id":"121111956","properties":{"josm":"w121111956","name":"Григорія Усика вулиця","nameuk":"Червоноармійська вулиця"},"geometry":{"type":"Point","coordinates":[33.12448,48.67187]}},
{"type":"Feature","id":"121115889","properties":{"josm":"w121115889","name":"Святомиколаївська вулиця","nameuk":"Пролетарська вулиця"},"geometry":{"type":"Point","coordinates":[33.11342,48.66942]}},
{"type":"Feature","id":"121115893","properties":{"josm":"w121115893","name":"Студентська вулиця","nameuk":"Червоностудентська вулиця"},"geometry":{"type":"Point","coordinates":[33.1165,48.68156]}},
{"type":"Feature","id":"121115896","properties":{"josm":"w121115896","name":"провулок","nameuk":"Калініна вулиця"},"geometry":{"type":"Point","coordinates":[33.12329,48.6587]}},
{"type":"Feature","id":"121117051","properties":{"josm":"w121117051","name":"Кам'яна вулиця","nameuk":"Сакко і Ванцетті вулиця; Мурманський провулок"},"geometry":{"type":"Point","coordinates":[33.1038,48.68824]}},
{"type":"Feature","id":"121117054","properties":{"josm":"w121117054","name":"Покровська площа","nameuk":"Кірова площа"},"geometry":{"type":"Point","coordinates":[33.11163,48.68636]}},
{"type":"Feature","id":"121117067","properties":{"josm":"w121117067","name":"Івана Чиркіна вулиця","nameuk":"20 років Жовтня вулиця"},"geometry":{"type":"Point","coordinates":[33.11229,48.67908]}},
{"type":"Feature","id":"121791109","properties":{"josm":"w121791109","name":"Оскольська вулиця","nameuk":"Індустріальний проспект"},"geometry":{"type":"Point","coordinates":[36.39392,49.96641]}},
{"type":"Feature","id":"123764084","properties":{"josm":"w123764084","name":"Садовая вулица","nameuk":"Садова вулиця"},"geometry":{"type":"Point","coordinates":[38.90477,48.49612]}},
{"type":"Feature","id":"124197826","properties":{"josm":"w124197826","name":"Мар'ївський провулок","nameuk":"Котовського провулок"},"geometry":{"type":"Point","coordinates":[33.10445,48.68996]}},
{"type":"Feature","id":"124197829","properties":{"josm":"w124197829","name":"Соборний проспект","nameuk":"Леніна проспект"},"geometry":{"type":"Point","coordinates":[33.11614,48.67407]}},
{"type":"Feature","id":"124197830","properties":{"josm":"w124197830","name":"Соборний проспект","nameuk":"Леніна проспект"},"geometry":{"type":"Point","coordinates":[33.11873,48.66176]}},
{"type":"Feature","id":"124197832","properties":{"josm":"w124197832","name":"Соборний проспект","nameuk":"Леніна проспект"},"geometry":{"type":"Point","coordinates":[33.11858,48.66176]}},
{"type":"Feature","id":"124197841","properties":{"josm":"w124197841","name":"Бессарабська вулиця","nameuk":"Енгельса вулиця"},"geometry":{"type":"Point","coordinates":[33.10518,48.68481]}},
{"type":"Feature","id":"124197844","properties":{"josm":"w124197844","name":"Соборна площа","nameuk":"Леніна площа"},"geometry":{"type":"Point","coordinates":[33.11705,48.67026]}},
{"type":"Feature","id":"124197847","properties":{"josm":"w124197847","name":"Соборний проспект","nameuk":"Леніна проспект"},"geometry":{"type":"Point","coordinates":[33.11531,48.67754]}},
{"type":"Feature","id":"124197849","properties":{"josm":"w124197849","name":"Перспективна вулиця","nameuk":"50 років Жовтня вулиця"},"geometry":{"type":"Point","coordinates":[33.11982,48.66897]}},
{"type":"Feature","id":"124197850","properties":{"josm":"w124197850","name":"Григорія Усика вулиця","nameuk":"Червоноармійська вулиця"},"geometry":{"type":"Point","coordinates":[33.11295,48.67055]}},
{"type":"Feature","id":"126735022","properties":{"josm":"w126735022","name":"Соборна вулиця","nameuk":"Центральна вулиця"},"geometry":{"type":"Point","coordinates":[30.45719,48.38906]}},
{"type":"Feature","id":"126776302","properties":{"josm":"w126776302","name":"Затишна вулиця","nameuk":"Будьонного вулиця"},"geometry":{"type":"Point","coordinates":[30.44948,48.38732]}},
{"type":"Feature","id":"126998341","properties":{"josm":"w126998341","name":"Пірогова вулиця","nameuk":"Пирогова вулиця"},"geometry":{"type":"Point","coordinates":[30.4728,48.38245]}},
{"type":"Feature","id":"128976367","properties":{"josm":"w128976367","name":"Коцюбинского","nameuk":"Коцюбинського"},"geometry":{"type":"Point","coordinates":[32.73893,46.68151]}},
{"type":"Feature","id":"131630898","properties":{"josm":"w131630898","name":"Велика Панасівська вулиця","nameuk":"Котлова вулиця"},"geometry":{"type":"Point","coordinates":[36.21102,49.99644]}},
{"type":"Feature","id":"131630899","properties":{"josm":"w131630899","name":"Велика Панасівська вулиця","nameuk":"Котлова вулиця"},"geometry":{"type":"Point","coordinates":[36.20172,50.00273]}},
{"type":"Feature","id":"131630900","properties":{"josm":"w131630900","name":"Велика Панасівська вулиця","nameuk":"Котлова вулиця"},"geometry":{"type":"Point","coordinates":[36.20572,49.99775]}},
{"type":"Feature","id":"131670492","properties":{"josm":"w131670492","name":"Велика Панасівська вулиця","nameuk":"Котлова вулиця"},"geometry":{"type":"Point","coordinates":[36.21064,49.99661]}},
{"type":"Feature","id":"131860045","properties":{"josm":"w131860045","name":"Соняшникова вулиця","nameuk":"Балашівська вулиця"},"geometry":{"type":"Point","coordinates":[38.36614,48.94955]}},
{"type":"Feature","id":"134690294","properties":{"josm":"w134690294","name":"Соняшникова вулиця","nameuk":"Балашівська вулиця"},"geometry":{"type":"Point","coordinates":[38.36765,48.94872]}},
{"type":"Feature","id":"135266760","properties":{"josm":"w135266760","name":"Бульварна вулиця","nameuk":"Свердлова вулиця"},"geometry":{"type":"Point","coordinates":[33.12196,48.67507]}},
{"type":"Feature","id":"135266761","properties":{"josm":"w135266761","name":"Бульварна вулиця","nameuk":"Свердлова вулиця"},"geometry":{"type":"Point","coordinates":[33.11347,48.67414]}},
{"type":"Feature","id":"135266763","properties":{"josm":"w135266763","name":"Таврійська вулиця","nameuk":"Примакова вулиця"},"geometry":{"type":"Point","coordinates":[33.11301,48.66737]}},
{"type":"Feature","id":"135269981","properties":{"josm":"w135269981","name":"Таврійська вулиця","nameuk":"Примакова вулиця"},"geometry":{"type":"Point","coordinates":[33.11897,48.67285]}},
{"type":"Feature","id":"135271038","properties":{"josm":"w135271038","name":"Бригадная вулиця","nameuk":"Бригадна вулиця"},"geometry":{"type":"Point","coordinates":[32.04669,46.87591]}},
{"type":"Feature","id":"135287797","properties":{"josm":"w135287797","name":"Григорія Сокальського вулиця","nameuk":"Карла Лібкнехта вулиця"},"geometry":{"type":"Point","coordinates":[33.12643,48.67466]}},
{"type":"Feature","id":"135287799","properties":{"josm":"w135287799","name":"Староонуфріївська вулиця","nameuk":"Пархоменка вулиця"},"geometry":{"type":"Point","coordinates":[33.13574,48.6938]}},
{"type":"Feature","id":"135287801","properties":{"josm":"w135287801","name":"Староонуфріївська вулиця","nameuk":"Пархоменка вулиця"},"geometry":{"type":"Point","coordinates":[33.12502,48.68213]}},
{"type":"Feature","id":"135287802","properties":{"josm":"w135287802","name":"Запорізька вулиця","nameuk":"Чапаєва вулиця"},"geometry":{"type":"Point","coordinates":[33.13477,48.68483]}},
{"type":"Feature","id":"135289283","properties":{"josm":"w135289283","name":"Бахмутская вулиця","nameuk":"Артема вулиця"},"geometry":{"type":"Point","coordinates":[38.3677,48.62063]}},
{"type":"Feature","id":"135294028","properties":{"josm":"w135294028","name":"Марії Заньковецької вулиця","nameuk":"Канатенка вулиця"},"geometry":{"type":"Point","coordinates":[33.12798,48.68173]}},
{"type":"Feature","id":"135297449","properties":{"josm":"w135297449","name":"Рікова вулиця","nameuk":"Анрі Барбюса вулиця"},"geometry":{"type":"Point","coordinates":[33.10241,48.69216]}},
{"type":"Feature","id":"135303215","properties":{"josm":"w135303215","name":"Львівська вулиця","nameuk":"Ульянівська вулиця"},"geometry":{"type":"Point","coordinates":[33.11332,48.6475]}},
{"type":"Feature","id":"135303218","properties":{"josm":"w135303218","name":"Трапезонська вулиця","nameuk":"Постишева вулиця"},"geometry":{"type":"Point","coordinates":[33.117,48.64338]}},
{"type":"Feature","id":"135322516","properties":{"josm":"w135322516","name":"Петра Сагайдачного вулиця","nameuk":"Фрунзе вулиця"},"geometry":{"type":"Point","coordinates":[33.1233,48.67014]}},
{"type":"Feature","id":"135322518","properties":{"josm":"w135322518","name":"Ярмаркова вулиця","nameuk":"Семашка вулиця"},"geometry":{"type":"Point","coordinates":[33.12405,48.67109]}},
{"type":"Feature","id":"135322519","properties":{"josm":"w135322519","name":"Петра Сагайдачного вулиця","nameuk":"Фрунзе вулиця"},"geometry":{"type":"Point","coordinates":[33.12676,48.67094]}},
{"type":"Feature","id":"135330242","properties":{"josm":"w135330242","name":"Східна вулиця","nameuk":"Ленінградська вулиця"},"geometry":{"type":"Point","coordinates":[33.12909,48.66581]}},
{"type":"Feature","id":"135330249","properties":{"josm":"w135330249","name":"Козацька вулиця","nameuk":"Червоного Козацтва вулиця"},"geometry":{"type":"Point","coordinates":[33.12663,48.66469]}},
{"type":"Feature","id":"135330250","properties":{"josm":"w135330250","name":"Захисників Україний вулиця","nameuk":"Дзержинського вулиця"},"geometry":{"type":"Point","coordinates":[33.12743,48.67949]}},
{"type":"Feature","id":"135330251","properties":{"josm":"w135330251","name":"Миколи Зерваницького вулиця","nameuk":"Чубаря вулиця"},"geometry":{"type":"Point","coordinates":[33.12683,48.66321]}},
{"type":"Feature","id":"135330252","properties":{"josm":"w135330252","name":"Михайла Грушевського вулиця","nameuk":"Чекістів вулиця"},"geometry":{"type":"Point","coordinates":[33.12756,48.6618]}},
{"type":"Feature","id":"135330253","properties":{"josm":"w135330253","name":"Козацька вулиця","nameuk":"Червоного Козацтва вулиця"},"geometry":{"type":"Point","coordinates":[33.11177,48.66326]}},
{"type":"Feature","id":"135333608","properties":{"josm":"w135333608","name":"Покровська площа","nameuk":"Кірова площа"},"geometry":{"type":"Point","coordinates":[33.11351,48.68564]}},
{"type":"Feature","id":"135336000","properties":{"josm":"w135336000","name":"Запорізька вулиця","nameuk":"Чапаєва вулиця"},"geometry":{"type":"Point","coordinates":[33.13092,48.67974]}},
{"type":"Feature","id":"135336009","properties":{"josm":"w135336009","name":"Бессарабська вулиця","nameuk":"Енгельса вулиця"},"geometry":{"type":"Point","coordinates":[33.09983,48.69034]}},
{"type":"Feature","id":"135337597","properties":{"josm":"w135337597","name":"Зоряна вулиця","nameuk":"Червонозоряна вулиця"},"geometry":{"type":"Point","coordinates":[33.12862,48.65919]}},
{"type":"Feature","id":"135337605","properties":{"josm":"w135337605","name":"Військова вулиця","nameuk":"Піка вулиця"},"geometry":{"type":"Point","coordinates":[33.12544,48.6637]}},
{"type":"Feature","id":"135338732","properties":{"josm":"w135338732","name":"Паризької Комуни вулиця","nameuk":"Паризької Комуни вулиця; Кропивницького вулиця"},"geometry":{"type":"Point","coordinates":[33.13444,48.67364]}},
{"type":"Feature","id":"135338745","properties":{"josm":"w135338745","name":"Михайла Баинського вулиця","nameuk":"Ленінського Комсомолу вулиця"},"geometry":{"type":"Point","coordinates":[33.12154,48.65811]}},
{"type":"Feature","id":"135341594","properties":{"josm":"w135341594","name":"вулиця Надіі","nameuk":"вулиця Надії"},"geometry":{"type":"Point","coordinates":[33.13665,48.69842]}},
{"type":"Feature","id":"135342943","properties":{"josm":"w135342943","name":"Олександра Горського провулок","nameuk":"Якіра провулок"},"geometry":{"type":"Point","coordinates":[33.1245,48.68594]}},
{"type":"Feature","id":"135346122","properties":{"josm":"w135346122","name":"Студентська вулиця","nameuk":"Червоностудентська вулиця"},"geometry":{"type":"Point","coordinates":[33.10946,48.68113]}},
{"type":"Feature","id":"135346131","properties":{"josm":"w135346131","name":"Анатолія Кохана вулиця","nameuk":"Клари Цеткін вулиця"},"geometry":{"type":"Point","coordinates":[33.10832,48.66643]}},
{"type":"Feature","id":"135349020","properties":{"josm":"w135349020","name":"Соборний проспект","nameuk":"Леніна проспект"},"geometry":{"type":"Point","coordinates":[33.12092,48.64946]}},
{"type":"Feature","id":"135361850","properties":{"josm":"w135361850","name":"Ярмаркова вулиця","nameuk":"Семашка вулиця"},"geometry":{"type":"Point","coordinates":[33.1217,48.67778]}},
{"type":"Feature","id":"135364971","properties":{"josm":"w135364971","name":"Івана Головка вулиця","nameuk":"Тихий провулок"},"geometry":{"type":"Point","coordinates":[33.07684,48.6713]}},
{"type":"Feature","id":"135368536","properties":{"josm":"w135368536","name":"Соборний проспект","nameuk":"Леніна проспект"},"geometry":{"type":"Point","coordinates":[33.11463,48.68047]}},
{"type":"Feature","id":"135567259","properties":{"josm":"w135567259","name":"Визволення площа","nameuk":"Перемоги площа"},"geometry":{"type":"Point","coordinates":[33.09966,48.67356]}},
{"type":"Feature","id":"135678937","properties":{"josm":"w135678937","name":"Патріотів України вулиця","nameuk":"Володарського вулиця"},"geometry":{"type":"Point","coordinates":[33.10409,48.68469]}},
{"type":"Feature","id":"135684332","properties":{"josm":"w135684332","name":"Івана Піянзіна провулок","nameuk":"Пиянзина провулок; Марини Раскової провулок"},"geometry":{"type":"Point","coordinates":[33.1085,48.6898]}},
{"type":"Feature","id":"135684333","properties":{"josm":"w135684333","name":"Іванівський провулок","nameuk":"Морозова провулок"},"geometry":{"type":"Point","coordinates":[33.10355,48.68793]}},
{"type":"Feature","id":"135691235","properties":{"josm":"w135691235","name":"Івана Гороновича провулок","nameuk":"Ленінський провулок"},"geometry":{"type":"Point","coordinates":[33.10923,48.66876]}},
{"type":"Feature","id":"136037596","properties":{"josm":"w136037596","name":"Бориса Нечерди вулиця","nameuk":"Артема вулиця"},"geometry":{"type":"Point","coordinates":[33.06593,48.66142]}},
{"type":"Feature","id":"136240219","properties":{"josm":"w136240219","name":"Носаль Є. І. вулиця","nameuk":"Носаль вулиця"},"geometry":{"type":"Point","coordinates":[35.29509,47.37318]}},
{"type":"Feature","id":"136285283","properties":{"josm":"w136285283","name":"Веселкова вулиця","nameuk":"Зелений провулок"},"geometry":{"type":"Point","coordinates":[33.10803,48.66841]}},
{"type":"Feature","id":"137572682","properties":{"josm":"w137572682","name":"Молодежная улица","nameuk":"Молодіжна вулиця"},"geometry":{"type":"Point","coordinates":[38.10788,47.11351]}},
{"type":"Feature","id":"142686483","properties":{"josm":"w142686483","name":"Захисників Україний вулиця","nameuk":"Дзержинського вулиця"},"geometry":{"type":"Point","coordinates":[33.12825,48.67509]}},
{"type":"Feature","id":"142686484","properties":{"josm":"w142686484","name":"Захисників Україний вулиця","nameuk":"Дзержинського вулиця"},"geometry":{"type":"Point","coordinates":[33.12799,48.67639]}},
{"type":"Feature","id":"142686487","properties":{"josm":"w142686487","name":"Покровська площа","nameuk":"Кірова площа"},"geometry":{"type":"Point","coordinates":[33.11348,48.68344]}},
{"type":"Feature","id":"142686501","properties":{"josm":"w142686501","name":"Григорія Усика вулиця","nameuk":"Червоноармійська вулиця"},"geometry":{"type":"Point","coordinates":[33.10797,48.67018]}},
{"type":"Feature","id":"142686503","properties":{"josm":"w142686503","name":"Студентська вулиця","nameuk":"Червоностудентська вулиця"},"geometry":{"type":"Point","coordinates":[33.12424,48.68014]}},
{"type":"Feature","id":"142686506","properties":{"josm":"w142686506","name":"Студентська вулиця","nameuk":"Червоностудентська вулиця"},"geometry":{"type":"Point","coordinates":[33.11897,48.68088]}},
{"type":"Feature","id":"145109061","properties":{"josm":"w145109061","name":"Бакинских Комисаров улица","nameuk":"Бакинських Комісарів вулиця"},"geometry":{"type":"Point","coordinates":[38.46601,48.03765]}},
{"type":"Feature","id":"148010118","properties":{"josm":"w148010118","name":"Кар'єрний тупик","nameuk":"Каръерный тупик"},"geometry":{"type":"Point","coordinates":[32.24616,48.47959]}},
{"type":"Feature","id":"148112944","properties":{"josm":"w148112944","name":"Щорса вулиця (стор. пос.Дослідної ст.), Степова ввулиця (стор. с.Вигода)","nameuk":"Щорса вулиця"},"geometry":{"type":"Point","coordinates":[30.39234,46.60883]}},
{"type":"Feature","id":"148890730","properties":{"josm":"w148890730","name":"Chekhov street","nameuk":"Чехова"},"geometry":{"type":"Point","coordinates":[29.05186,50.30726]}},
{"type":"Feature","id":"154288123","properties":{"josm":"w154288123","name":"Богданівський узвіз","nameuk":"Богданівський провулок"},"geometry":{"type":"Point","coordinates":[32.06957,49.44717]}},
{"type":"Feature","id":"156597060","properties":{"josm":"w156597060","name":"Лозовеньківський проспект","nameuk":"Окружна дорога"},"geometry":{"type":"Point","coordinates":[36.23382,50.08989]}},
{"type":"Feature","id":"158361441","properties":{"josm":"w158361441","name":"Чаплієвська вулиця","nameuk":"Миру вулиця"},"geometry":{"type":"Point","coordinates":[36.39359,49.98839]}},
{"type":"Feature","id":"159813362","properties":{"josm":"w159813362","name":"Лозовеньківський проспект","nameuk":"Окружна дорога"},"geometry":{"type":"Point","coordinates":[36.26322,50.1021]}},
{"type":"Feature","id":"159813363","properties":{"josm":"w159813363","name":"Лозовеньківський проспект","nameuk":"Окружна дорога"},"geometry":{"type":"Point","coordinates":[36.26582,50.1019]}},
{"type":"Feature","id":"159815292","properties":{"josm":"w159815292","name":"Лозовеньківський проспект","nameuk":"Окружна дорога"},"geometry":{"type":"Point","coordinates":[36.1968,50.064]}},
{"type":"Feature","id":"159815293","properties":{"josm":"w159815293","name":"Лозовеньківський проспект","nameuk":"Окружна дорога"},"geometry":{"type":"Point","coordinates":[36.18377,50.05505]}},
{"type":"Feature","id":"159815294","properties":{"josm":"w159815294","name":"Лозовеньківський проспект","nameuk":"Окружна дорога"},"geometry":{"type":"Point","coordinates":[36.18203,50.05422]}},
{"type":"Feature","id":"159981419","properties":{"josm":"w159981419","name":"майдан Павловський","nameuk":"Павловська площа"},"geometry":{"type":"Point","coordinates":[36.23287,49.98833]}},
{"type":"Feature","id":"167991159","properties":{"josm":"w167991159","name":"Садова провулок чи вулиця?","nameuk":"Садова провулок"},"geometry":{"type":"Point","coordinates":[33.17754,49.59085]}},
{"type":"Feature","id":"169332202","properties":{"josm":"w169332202","name":"Братів Савченків вулиця","nameuk":"Савченка вулиця"},"geometry":{"type":"Point","coordinates":[31.97926,49.48713]}},
{"type":"Feature","id":"169566576","properties":{"josm":"w169566576","name":"Лип'янська вулиця","nameuk":"Ганни Дмитришиної вулиця"},"geometry":{"type":"Point","coordinates":[26.02729,50.55492]}},
{"type":"Feature","id":"174180195","properties":{"josm":"w174180195","name":"Покровська церква","nameuk":"Поштова вулиця"},"geometry":{"type":"Point","coordinates":[30.905,50.58962]}},
{"type":"Feature","id":"175083114","properties":{"josm":"w175083114","name":"Рози Люксембург переулок","nameuk":"Рози Люксембург вулиця"},"geometry":{"type":"Point","coordinates":[38.56009,48.85844]}},
{"type":"Feature","id":"181264317","properties":{"josm":"w181264317","name":"Ванди Біневськой провулок","nameuk":"Джерельний провулок"},"geometry":{"type":"Point","coordinates":[36.35264,49.97136]}},
{"type":"Feature","id":"184546568","properties":{"josm":"w184546568","name":"Академіка Волкова вулиця","nameuk":"Транспортна вулиця"},"geometry":{"type":"Point","coordinates":[36.25538,50.09104]}},
{"type":"Feature","id":"185676612","properties":{"josm":"w185676612","name":"Міщенковська вулиця","nameuk":"Лісова вулиця"},"geometry":{"type":"Point","coordinates":[36.26164,50.09017]}},
{"type":"Feature","id":"185802436","properties":{"josm":"w185802436","name":"1-й Ігоря Муратова провулок","nameuk":"1-й Тіняковський провулок"},"geometry":{"type":"Point","coordinates":[36.14971,49.98269]}},
{"type":"Feature","id":"185853212","properties":{"josm":"w185853212","name":"2-й Ігоря Муратова провулок","nameuk":"2-й Тіняковський провулок"},"geometry":{"type":"Point","coordinates":[36.14956,49.98184]}},
{"type":"Feature","id":"188038701","properties":{"josm":"w188038701","name":"10-а Слобідська вулиця","nameuk":"10-а Слобідська  вулиця"},"geometry":{"type":"Point","coordinates":[32.03226,46.96236]}},
{"type":"Feature","id":"188287368","properties":{"josm":"w188287368","name":"ул. 2-я Сортоиспытательная","nameuk":"вул. 2-я Сортовипробувальна"},"geometry":{"type":"Point","coordinates":[30.56051,46.45858]}},
{"type":"Feature","id":"188636038","properties":{"josm":"w188636038","name":"Велика Панасівська вулиця","nameuk":"Котлова вулиця"},"geometry":{"type":"Point","coordinates":[36.20591,49.99782]}},
{"type":"Feature","id":"188744198","properties":{"josm":"w188744198","name":"Боженка вулиця","nameuk":"Ушакова вулиця"},"geometry":{"type":"Point","coordinates":[32.15092,48.37634]}},
{"type":"Feature","id":"197843257","properties":{"josm":"w197843257","name":"майдан Павловський","nameuk":"Павловська площа"},"geometry":{"type":"Point","coordinates":[36.22929,49.9877]}},
{"type":"Feature","id":"198082110","properties":{"josm":"w198082110","name":"майдан Павловський","nameuk":"Павловська площа"},"geometry":{"type":"Point","coordinates":[36.23,49.98734]}},
{"type":"Feature","id":"198082111","properties":{"josm":"w198082111","name":"майдан Павловський","nameuk":"Павловська площа"},"geometry":{"type":"Point","coordinates":[36.23148,49.98784]}},
{"type":"Feature","id":"200562485","properties":{"josm":"w200562485","name":"Рыночная улица","nameuk":"Ринкова вулиця"},"geometry":{"type":"Point","coordinates":[30.70173,46.38146]}},
{"type":"Feature","id":"200562490","properties":{"josm":"w200562490","name":"Миндальная улица","nameuk":"Мигдальна вулиця"},"geometry":{"type":"Point","coordinates":[30.69308,46.37935]}},
{"type":"Feature","id":"200562493","properties":{"josm":"w200562493","name":"Новосёлов улица","nameuk":"вулиця Новоселів"},"geometry":{"type":"Point","coordinates":[30.69412,46.37952]}},
{"type":"Feature","id":"202938490","properties":{"josm":"w202938490","name":"Об’їздна вулиця","nameuk":"Об’їзна вулиця"},"geometry":{"type":"Point","coordinates":[33.72367,46.99864]}},
{"type":"Feature","id":"204094857","properties":{"josm":"w204094857","name":"Велика Панасівська вулиця","nameuk":"Котлова вулиця"},"geometry":{"type":"Point","coordinates":[36.20498,49.99822]}},
{"type":"Feature","id":"206663193","properties":{"josm":"w206663193","name":"2-я аллея","nameuk":"4-а алея"},"geometry":{"type":"Point","coordinates":[33.3571,45.22429]}},
{"type":"Feature","id":"208446072","properties":{"josm":"w208446072","name":"майдан Павловський","nameuk":"Павловська площа"},"geometry":{"type":"Point","coordinates":[36.22773,49.98706]}},
{"type":"Feature","id":"216092481","properties":{"josm":"w216092481","name":"Покровский переулок","nameuk":"Покровський провулок "},"geometry":{"type":"Point","coordinates":[30.4251,46.26048]}},
{"type":"Feature","id":"223455197","properties":{"josm":"w223455197","name":"Добровільців провулок","nameuk":"Добровільців провулокк"},"geometry":{"type":"Point","coordinates":[37.66804,47.09599]}},
{"type":"Feature","id":"225784838","properties":{"josm":"w225784838","name":"Рыбачья улица","nameuk":"Рибальська вулиця"},"geometry":{"type":"Point","coordinates":[30.7444,46.38974]}},
{"type":"Feature","id":"226717386","properties":{"josm":"w226717386","name":"Северная улица","nameuk":"Північна вулиця"},"geometry":{"type":"Point","coordinates":[30.69989,46.38299]}},
{"type":"Feature","id":"226717391","properties":{"josm":"w226717391","name":"Ёлочный переулок","nameuk":"Ялинковий провулок"},"geometry":{"type":"Point","coordinates":[30.69794,46.38143]}},
{"type":"Feature","id":"226717393","properties":{"josm":"w226717393","name":"Виноградная улица","nameuk":"Виноградна вулиця"},"geometry":{"type":"Point","coordinates":[30.69926,46.37717]}},
{"type":"Feature","id":"226847605","properties":{"josm":"w226847605","name":"Толбухина улица","nameuk":"Толбухіна вулиця"},"geometry":{"type":"Point","coordinates":[28.7896,45.34546]}},
{"type":"Feature","id":"229017815","properties":{"josm":"w229017815","name":"Зерова улица","nameuk":"Зерова вулиця"},"geometry":{"type":"Point","coordinates":[31.33377,50.34875]}},
{"type":"Feature","id":"229017820","properties":{"josm":"w229017820","name":"Зерова улица","nameuk":"Зерова вулиця"},"geometry":{"type":"Point","coordinates":[31.33558,50.35201]}},
{"type":"Feature","id":"229017822","properties":{"josm":"w229017822","name":"проулок Червоный","nameuk":"провулок Червоний"},"geometry":{"type":"Point","coordinates":[31.32373,50.34977]}},
{"type":"Feature","id":"229017833","properties":{"josm":"w229017833","name":"Трубежская улица","nameuk":"Трубіжська вулиця"},"geometry":{"type":"Point","coordinates":[31.33445,50.34999]}},
{"type":"Feature","id":"229017834","properties":{"josm":"w229017834","name":"Одесская улица","nameuk":"Одеська вулиця"},"geometry":{"type":"Point","coordinates":[31.33245,50.34917]}},
{"type":"Feature","id":"230593943","properties":{"josm":"w230593943","name":"Балтская улица","nameuk":"Балтська вулиця"},"geometry":{"type":"Point","coordinates":[30.69523,46.36997]}},
{"type":"Feature","id":"230593948","properties":{"josm":"w230593948","name":"Килийская улица","nameuk":"Кілійська вулиця"},"geometry":{"type":"Point","coordinates":[30.70155,46.37415]}},
{"type":"Feature","id":"230593954","properties":{"josm":"w230593954","name":"Кодымская улица","nameuk":"Кодимська вулиця"},"geometry":{"type":"Point","coordinates":[30.69659,46.37378]}},
{"type":"Feature","id":"241071665","properties":{"josm":"w241071665","name":"Космонавта Попова бульвар","nameuk":"Попова площа"},"geometry":{"type":"Point","coordinates":[33.11699,48.66341]}},
{"type":"Feature","id":"242337057","properties":{"josm":"w242337057","name":"Шкільна вулиця","nameuk":"Чкалова вулиця"},"geometry":{"type":"Point","coordinates":[39.45045,48.67181]}},
{"type":"Feature","id":"242340888","properties":{"josm":"w242340888","name":"Святомиколаївська вулиця","nameuk":"Пролетарська вулиця"},"geometry":{"type":"Point","coordinates":[33.11455,48.66478]}},
{"type":"Feature","id":"245056070","properties":{"josm":"w245056070","name":"Покровська площа","nameuk":"Кірова площа"},"geometry":{"type":"Point","coordinates":[33.1115,48.68516]}},
{"type":"Feature","id":"251255495","properties":{"josm":"w251255495","name":"Зелёная улица","nameuk":"Зелена вулиця"},"geometry":{"type":"Point","coordinates":[33.3093,51.7711]}},
{"type":"Feature","id":"255405131","properties":{"josm":"w255405131","name":"Московський проспект","nameuk":"Індустріальний проспект"},"geometry":{"type":"Point","coordinates":[36.38625,49.95142]}},
{"type":"Feature","id":"260997155","properties":{"josm":"w260997155","name":"Московський проспект","nameuk":"Індустріальний проспект"},"geometry":{"type":"Point","coordinates":[36.38642,49.9516]}},
{"type":"Feature","id":"262721205","properties":{"josm":"w262721205","name":"Чайкиної вулиця","nameuk":"Чайкіної вулиця"},"geometry":{"type":"Point","coordinates":[37.52005,47.5843]}},
{"type":"Feature","id":"304386665","properties":{"josm":"w304386665","name":"Молодежная улица","nameuk":"Молодіжна вулиця"},"geometry":{"type":"Point","coordinates":[38.07073,47.67644]}},
{"type":"Feature","id":"304386676","properties":{"josm":"w304386676","name":"Молодежная улица","nameuk":"Молодіжна вулиця"},"geometry":{"type":"Point","coordinates":[38.07138,47.67776]}},
{"type":"Feature","id":"307938865","properties":{"josm":"w307938865","name":"Козаченка вулиця","nameuk":"Козаченко вулиця"},"geometry":{"type":"Point","coordinates":[38.43313,48.8914]}},
{"type":"Feature","id":"308959403","properties":{"josm":"w308959403","name":"Северная","nameuk":"Північна"},"geometry":{"type":"Point","coordinates":[30.63795,46.44187]}},
{"type":"Feature","id":"308959404","properties":{"josm":"w308959404","name":"Южная","nameuk":"Південна"},"geometry":{"type":"Point","coordinates":[30.63896,46.43847]}},
{"type":"Feature","id":"308959405","properties":{"josm":"w308959405","name":"Розовая","nameuk":"Рожева"},"geometry":{"type":"Point","coordinates":[30.63747,46.44009]}},
{"type":"Feature","id":"308959406","properties":{"josm":"w308959406","name":"Серая","nameuk":"Сіра"},"geometry":{"type":"Point","coordinates":[30.63773,46.44011]}},
{"type":"Feature","id":"308959407","properties":{"josm":"w308959407","name":"Зелёная","nameuk":"Зелена"},"geometry":{"type":"Point","coordinates":[30.63797,46.44013]}},
{"type":"Feature","id":"308959408","properties":{"josm":"w308959408","name":"Центральная","nameuk":"Центральна"},"geometry":{"type":"Point","coordinates":[30.63815,46.44015]}},
{"type":"Feature","id":"308959409","properties":{"josm":"w308959409","name":"Абрикосовая","nameuk":"Абрикосова"},"geometry":{"type":"Point","coordinates":[30.63839,46.44017]}},
{"type":"Feature","id":"308959410","properties":{"josm":"w308959410","name":"Бежевая","nameuk":"Бежева"},"geometry":{"type":"Point","coordinates":[30.63862,46.44018]}},
{"type":"Feature","id":"308959411","properties":{"josm":"w308959411","name":"Голубая","nameuk":"Блакитна"},"geometry":{"type":"Point","coordinates":[30.63886,46.4402]}},
{"type":"Feature","id":"308959412","properties":{"josm":"w308959412","name":"Синяя","nameuk":"Синя"},"geometry":{"type":"Point","coordinates":[30.6391,46.44022]}},
{"type":"Feature","id":"308959413","properties":{"josm":"w308959413","name":"Рыночная","nameuk":"Ринкова"},"geometry":{"type":"Point","coordinates":[30.63933,46.44025]}},
{"type":"Feature","id":"308959414","properties":{"josm":"w308959414","name":"Авангардная","nameuk":"Авангардна"},"geometry":{"type":"Point","coordinates":[30.63953,46.44027]}},
{"type":"Feature","id":"315891608","properties":{"josm":"w315891608","name":"Лісова вулиця","nameuk":"Лісна вулиця"},"geometry":{"type":"Point","coordinates":[33.28573,49.1199]}},
{"type":"Feature","id":"315891608","properties":{"josm":"w315891608","name":"Лісова вулиця","nameuk":"Лісна вулиця"},"geometry":{"type":"Point","coordinates":[33.28573,49.1199]}},
{"type":"Feature","id":"324619787","properties":{"josm":"w324619787","name":"Myrna St","nameuk":"Мирна вул."},"geometry":{"type":"Point","coordinates":[30.50731,50.46409]}},
{"type":"Feature","id":"333432096","properties":{"josm":"w333432096","name":"Молодежная улица","nameuk":"Молодіжна вулиця"},"geometry":{"type":"Point","coordinates":[38.07158,47.67763]}},
{"type":"Feature","id":"336116218","properties":{"josm":"w336116218","name":"Озерная улица","nameuk":"Озерна вулиця"},"geometry":{"type":"Point","coordinates":[37.44875,48.57493]}},
{"type":"Feature","id":"336121459","properties":{"josm":"w336121459","name":"Дальний переулок","nameuk":"Дальній провулок"},"geometry":{"type":"Point","coordinates":[30.69628,46.38128]}},
{"type":"Feature","id":"364235289","properties":{"josm":"w364235289","name":"Карла Маркса провулок","nameuk":"пров. Карла Маркса"},"geometry":{"type":"Point","coordinates":[32.66362,49.07163]}},
{"type":"Feature","id":"374272283","properties":{"josm":"w374272283","name":"Зелёная улица","nameuk":"Зелена вулиця"},"geometry":{"type":"Point","coordinates":[33.30219,51.76598]}},
{"type":"Feature","id":"374272911","properties":{"josm":"w374272911","name":"Зелёная улица","nameuk":"Зелена вулиця"},"geometry":{"type":"Point","coordinates":[33.30461,51.76865]}},
{"type":"Feature","id":"383036880","properties":{"josm":"w383036880","name":"Велика Панасівська вулиця","nameuk":"Котлова вулиця"},"geometry":{"type":"Point","coordinates":[36.20185,50.00278]}},
{"type":"Feature","id":"390098801","properties":{"josm":"w390098801","name":"Корниевского","nameuk":"Корнiевського"},"geometry":{"type":"Point","coordinates":[32.24594,51.7791]}},
{"type":"Feature","id":"390429740","properties":{"josm":"w390429740","name":"Паланкова вулиця","nameuk":"Паланкова  вулиця"},"geometry":{"type":"Point","coordinates":[35.26175,48.63149]}},
{"type":"Feature","id":"395269031","properties":{"josm":"w395269031","name":"Носаль Є. І. вулиця","nameuk":"Носаль вулиця"},"geometry":{"type":"Point","coordinates":[35.3103,47.37529]}},
{"type":"Feature","id":"396763280","properties":{"josm":"w396763280","name":"улица Ленина","nameuk":"Леніна вулиця"},"geometry":{"type":"Point","coordinates":[39.27501,48.49452]}},
{"type":"Feature","id":"400220181","properties":{"josm":"w400220181","name":"провулок Грищенка","nameuk":"Грищенко вулиця"},"geometry":{"type":"Point","coordinates":[36.39105,49.98682]}},
{"type":"Feature","id":"400451090","properties":{"josm":"w400451090","name":"Ленiна вулиця","nameuk":"Ленiна  вулиця"},"geometry":{"type":"Point","coordinates":[39.09717,48.44657]}},
{"type":"Feature","id":"401951013","properties":{"josm":"w401951013","name":"Братська вулиця","nameuk":"Калініна вулиця"},"geometry":{"type":"Point","coordinates":[33.12124,48.66821]}},
{"type":"Feature","id":"403270737","properties":{"josm":"w403270737","name":"Цвіткова вулиця","nameuk":"Цвєткова вулиця"},"geometry":{"type":"Point","coordinates":[29.68447,49.36639]}},
{"type":"Feature","id":"403583290","properties":{"josm":"w403583290","name":"улица В.Ф.Жидкова","nameuk":"Жидкова вулиця"},"geometry":{"type":"Point","coordinates":[34.10854,44.93285]}},
{"type":"Feature","id":"403840698","properties":{"josm":"w403840698","name":"Одесская улица","nameuk":"Одеська вулиця"},"geometry":{"type":"Point","coordinates":[30.44596,46.24578]}},
{"type":"Feature"}
]}
