{
"type": "FeatureCollection",
"errorDescr": "Incorrect <b>name</b>-tag value",
"features": [
{"type":"Feature","id":"23549669","properties":{"josm":"w23549669","name":"Вознесеновский спуск","nameuk":"Вознесенівський узвіз"},"geometry":{"type":"Point","coordinates":[35.14963,47.83341]}},
{"type":"Feature","id":"23583427","properties":{"josm":"w23583427","name":"Шенвизский мост","nameuk":"Шенвізський міст"},"geometry":{"type":"Point","coordinates":[35.18478,47.80557]}},
{"type":"Feature","id":"23746914","properties":{"josm":"w23746914","name":"Кузинський міст","nameuk":"Озерянська вулиця"},"geometry":{"type":"Point","coordinates":[36.20181,49.99719]}},
{"type":"Feature","id":"26733268","properties":{"josm":"w26733268","name":"Шенвизский мост","nameuk":"Шенвізський міст"},"geometry":{"type":"Point","coordinates":[35.18498,47.80555]}},
{"type":"Feature","id":"28472062","properties":{"josm":"w28472062","name":"Щёлкина улица","nameuk":"Щолкіна вулиця"},"geometry":{"type":"Point","coordinates":[35.82334,45.42965]}},
{"type":"Feature","id":"28486564","properties":{"josm":"w28486564","name":"аллея №2","nameuk":"алея №1"},"geometry":{"type":"Point","coordinates":[35.82048,45.43057]}},
{"type":"Feature","id":"29371269","properties":{"josm":"w29371269","name":"M4-Граница с Украиной","nameuk":"M4-кордон з Україною"},"geometry":{"type":"Point","coordinates":[29.11512,47.533]}},
{"type":"Feature","id":"29454086","properties":{"josm":"w29454086","name":"M4-Граница с Украиной","nameuk":"M4-кордон з Україною"},"geometry":{"type":"Point","coordinates":[28.90224,47.95107]}},
{"type":"Feature","id":"29499474","properties":{"josm":"w29499474","name":"Мост Преображенского","nameuk":"Міст Преображенського"},"geometry":{"type":"Point","coordinates":[35.07504,47.82035]}},
{"type":"Feature","id":"34203129","properties":{"josm":"w34203129","name":"Копиловська вулиця","nameuk":"Першої Маївки вулиця"},"geometry":{"type":"Point","coordinates":[36.2085,50.00102]}},
{"type":"Feature","id":"34356969","properties":{"josm":"w34356969","name":"Яремче ― пол. Чорногориця ― Яремче","nameuk":"Богдана Хмельницького вулиця"},"geometry":{"type":"Point","coordinates":[24.53442,48.45228]}},
{"type":"Feature","id":"34356994","properties":{"josm":"w34356994","name":"Яремче ― пол. Чорногориця ― Яремче","nameuk":"Ковпака вулиця"},"geometry":{"type":"Point","coordinates":[24.55162,48.45338]}},
{"type":"Feature","id":"34572702","properties":{"josm":"w34572702","name":"Калиновий провулок","nameuk":"Вишневий провулок"},"geometry":{"type":"Point","coordinates":[36.20883,50.03467]}},
{"type":"Feature","id":"34572897","properties":{"josm":"w34572897","name":"Шарівський провулок","nameuk":"Спортивна вулиця"},"geometry":{"type":"Point","coordinates":[36.157,49.9808]}},
{"type":"Feature","id":"34679755","properties":{"josm":"w34679755","name":"Терихівська вулиця","nameuk":"Скорохода вулиця"},"geometry":{"type":"Point","coordinates":[36.18191,49.99515]}},
{"type":"Feature","id":"34839561","properties":{"josm":"w34839561","name":"Стара Озерянка вулиця","nameuk":"Аральська вулиця"},"geometry":{"type":"Point","coordinates":[36.33507,50.04493]}},
{"type":"Feature","id":"37718518","properties":{"josm":"w37718518","name":"Серго Орджоникидзе улица","nameuk":"Орджонікідзе вулиця"},"geometry":{"type":"Point","coordinates":[33.50505,44.59062]}},
{"type":"Feature","id":"39273509","properties":{"josm":"w39273509","name":"Розы Люксембург улица","nameuk":"Рози Люксембург вулиця"},"geometry":{"type":"Point","coordinates":[33.54284,44.60959]}},
{"type":"Feature","id":"41081809","properties":{"josm":"w41081809","name":"Трудова вулиця","nameuk":"Джерельна вулиця"},"geometry":{"type":"Point","coordinates":[27.03142,49.4318]}},
{"type":"Feature","id":"42976870","properties":{"josm":"w42976870","name":"Щёлкина улица","nameuk":"Щолкіна вулиця"},"geometry":{"type":"Point","coordinates":[35.82638,45.4275]}},
{"type":"Feature","id":"57035322","properties":{"josm":"w57035322","name":"Вознесеновский спуск","nameuk":"Вознесенівський узвіз"},"geometry":{"type":"Point","coordinates":[35.14972,47.83348]}},
{"type":"Feature","id":"57035328","properties":{"josm":"w57035328","name":"Вознесеновский спуск","nameuk":"Вознесенівський узвіз"},"geometry":{"type":"Point","coordinates":[35.15145,47.83262]}},
{"type":"Feature","id":"57035332","properties":{"josm":"w57035332","name":"Вознесеновский спуск","nameuk":"Вознесенівський узвіз"},"geometry":{"type":"Point","coordinates":[35.15137,47.83255]}},
{"type":"Feature","id":"57035336","properties":{"josm":"w57035336","name":"Вознесеновский спуск","nameuk":"Вознесенівський узвіз"},"geometry":{"type":"Point","coordinates":[35.15243,47.83203]}},
{"type":"Feature","id":"71865992","properties":{"josm":"w71865992","name":"Братьев Айвазовских","nameuk":"Братів Айвазовських вулиця"},"geometry":{"type":"Point","coordinates":[34.13894,44.9848]}},
{"type":"Feature","id":"81204408","properties":{"josm":"w81204408","name":"Малинова вулиця","nameuk":"Вулиця Малинова"},"geometry":{"type":"Point","coordinates":[35.24293,48.64065]}},
{"type":"Feature","id":"86463430","properties":{"josm":"w86463430","name":"Терихівська вулиця","nameuk":"Скорохода вулиця"},"geometry":{"type":"Point","coordinates":[36.18417,49.99402]}},
{"type":"Feature","id":"96170403","properties":{"josm":"w96170403","name":"улица","nameuk":"Брянська вулиця"},"geometry":{"type":"Point","coordinates":[34.30125,45.0426]}},
{"type":"Feature","id":"96330098","properties":{"josm":"w96330098","name":"Тенистая улица","nameuk":"Промисловий провулок"},"geometry":{"type":"Point","coordinates":[33.86362,45.71902]}},
{"type":"Feature","id":"96911803","properties":{"josm":"w96911803","name":"Улица имени Вячеслава Чорновила","nameuk":"імені Вячеслава Чорновіла вулиця"},"geometry":{"type":"Point","coordinates":[33.67781,46.09996]}},
{"type":"Feature","id":"96932502","properties":{"josm":"w96932502","name":"Дорога для пограничников","nameuk":"Дорога для прикордонників"},"geometry":{"type":"Point","coordinates":[33.62748,46.13726]}},
{"type":"Feature","id":"97232881","properties":{"josm":"w97232881","name":"Вантовый мост","nameuk":"Вантовий міст"},"geometry":{"type":"Point","coordinates":[35.08437,47.84235]}},
{"type":"Feature","id":"97820519","properties":{"josm":"w97820519","name":"Стадіонний в’їзд","nameuk":"Жовтня в’їзд"},"geometry":{"type":"Point","coordinates":[36.29918,49.87312]}},
{"type":"Feature","id":"98413770","properties":{"josm":"w98413770","name":"Верхне-Продольная улица","nameuk":"Верхньоподовжня вулиця"},"geometry":{"type":"Point","coordinates":[33.61889,45.1126]}},
{"type":"Feature","id":"100604217","properties":{"josm":"w100604217","name":"улица Куприна","nameuk":"Рубцова вулиця"},"geometry":{"type":"Point","coordinates":[33.6017,44.49859]}},
{"type":"Feature","id":"100977886","properties":{"josm":"w100977886","name":"1-го Травня провулок","nameuk":"1-го Травня вулиця"},"geometry":{"type":"Point","coordinates":[30.43224,50.61408]}},
{"type":"Feature","id":"100997862","properties":{"josm":"w100997862","name":"Володимирська (Молодогвардійська) вулиця","nameuk":"Володимирська (мин. Молодогвардійська) вулиця"},"geometry":{"type":"Point","coordinates":[30.35212,50.75808]}},
{"type":"Feature","id":"101248203","properties":{"josm":"w101248203","name":"улица Вели Ибрагимова","nameuk":"Велі Ібрагімова вулиця"},"geometry":{"type":"Point","coordinates":[33.87062,44.74094]}},
{"type":"Feature","id":"101325196","properties":{"josm":"w101325196","name":"Гайова вулиця","nameuk":"Гайдара вулиця"},"geometry":{"type":"Point","coordinates":[38.2348,49.04595]}},
{"type":"Feature","id":"102420750","properties":{"josm":"w102420750","name":"Балочный мост","nameuk":"Балочний міст"},"geometry":{"type":"Point","coordinates":[35.07726,47.81901]}},
{"type":"Feature","id":"102420751","properties":{"josm":"w102420751","name":"Балочный мост","nameuk":"Балочний міст"},"geometry":{"type":"Point","coordinates":[35.0769,47.81916]}},
{"type":"Feature","id":"104134992","properties":{"josm":"w104134992","name":"улица Космонавта Волкова","nameuk":"Вінницька вулиця"},"geometry":{"type":"Point","coordinates":[33.64679,44.58403]}},
{"type":"Feature","id":"106549356","properties":{"josm":"w106549356","name":"улица Полины Осипенко","nameuk":"Поліни Осипенко вулиця"},"geometry":{"type":"Point","coordinates":[36.44104,45.30282]}},
{"type":"Feature","id":"107972062","properties":{"josm":"w107972062","name":"улица Ашик Умера","nameuk":"Ашик Умера вулиця"},"geometry":{"type":"Point","coordinates":[34.99419,44.84843]}},
{"type":"Feature","id":"108539169","properties":{"josm":"w108539169","name":"Бедненко улица","nameuk":"Бедненко набережна"},"geometry":{"type":"Point","coordinates":[34.5973,44.77039]}},
{"type":"Feature","id":"108539180","properties":{"josm":"w108539180","name":"Новосёлов улица","nameuk":"Новоселів вулиця"},"geometry":{"type":"Point","coordinates":[34.59126,44.7733]}},
{"type":"Feature","id":"109092232","properties":{"josm":"w109092232","name":"Покрівська вулиця","nameuk":"Карла Маркса вулиця"},"geometry":{"type":"Point","coordinates":[30.86227,50.37]}},
{"type":"Feature","id":"109582437","properties":{"josm":"w109582437","name":"Восьмого Березня вулиця","nameuk":"Першої Маївки вулиця"},"geometry":{"type":"Point","coordinates":[36.20954,49.99917]}},
{"type":"Feature","id":"110359328","properties":{"josm":"w110359328","name":"улица Игнатенко","nameuk":"Графський проїзд"},"geometry":{"type":"Point","coordinates":[34.17059,44.49676]}},
{"type":"Feature","id":"112663803","properties":{"josm":"w112663803","name":"Українська вулиця","nameuk":"Симоненка вулиця"},"geometry":{"type":"Point","coordinates":[36.7211,48.25287]}},
{"type":"Feature","id":"117903194","properties":{"josm":"w117903194","name":"Кленовий провулок","nameuk":"Суворова вулиця"},"geometry":{"type":"Point","coordinates":[34.36991,48.55028]}},
{"type":"Feature","id":"117951254","properties":{"josm":"w117951254","name":"Гравийная велодорожка (П.Поле - Пятихатки)","nameuk":"Гравійна велодоріжка (П.Поле - П'ятихатки)"},"geometry":{"type":"Point","coordinates":[36.24248,50.06339]}},
{"type":"Feature","id":"118564748","properties":{"josm":"w118564748","name":"4-а Садова вулиця","nameuk":"1-а Лісова вулиця"},"geometry":{"type":"Point","coordinates":[30.28428,50.25915]}},
{"type":"Feature","id":"120547614","properties":{"josm":"w120547614","name":"переулок Степной","nameuk":"Черняховського провулок"},"geometry":{"type":"Point","coordinates":[36.57243,45.35199]}},
{"type":"Feature","id":"122460153","properties":{"josm":"w122460153","name":"Веселкова вулиця","nameuk":"Ворошилова вулиця"},"geometry":{"type":"Point","coordinates":[39.22249,48.73516]}},
{"type":"Feature","id":"127023719","properties":{"josm":"w127023719","name":"Друга Галатовка вулиця","nameuk":"Коротка вулиця"},"geometry":{"type":"Point","coordinates":[34.32508,48.6511]}},
{"type":"Feature","id":"127025642","properties":{"josm":"w127025642","name":"Перша Галатовка вулиця","nameuk":"1-а Галатовка вулиця"},"geometry":{"type":"Point","coordinates":[34.32464,48.65001]}},
{"type":"Feature","id":"127025648","properties":{"josm":"w127025648","name":"Дніпровська вулиця","nameuk":"Крупської вулиця"},"geometry":{"type":"Point","coordinates":[34.32211,48.65072]}},
{"type":"Feature","id":"127029389","properties":{"josm":"w127029389","name":"Лісна вулиця","nameuk":"Лісова вулиця"},"geometry":{"type":"Point","coordinates":[34.31856,48.65183]}},
{"type":"Feature","id":"127029392","properties":{"josm":"w127029392","name":"Лісна вулиця","nameuk":"Лісова вулиця"},"geometry":{"type":"Point","coordinates":[34.31896,48.65281]}},
{"type":"Feature","id":"127029394","properties":{"josm":"w127029394","name":"Львівська вулиця","nameuk":"Морська вулиця"},"geometry":{"type":"Point","coordinates":[34.31745,48.6512]}},
{"type":"Feature","id":"127029395","properties":{"josm":"w127029395","name":"Верхньодніпровська  вулиця","nameuk":"Харківська вулиця"},"geometry":{"type":"Point","coordinates":[34.31755,48.65011]}},
{"type":"Feature","id":"127029399","properties":{"josm":"w127029399","name":"Галатовський провулок","nameuk":"Базарна вулиця"},"geometry":{"type":"Point","coordinates":[34.32656,48.65062]}},
{"type":"Feature","id":"127216366","properties":{"josm":"w127216366","name":"Жовтоблакитная вулиця","nameuk":"Жовтоблакитна вулиця"},"geometry":{"type":"Point","coordinates":[35.85673,48.55659]}},
{"type":"Feature","id":"127569796","properties":{"josm":"w127569796","name":"Гравийная велодорожка (Лесная сказка)","nameuk":"Гравійна велодоріжка (Лісова казка)"},"geometry":{"type":"Point","coordinates":[36.24487,50.06523]}},
{"type":"Feature","id":"127578678","properties":{"josm":"w127578678","name":"Гравийная велодорожка (Неотложка)","nameuk":"Гравійна велодоріжка (Лікарня)"},"geometry":{"type":"Point","coordinates":[36.24451,50.04239]}},
{"type":"Feature","id":"127670675","properties":{"josm":"w127670675","name":"Горяна вулиця","nameuk":"Горянська вулиця"},"geometry":{"type":"Point","coordinates":[34.31496,48.54109]}},
{"type":"Feature","id":"129253771","properties":{"josm":"w129253771","name":"Щербицкого площадь","nameuk":"Щербицького площа"},"geometry":{"type":"Point","coordinates":[34.33472,48.65432]}},
{"type":"Feature","id":"129253772","properties":{"josm":"w129253772","name":"Щербицкого площадь","nameuk":"Щербицького площа"},"geometry":{"type":"Point","coordinates":[34.33457,48.65417]}},
{"type":"Feature","id":"131654327","properties":{"josm":"w131654327","name":"Ігоря Сікорського вулиця","nameuk":"Сікорського вулиця"},"geometry":{"type":"Point","coordinates":[38.41302,48.91841]}},
{"type":"Feature","id":"131809476","properties":{"josm":"w131809476","name":"Гравийная велодорожка (Церковь)","nameuk":"Гравійна велодоріжка (Церква)"},"geometry":{"type":"Point","coordinates":[36.2256,50.0432]}},
{"type":"Feature","id":"131860045","properties":{"josm":"w131860045","name":"Соняшникова вулиця","nameuk":"Балашівська вулиця"},"geometry":{"type":"Point","coordinates":[38.36616,48.94954]}},
{"type":"Feature","id":"132277339","properties":{"josm":"w132277339","name":"Артемівська вулиця","nameuk":"Бахмутська вулиця"},"geometry":{"type":"Point","coordinates":[37.69152,48.54374]}},
{"type":"Feature","id":"132628306","properties":{"josm":"w132628306","name":"Олекси Тихого вулиця","nameuk":"Московська вулиця"},"geometry":{"type":"Point","coordinates":[37.53735,48.6445]}},
{"type":"Feature","id":"133266546","properties":{"josm":"w133266546","name":"Павлово Поле - Колодец","nameuk":"П.Поле - Колодязь"},"geometry":{"type":"Point","coordinates":[36.24795,50.04476]}},
{"type":"Feature","id":"133270243","properties":{"josm":"w133270243","name":"Гравийная велодорожка (П.Поле - Пятихатки)","nameuk":"Гравійна велодоріжка (П.Поле - П'ятихатки)"},"geometry":{"type":"Point","coordinates":[36.2438,50.07337]}},
{"type":"Feature","id":"133270260","properties":{"josm":"w133270260","name":"Гравийная велодорожка (Лесная сказка)","nameuk":"Гравійна велодоріжка (Лісова казка)"},"geometry":{"type":"Point","coordinates":[36.24941,50.06763]}},
{"type":"Feature","id":"133382117","properties":{"josm":"w133382117","name":"Максима Залізняка вулиця","nameuk":"Залізняка вулиця"},"geometry":{"type":"Point","coordinates":[27.00495,49.45475]}},
{"type":"Feature","id":"134690294","properties":{"josm":"w134690294","name":"Соняшникова вулиця","nameuk":"Балашівська вулиця"},"geometry":{"type":"Point","coordinates":[38.36767,48.94871]}},
{"type":"Feature","id":"135196195","properties":{"josm":"w135196195","name":"Мостова вулиця","nameuk":"Слизкоухого вулиця"},"geometry":{"type":"Point","coordinates":[34.31372,48.65874]}},
{"type":"Feature","id":"135370939","properties":{"josm":"w135370939","name":"Ломоносова провулок","nameuk":"Провулок Ломоносова"},"geometry":{"type":"Point","coordinates":[38.37815,48.62633]}},
{"type":"Feature","id":"135377331","properties":{"josm":"w135377331","name":"Семафорний провулок","nameuk":"Семофорний провулок"},"geometry":{"type":"Point","coordinates":[38.40295,48.63232]}},
{"type":"Feature","id":"135377404","properties":{"josm":"w135377404","name":"Вільховий провулок","nameuk":"Ольховий провулок"},"geometry":{"type":"Point","coordinates":[38.4062,48.63237]}},
{"type":"Feature","id":"135377407","properties":{"josm":"w135377407","name":"Фадєєва провулок","nameuk":"Провулок Фадєєва"},"geometry":{"type":"Point","coordinates":[38.40807,48.63151]}},
{"type":"Feature","id":"135459425","properties":{"josm":"w135459425","name":"Шкільний провулок","nameuk":"Гоголя вулиця"},"geometry":{"type":"Point","coordinates":[34.29189,48.65689]}},
{"type":"Feature","id":"135902905","properties":{"josm":"w135902905","name":"В. Листопад вулиця","nameuk":"Нечуя-Левицького вулиця"},"geometry":{"type":"Point","coordinates":[34.28797,48.64999]}},
{"type":"Feature","id":"136199617","properties":{"josm":"w136199617","name":"Маяковського провулок","nameuk":"Маяковського вулиця"},"geometry":{"type":"Point","coordinates":[38.43244,48.91899]}},
{"type":"Feature","id":"136240219","properties":{"josm":"w136240219","name":"Носаль Є. І. вулиця","nameuk":"Носаль вулиця"},"geometry":{"type":"Point","coordinates":[35.29515,47.37319]}},
{"type":"Feature","id":"138099205","properties":{"josm":"w138099205","name":"Бурковського вулиця","nameuk":"Костюка вулиця"},"geometry":{"type":"Point","coordinates":[27.64529,50.5706]}},
{"type":"Feature","id":"142456424","properties":{"josm":"w142456424","name":"Переможний провулок","nameuk":"Привокзальна вулиця"},"geometry":{"type":"Point","coordinates":[34.37849,48.55418]}},
{"type":"Feature","id":"143766909","properties":{"josm":"w143766909","name":"Молодежная","nameuk":"Польова вулиця"},"geometry":{"type":"Point","coordinates":[33.60582,45.14944]}},
{"type":"Feature","id":"143769863","properties":{"josm":"w143769863","name":"улица Челеби-Джихана","nameuk":"Челебі Джихана вулиця"},"geometry":{"type":"Point","coordinates":[33.62767,45.1429]}},
{"type":"Feature","id":"143769886","properties":{"josm":"w143769886","name":"улица Челеби-Джихана","nameuk":"Челебі Джихана вулиця"},"geometry":{"type":"Point","coordinates":[33.62805,45.13962]}},
{"type":"Feature","id":"150052780","properties":{"josm":"w150052780","name":"Прижвальського вулиця","nameuk":"Прживальського вулиця"},"geometry":{"type":"Point","coordinates":[34.58243,48.49816]}},
{"type":"Feature","id":"150476495","properties":{"josm":"w150476495","name":"Сонячна вулиця","nameuk":"Бориса Завадовського вулиця"},"geometry":{"type":"Point","coordinates":[32.29165,48.46925]}},
{"type":"Feature","id":"151407092","properties":{"josm":"w151407092","name":"Придніпровська вулиця","nameuk":"Темпівська вулиця"},"geometry":{"type":"Point","coordinates":[34.88612,48.52504]}},
{"type":"Feature","id":"153652830","properties":{"josm":"w153652830","name":"Нагірна вулиця","nameuk":"Нагорна вулиця"},"geometry":{"type":"Point","coordinates":[34.87115,48.58758]}},
{"type":"Feature","id":"162361872","properties":{"josm":"w162361872","name":"Полтавська (Радевича) вулиця","nameuk":"Полтавська вулиця"},"geometry":{"type":"Point","coordinates":[35.08351,49.44049]}},
{"type":"Feature","id":"165194760","properties":{"josm":"w165194760","name":"улица Степана Разина","nameuk":"1-го Травня вулиця"},"geometry":{"type":"Point","coordinates":[36.53493,45.35912]}},
{"type":"Feature","id":"167676285","properties":{"josm":"w167676285","name":"Інститутський проріз проїзд","nameuk":"Інститутський проріз вулиця"},"geometry":{"type":"Point","coordinates":[34.5681,49.57776]}},
{"type":"Feature","id":"167991159","properties":{"josm":"w167991159","name":"Садова провулок чи вулиця?","nameuk":"Садова провулок"},"geometry":{"type":"Point","coordinates":[33.17754,49.59085]}},
{"type":"Feature","id":"168727056","properties":{"josm":"w168727056","name":"улица Валиуллы Муртазаева","nameuk":"Валіулли Муртазаєва вулиця"},"geometry":{"type":"Point","coordinates":[33.86485,44.73724]}},
{"type":"Feature","id":"168908093","properties":{"josm":"w168908093","name":"Героїв-підпільників вулиця","nameuk":"Ленінської Іскри вулиця"},"geometry":{"type":"Point","coordinates":[37.54652,48.59575]}},
{"type":"Feature","id":"171661501","properties":{"josm":"w171661501","name":"Костянтина Хохлова вулиця","nameuk":"Новобродівська вулиця"},"geometry":{"type":"Point","coordinates":[30.5441,50.31799]}},
{"type":"Feature","id":"173096203","properties":{"josm":"w173096203","name":"Незалежності вулиця","nameuk":"Комсомольська вулиця"},"geometry":{"type":"Point","coordinates":[37.09086,48.46051]}},
{"type":"Feature","id":"179918769","properties":{"josm":"w179918769","name":"Садова вулиця","nameuk":"Вишнева вулиця"},"geometry":{"type":"Point","coordinates":[38.51072,48.90954]}},
{"type":"Feature","id":"181264317","properties":{"josm":"w181264317","name":"Ванди Біневськой провулок","nameuk":"Джерельний провулок"},"geometry":{"type":"Point","coordinates":[36.35264,49.97136]}},
{"type":"Feature","id":"183125914","properties":{"josm":"w183125914","name":"Грушевського вулиця","nameuk":"Вишнева вулиця"},"geometry":{"type":"Point","coordinates":[25.99277,51.30871]}},
{"type":"Feature","id":"187952077","properties":{"josm":"w187952077","name":"Гравийная велодорожка (П.Поле - Пятихатки)","nameuk":"Гравійна велодоріжка (П.Поле - П'ятихатки)"},"geometry":{"type":"Point","coordinates":[36.24451,50.08038]}},
{"type":"Feature","id":"187952083","properties":{"josm":"w187952083","name":"Гравийная велодорожка (П.Поле - Пятихатки)","nameuk":"Гравійна велодоріжка (П.Поле - П'ятихатки)"},"geometry":{"type":"Point","coordinates":[36.24317,50.08145]}},
{"type":"Feature","id":"191558260","properties":{"josm":"w191558260","name":"ТропаЕврейская","nameuk":"Єврейська стежка"},"geometry":{"type":"Point","coordinates":[33.99741,44.43205]}},
{"type":"Feature","id":"196870220","properties":{"josm":"w196870220","name":"Академіка Заболотного вулиця","nameuk":"Чехова вулиця"},"geometry":{"type":"Point","coordinates":[30.81707,46.57136]}},
{"type":"Feature","id":"198189137","properties":{"josm":"w198189137","name":"Річковий провулок","nameuk":"Річкоий провулок"},"geometry":{"type":"Point","coordinates":[38.36889,48.63769]}},
{"type":"Feature","id":"205144613","properties":{"josm":"w205144613","name":"Красносільська вулиця","nameuk":"Степова вулиця"},"geometry":{"type":"Point","coordinates":[30.76927,46.57225]}},
{"type":"Feature","id":"205185209","properties":{"josm":"w205185209","name":"Мелітопольска вулиця","nameuk":"Жоліо Кюрі вулиця"},"geometry":{"type":"Point","coordinates":[30.7731,46.56735]}},
{"type":"Feature","id":"205186147","properties":{"josm":"w205186147","name":"13-а Суворівська вулиця","nameuk":"12-а Суворівська вулиця"},"geometry":{"type":"Point","coordinates":[30.77652,46.57341]}},
{"type":"Feature","id":"205955545","properties":{"josm":"w205955545","name":"улица Маламута Муссы","nameuk":"Маламута Мусси вулиця"},"geometry":{"type":"Point","coordinates":[35.19483,45.18246]}},
{"type":"Feature","id":"206663187","properties":{"josm":"w206663187","name":"Светлый переулок","nameuk":"Бузкова вулиця"},"geometry":{"type":"Point","coordinates":[33.34098,45.21787]}},
{"type":"Feature","id":"208702244","properties":{"josm":"w208702244","name":"Набережная улица","nameuk":"Набережна вулиця"},"geometry":{"type":"Point","coordinates":[27.40183,49.43348]}},
{"type":"Feature","id":"208702258","properties":{"josm":"w208702258","name":"Ахтырская улица","nameuk":"Охтирська вулиця"},"geometry":{"type":"Point","coordinates":[27.40232,49.43643]}},
{"type":"Feature","id":"208773041","properties":{"josm":"w208773041","name":"Шолом Алейхема улица","nameuk":"Шолом Алейхема вулиця"},"geometry":{"type":"Point","coordinates":[27.40553,49.43818]}},
{"type":"Feature","id":"208773042","properties":{"josm":"w208773042","name":"Гончарная улица","nameuk":"Гончарна вулиця"},"geometry":{"type":"Point","coordinates":[27.4029,49.4391]}},
{"type":"Feature","id":"209027701","properties":{"josm":"w209027701","name":"23-тя Лінія вулиця","nameuk":"21-ша Лінія вулиця"},"geometry":{"type":"Point","coordinates":[31.91172,46.96248]}},
{"type":"Feature","id":"209027712","properties":{"josm":"w209027712","name":"22-га Лінія вулиця","nameuk":"21-ша Лінія вулиця"},"geometry":{"type":"Point","coordinates":[31.91299,46.96505]}},
{"type":"Feature","id":"210274859","properties":{"josm":"w210274859","name":"Літописний провулок","nameuk":"Володимира Івасюка вулиця"},"geometry":{"type":"Point","coordinates":[33.44,49.03535]}},
{"type":"Feature","id":"223216626","properties":{"josm":"w223216626","name":"улица Мусы Мамута","nameuk":"Муси Мамута вулиця"},"geometry":{"type":"Point","coordinates":[33.99424,44.79057]}},
{"type":"Feature","id":"223346705","properties":{"josm":"w223346705","name":"улица Мусы Мамута","nameuk":"Муси Мамута вулиця"},"geometry":{"type":"Point","coordinates":[33.99439,44.79006]}},
{"type":"Feature","id":"224212382","properties":{"josm":"w224212382","name":"№1 провулок","nameuk":"№2 провулок"},"geometry":{"type":"Point","coordinates":[38.64343,48.14672]}},
{"type":"Feature","id":"224747271","properties":{"josm":"w224747271","name":"улица Симиренко","nameuk":"Симеренка вулиця"},"geometry":{"type":"Point","coordinates":[34.86838,45.27785]}},
{"type":"Feature","id":"225931419","properties":{"josm":"w225931419","name":"улица Шевченко","nameuk":"Шевченка вулиця"},"geometry":{"type":"Point","coordinates":[33.99461,44.78689]}},
{"type":"Feature","id":"227823236","properties":{"josm":"w227823236","name":"Кабаний перевал","nameuk":"Голубинка — Передове — Широке"},"geometry":{"type":"Point","coordinates":[33.85137,44.52127]}},
{"type":"Feature","id":"227823236","properties":{"josm":"w227823236","name":"Кабаний перевал","nameuk":"Голубинка — Передове — Широке"},"geometry":{"type":"Point","coordinates":[33.85137,44.52127]}},
{"type":"Feature","id":"227902187","properties":{"josm":"w227902187","name":"Центральна вулиця","nameuk":"Леніна вулиця"},"geometry":{"type":"Point","coordinates":[30.6277,46.53608]}},
{"type":"Feature","id":"228997249","properties":{"josm":"w228997249","name":"Слобідська вулиця","nameuk":"Колгоспна вулиця"},"geometry":{"type":"Point","coordinates":[27.39978,49.44295]}},
{"type":"Feature","id":"228997250","properties":{"josm":"w228997250","name":"улица Пристань","nameuk":"Пристань вулиця"},"geometry":{"type":"Point","coordinates":[27.4033,49.44375]}},
{"type":"Feature","id":"229297971","properties":{"josm":"w229297971","name":"Будівельників вулиця","nameuk":"Будівельниців вулиця"},"geometry":{"type":"Point","coordinates":[28.63242,50.69889]}},
{"type":"Feature","id":"230102083","properties":{"josm":"w230102083","name":"улица Николаева","nameuk":"Фрунзе вулиця"},"geometry":{"type":"Point","coordinates":[33.976,44.81919]}},
{"type":"Feature","id":"230413765","properties":{"josm":"w230413765","name":"Школьный переулок","nameuk":"Шкільний провулок"},"geometry":{"type":"Point","coordinates":[27.40254,49.43691]}},
{"type":"Feature","id":"230804362","properties":{"josm":"w230804362","name":"Рудничный проезд","nameuk":"Рудничний проїзд"},"geometry":{"type":"Point","coordinates":[33.58611,44.51302]}},
{"type":"Feature","id":"235109191","properties":{"josm":"w235109191","name":"M5-Граница с Украиной","nameuk":"M5-кордон з Україною"},"geometry":{"type":"Point","coordinates":[29.74979,46.86103]}},
{"type":"Feature","id":"238498877","properties":{"josm":"w238498877","name":"Лермонтова вулиця","nameuk":"Некрасова вулиця"},"geometry":{"type":"Point","coordinates":[26.97718,49.65622]}},
{"type":"Feature","id":"239162603","properties":{"josm":"w239162603","name":"Саркісова вулиця","nameuk":"Курганський провулок"},"geometry":{"type":"Point","coordinates":[37.59867,48.7653]}},
{"type":"Feature","id":"241720836","properties":{"josm":"w241720836","name":"Вишнёвая улица","nameuk":"Вишнева вулиця"},"geometry":{"type":"Point","coordinates":[33.62117,44.89959]}},
{"type":"Feature","id":"242337057","properties":{"josm":"w242337057","name":"Шкільна вулиця","nameuk":"Чкалова вулиця"},"geometry":{"type":"Point","coordinates":[39.45048,48.67179]}},
{"type":"Feature","id":"242940229","properties":{"josm":"w242940229","name":"Слесарная улица","nameuk":"Кузнечна вулиця"},"geometry":{"type":"Point","coordinates":[33.53347,44.59176]}},
{"type":"Feature","id":"243441644","properties":{"josm":"w243441644","name":"Бородина вулиця","nameuk":"Бородіна вулиця"},"geometry":{"type":"Point","coordinates":[37.23962,49.21028]}},
{"type":"Feature","id":"246802491","properties":{"josm":"w246802491","name":"Дружбиі вулиця","nameuk":"Дружби вулиця"},"geometry":{"type":"Point","coordinates":[22.72011,48.12422]}},
{"type":"Feature","id":"246867425","properties":{"josm":"w246867425","name":"улица Водохранилище","nameuk":"Водосховище вулиця"},"geometry":{"type":"Point","coordinates":[35.12103,45.0414]}},
{"type":"Feature","id":"248791530","properties":{"josm":"w248791530","name":"Новосёлов улица","nameuk":"Новоселів вулиця"},"geometry":{"type":"Point","coordinates":[34.59426,44.77015]}},
{"type":"Feature","id":"249354682","properties":{"josm":"w249354682","name":"Шевченка провулок","nameuk":"Шевченка повулок"},"geometry":{"type":"Point","coordinates":[32.68316,46.61544]}},
{"type":"Feature","id":"250527536","properties":{"josm":"w250527536","name":"Тиха  вулиця","nameuk":"Центральна вулиця"},"geometry":{"type":"Point","coordinates":[34.01819,48.79832]}},
{"type":"Feature","id":"259938422","properties":{"josm":"w259938422","name":"Першотравнева вулиця","nameuk":"1-го Травня вулиця"},"geometry":{"type":"Point","coordinates":[37.65894,47.45905]}},
{"type":"Feature","id":"262721205","properties":{"josm":"w262721205","name":"Чайкиної вулиця","nameuk":"Чайкіної вулиця"},"geometry":{"type":"Point","coordinates":[37.52005,47.5843]}},
{"type":"Feature","id":"265091648","properties":{"josm":"w265091648","name":"Крайний переулок","nameuk":"Крайня вулиця"},"geometry":{"type":"Point","coordinates":[34.95539,45.18745]}},
{"type":"Feature","id":"267064327","properties":{"josm":"w267064327","name":"5-й Кавказький проїзд","nameuk":"Ранкова вулиця"},"geometry":{"type":"Point","coordinates":[26.99478,49.38967]}},
{"type":"Feature","id":"268234342","properties":{"josm":"w268234342","name":"дорога к озеру","nameuk":"Єврейська стежка"},"geometry":{"type":"Point","coordinates":[34.02046,44.42073]}},
{"type":"Feature","id":"272266082","properties":{"josm":"w272266082","name":"переулок 23 Мая 1919 Года","nameuk":"23 Травня 1919 Року провулок"},"geometry":{"type":"Point","coordinates":[36.46963,45.35381]}},
{"type":"Feature","id":"279360369","properties":{"josm":"w279360369","name":"Яремче ― пол. Чорногориця ― Яремче","nameuk":"Степана Бандери вулиця"},"geometry":{"type":"Point","coordinates":[24.5555,48.45365]}},
{"type":"Feature","id":"279360505","properties":{"josm":"w279360505","name":"Яремче ― пол. Чорногориця ― Яремче","nameuk":"200-річчя Яремчі вулиця"},"geometry":{"type":"Point","coordinates":[24.54478,48.44551]}},
{"type":"Feature","id":"283311754","properties":{"josm":"w283311754","name":"Інститутський провулок","nameuk":"Інститутська вулиця"},"geometry":{"type":"Point","coordinates":[30.09205,49.78417]}},
{"type":"Feature","id":"283377044","properties":{"josm":"w283377044","name":"16 Березня вулиця","nameuk":"16-го Березня вулиця"},"geometry":{"type":"Point","coordinates":[32.15656,48.06268]}},
{"type":"Feature","id":"285946976","properties":{"josm":"w285946976","name":"Дніпровська","nameuk":"Артема вулиця"},"geometry":{"type":"Point","coordinates":[37.82659,48.58891]}},
{"type":"Feature","id":"287241213","properties":{"josm":"w287241213","name":"Панаса Мирного вулиця","nameuk":"Панаса Мирного провулок"},"geometry":{"type":"Point","coordinates":[33.2422,49.05141]}},
{"type":"Feature","id":"287730868","properties":{"josm":"w287730868","name":"Набережная улица","nameuk":"Набережна вулиця"},"geometry":{"type":"Point","coordinates":[27.40869,49.43504]}},
{"type":"Feature","id":"293912067","properties":{"josm":"w293912067","name":"Зелёная улица","nameuk":"Зелений провулок"},"geometry":{"type":"Point","coordinates":[36.45284,45.35428]}},
{"type":"Feature","id":"307938865","properties":{"josm":"w307938865","name":"Козаченка вулиця","nameuk":"Козаченко вулиця"},"geometry":{"type":"Point","coordinates":[38.43313,48.8914]}},
{"type":"Feature","id":"307941928","properties":{"josm":"w307941928","name":"Івана Франка вулиця","nameuk":"Франка вулиця"},"geometry":{"type":"Point","coordinates":[38.43574,48.89034]}},
{"type":"Feature","id":"308454787","properties":{"josm":"w308454787","name":"улица Ешиль Ада","nameuk":"Мирна вулиця"},"geometry":{"type":"Point","coordinates":[34.9888,44.83914]}},
{"type":"Feature","id":"312682467","properties":{"josm":"w312682467","name":"Гавриїла Зелінського вулиця","nameuk":"Gavriyla Zelinskogo Street"},"geometry":{"type":"Point","coordinates":[35.25155,48.63347]}},
{"type":"Feature","id":"313115162","properties":{"josm":"w313115162","name":"Фестивальна вулиця","nameuk":"Будьонного вулиця"},"geometry":{"type":"Point","coordinates":[30.63932,46.54076]}},
{"type":"Feature","id":"319671081","properties":{"josm":"w319671081","name":"Терешкова вулиця","nameuk":"Мічуріна вулиця"},"geometry":{"type":"Point","coordinates":[29.85431,47.07752]}},
{"type":"Feature","id":"321238515","properties":{"josm":"w321238515","name":"Каклынына вулиця","nameuk":"Калініна вулиця"},"geometry":{"type":"Point","coordinates":[33.99317,50.38082]}},
{"type":"Feature","id":"331146707","properties":{"josm":"w331146707","name":"Автопаркова вулиця","nameuk":"Автомобільна вулиця"},"geometry":{"type":"Point","coordinates":[38.21737,49.06469]}},
{"type":"Feature","id":"333545976","properties":{"josm":"w333545976","name":"улица Милании Мусиенко","nameuk":"Меланії Мусієнко вулиця"},"geometry":{"type":"Point","coordinates":[36.56242,45.36011]}},
{"type":"Feature","id":"334425168","properties":{"josm":"w334425168","name":"Парижской Коммуны улица","nameuk":"Леніна вулиця"},"geometry":{"type":"Point","coordinates":[38.1335,48.02709]}},
{"type":"Feature","id":"335863697","properties":{"josm":"w335863697","name":"Верхне-Продольная улица","nameuk":"Верхньоподовжня вулиця"},"geometry":{"type":"Point","coordinates":[33.61118,45.1118]}},
{"type":"Feature","id":"338449862","properties":{"josm":"w338449862","name":"Панаса Мирного вулиця","nameuk":"Панаса Мирного провулок"},"geometry":{"type":"Point","coordinates":[33.24679,49.04948]}},
{"type":"Feature","id":"338449864","properties":{"josm":"w338449864","name":"Панаса Мирного вулиця","nameuk":"Панаса Мирного провулок"},"geometry":{"type":"Point","coordinates":[33.244,49.05028]}},
{"type":"Feature","id":"338617092","properties":{"josm":"w338617092","name":"Набережная улица","nameuk":"Набережна вулиця"},"geometry":{"type":"Point","coordinates":[29.52225,48.36318]}},
{"type":"Feature","id":"338617094","properties":{"josm":"w338617094","name":"Набережная улица","nameuk":"Набережна вулиця"},"geometry":{"type":"Point","coordinates":[29.52023,48.36626]}},
{"type":"Feature","id":"338617123","properties":{"josm":"w338617123","name":"Набережная улица","nameuk":"Набережна вулиця"},"geometry":{"type":"Point","coordinates":[29.52121,48.36838]}},
{"type":"Feature","id":"340719676","properties":{"josm":"w340719676","name":"Переулок Шевченко","nameuk":"Шевченка провулок"},"geometry":{"type":"Point","coordinates":[27.40837,49.43847]}},
{"type":"Feature","id":"352109946","properties":{"josm":"w352109946","name":"Київська вулиця","nameuk":"Київська"},"geometry":{"type":"Point","coordinates":[34.61003,49.56101]}},
{"type":"Feature","id":"355535839","properties":{"josm":"w355535839","name":"Пожежна вулиця","nameuk":"Кожевна вулиця"},"geometry":{"type":"Point","coordinates":[34.56718,49.59874]}},
{"type":"Feature","id":"358611331","properties":{"josm":"w358611331","name":"Вахненка вулиця","nameuk":"Вахненка	вулиця"},"geometry":{"type":"Point","coordinates":[31.10666,48.16414]}},
{"type":"Feature","id":"360701762","properties":{"josm":"w360701762","name":"Хвойна вулиця","nameuk":"Прорізна вулиця"},"geometry":{"type":"Point","coordinates":[30.30353,50.27452]}},
{"type":"Feature","id":"360780680","properties":{"josm":"w360780680","name":"Щорса вулиця","nameuk":"Шевченка вулиця"},"geometry":{"type":"Point","coordinates":[27.17762,49.73306]}},
{"type":"Feature","id":"362227737","properties":{"josm":"w362227737","name":"Вознесеновский спуск","nameuk":"Вознесенівський узвіз"},"geometry":{"type":"Point","coordinates":[35.15251,47.83211]}},
{"type":"Feature","id":"368431594","properties":{"josm":"w368431594","name":"Аванкамерный мост","nameuk":"Аванкамерний міст"},"geometry":{"type":"Point","coordinates":[35.08242,47.87085]}},
{"type":"Feature","id":"368641345","properties":{"josm":"w368641345","name":"Яремче ― пол. Чорногориця ― Яремче","nameuk":"Михайла Грушевського вулиця"},"geometry":{"type":"Point","coordinates":[24.5439,48.44405]}},
{"type":"Feature","id":"368642767","properties":{"josm":"w368642767","name":"Яремче ― пол. Чорногориця ― Яремче","nameuk":"200-річчя Яремчі вулиця"},"geometry":{"type":"Point","coordinates":[24.54456,48.44456]}},
{"type":"Feature","id":"368646017","properties":{"josm":"w368646017","name":"Яремче ― пол. Чорногориця ― Яремче","nameuk":"Галицька вулиця"},"geometry":{"type":"Point","coordinates":[24.54243,48.44718]}},
{"type":"Feature","id":"368646018","properties":{"josm":"w368646018","name":"Яремче ― пол. Чорногориця ― Яремче","nameuk":"Галицька вулиця"},"geometry":{"type":"Point","coordinates":[24.54003,48.44864]}},
{"type":"Feature","id":"371726472","properties":{"josm":"w371726472","name":"Гравийная велодорожка (Церковь)","nameuk":"Гравійна велодоріжка (Церква)"},"geometry":{"type":"Point","coordinates":[36.23323,50.04784]}},
{"type":"Feature","id":"379199494","properties":{"josm":"w379199494","name":"Мічурінський квартал вулиця","nameuk":"Мічуріна квартал"},"geometry":{"type":"Point","coordinates":[33.29298,50.35793]}},
{"type":"Feature","id":"395269031","properties":{"josm":"w395269031","name":"Носаль Є. І. вулиця","nameuk":"Носаль вулиця"},"geometry":{"type":"Point","coordinates":[35.31032,47.37529]}},
{"type":"Feature","id":"400220181","properties":{"josm":"w400220181","name":"Грищенка провулок","nameuk":"Грищенко вулиця"},"geometry":{"type":"Point","coordinates":[36.39105,49.98682]}},
{"type":"Feature","id":"404015264","properties":{"josm":"w404015264","name":"Калиновий проїзд","nameuk":"Калиновий провулок"},"geometry":{"type":"Point","coordinates":[35.8422,48.53972]}},
{"type":"Feature","id":"404015266","properties":{"josm":"w404015266","name":"Тополиний проїзд","nameuk":"Тополиний провулок"},"geometry":{"type":"Point","coordinates":[35.83968,48.53952]}},
{"type":"Feature","id":"416216359","properties":{"josm":"w416216359","name":"Глеба Успенского улица","nameuk":"Гліба Успенського вулиця"},"geometry":{"type":"Point","coordinates":[33.42682,44.567]}},
{"type":"Feature","id":"418123698","properties":{"josm":"w418123698","name":"Паркова вулиця","nameuk":"Паркова	вулиця"},"geometry":{"type":"Point","coordinates":[31.60165,47.85515]}},
{"type":"Feature","id":"424772339","properties":{"josm":"w424772339","name":"1-й Заорільський провулок","nameuk":"3-й Заорільський провулок"},"geometry":{"type":"Point","coordinates":[34.52027,48.93094]}},
{"type":"Feature","id":"437407463","properties":{"josm":"w437407463","name":"Рейковий проовулок","nameuk":"Продовольча вулиця"},"geometry":{"type":"Point","coordinates":[34.60288,49.59098]}},
{"type":"Feature","id":"437539303","properties":{"josm":"w437539303","name":"XXI Партійного З'їзду вулиця","nameuk":"XIX Партійного З'їзду вулиця"},"geometry":{"type":"Point","coordinates":[38.52356,48.63613]}},
{"type":"Feature","id":"441882162","properties":{"josm":"w441882162","name":"Пісенний провулок","nameuk":"Південний провулок"},"geometry":{"type":"Point","coordinates":[34.48164,49.57704]}},
{"type":"Feature","id":"447220379","properties":{"josm":"w447220379","name":"Гравийная велодорожка (Лесопарк - Алексеевка)","nameuk":"Гравійна велодоріжка (Лісопарк - Олексіївка)"},"geometry":{"type":"Point","coordinates":[36.2397,50.07157]}},
{"type":"Feature","id":"447220381","properties":{"josm":"w447220381","name":"Гравийная велодорожка (Лесопарк - Алексеевка)","nameuk":"Гравійна велодоріжка (Лісопарк - Олексіївка)"},"geometry":{"type":"Point","coordinates":[36.23452,50.07187]}},
{"type":"Feature","id":"448567365","properties":{"josm":"w448567365","name":"Гравийная велодорожка (Лесная сказка)","nameuk":"Гравійна велодоріжка (Лісова казка)"},"geometry":{"type":"Point","coordinates":[36.24744,50.06623]}},
{"type":"Feature","id":"451010945","properties":{"josm":"w451010945","name":"Робітничий провулок","nameuk":"Робітнича вулиця"},"geometry":{"type":"Point","coordinates":[34.40073,48.54415]}},
{"type":"Feature","id":"451878361","properties":{"josm":"w451878361","name":"Дружби  Народів вулиця","nameuk":"Гоголя вулиця"},"geometry":{"type":"Point","coordinates":[34.29163,48.65757]}},
{"type":"Feature","id":"451879315","properties":{"josm":"w451879315","name":"Підгірна вулиця","nameuk":"Шкільна вулиця"},"geometry":{"type":"Point","coordinates":[34.29288,48.65848]}},
{"type":"Feature","id":"452207366","properties":{"josm":"w452207366","name":"Лісна  вулиця","nameuk":"Харківська вулиця"},"geometry":{"type":"Point","coordinates":[34.31908,48.65329]}},
{"type":"Feature","id":"463834456","properties":{"josm":"w463834456","name":"Днепровские пороги","nameuk":"Дніпровські Пороги"},"geometry":{"type":"Point","coordinates":[35.07496,47.89633]}},
{"type":"Feature","id":"488553941","properties":{"josm":"w488553941","name":"ім. К. Г. Алексєєва вулиця","nameuk":"ім. К. Г. Алексєєва"},"geometry":{"type":"Point","coordinates":[25.15352,47.80034]}},
{"type":"Feature","id":"488553946","properties":{"josm":"w488553946","name":"ім. К. Г. Алексєєва вулиця","nameuk":"ім. К. Г. Алексєєва"},"geometry":{"type":"Point","coordinates":[25.15315,47.7998]}},
{"type":"Feature","id":"489335300","properties":{"josm":"w489335300","name":"Стара Озерянка вулиця","nameuk":"Аральська вулиця"},"geometry":{"type":"Point","coordinates":[36.34184,50.03789]}},
{"type":"Feature","id":"489335304","properties":{"josm":"w489335304","name":"Стара Озерянка вулиця","nameuk":"Аральська вулиця"},"geometry":{"type":"Point","coordinates":[36.33688,50.04103]}},
{"type":"Feature","id":"497424254","properties":{"josm":"w497424254","name":"А.Молодана улица (Чубаря)","nameuk":"А.Молодана вулиця"},"geometry":{"type":"Point","coordinates":[37.50539,48.66321]}},
{"type":"Feature","id":"512824065","properties":{"josm":"w512824065","name":"Customs Terminal","nameuk":"Митний термінал"},"geometry":{"type":"Point","coordinates":[29.26584,50.76059]}},
{"type":"Feature","id":"537852484","properties":{"josm":"w537852484","name":"Сортировочная","nameuk":"Сортувальна"},"geometry":{"type":"Point","coordinates":[30.75459,46.55053]}},
{"type":"Feature","id":"542825825","properties":{"josm":"w542825825","name":"Першого Травня вулиця","nameuk":"1-го Травня вулиця"},"geometry":{"type":"Point","coordinates":[28.63457,50.6814]}},
{"type":"Feature","id":"544949717","properties":{"josm":"w544949717","name":"Cfljdf dekbwz","nameuk":"Садова вулиця"},"geometry":{"type":"Point","coordinates":[33.99555,50.36524]}},
{"type":"Feature","id":"545220946","properties":{"josm":"w545220946","name":"Ватутіна провулок","nameuk":"Жовтневий провулок"},"geometry":{"type":"Point","coordinates":[34.0048,50.35569]}},
{"type":"Feature","id":"549028954","properties":{"josm":"w549028954","name":"Шевченка вулиця","nameuk":"Незалежності вулиця"},"geometry":{"type":"Point","coordinates":[32.16965,48.05377]}},
{"type":"Feature","id":"606110208","properties":{"josm":"w606110208","name":"Парникова вулиця","nameuk":"Марії Демченко вулиця"},"geometry":{"type":"Point","coordinates":[30.71848,46.37385]}},
{"type":"Feature","id":"609034187","properties":{"josm":"w609034187","name":"Кирова улица","nameuk":"Кірова вулиця"},"geometry":{"type":"Point","coordinates":[33.60182,44.49963]}},
{"type":"Feature","id":"610899210","properties":{"josm":"w610899210","name":"Центральна вулиця","nameuk":"Жовтнева вулиця"},"geometry":{"type":"Point","coordinates":[34.68915,48.35598]}},
{"type":"Feature","id":"610899858","properties":{"josm":"w610899858","name":"Центральна вулиця","nameuk":"Жовтнева вулиця"},"geometry":{"type":"Point","coordinates":[34.70874,48.32354]}},
{"type":"Feature","id":"610899859","properties":{"josm":"w610899859","name":"Центральна вулиця","nameuk":"Жовтнева вулиця"},"geometry":{"type":"Point","coordinates":[34.70917,48.31963]}},
{"type":"Feature","id":"610905047","properties":{"josm":"w610905047","name":"Центральна вулиця","nameuk":"Жовтнева вулиця"},"geometry":{"type":"Point","coordinates":[34.6909,48.35027]}},
{"type":"Feature","id":"610905048","properties":{"josm":"w610905048","name":"Центральна вулиця","nameuk":"Жовтнева вулиця"},"geometry":{"type":"Point","coordinates":[34.70037,48.33725]}},
{"type":"Feature","id":"611592286","properties":{"josm":"w611592286","name":"Перемоги площа","nameuk":"Микити Головка вулиця"},"geometry":{"type":"Point","coordinates":[35.26194,48.62708]}},
{"type":"Feature","id":"611735010","properties":{"josm":"w611735010","name":"улица Чуба","nameuk":"Чуба вулиця"},"geometry":{"type":"Point","coordinates":[36.05393,45.30983]}},
{"type":"Feature","id":"623163323","properties":{"josm":"w623163323","name":"Орджонікідзе вулиця","nameuk":"Благовісна вулиця"},"geometry":{"type":"Point","coordinates":[30.24407,48.74108]}},
{"type":"Feature","id":"623164165","properties":{"josm":"w623164165","name":"2-й Орджонікідзе провулок","nameuk":"Приємний провулок"},"geometry":{"type":"Point","coordinates":[30.2443,48.7422]}},
{"type":"Feature","id":"636036661","properties":{"josm":"w636036661","name":"Персиковый переулок","nameuk":"улица Кима"},"geometry":{"type":"Point","coordinates":[34.08419,44.96717]}},
{"type":"Feature","id":"636036663","properties":{"josm":"w636036663","name":"Персиковый переулок","nameuk":"улица Кима"},"geometry":{"type":"Point","coordinates":[34.08582,44.96539]}},
{"type":"Feature","id":"637402388","properties":{"josm":"w637402388","name":"Мар’ївська вулиця","nameuk":"Мар'ївська вулиця"},"geometry":{"type":"Point","coordinates":[38.40558,48.63436]}},
{"type":"Feature","id":"637404106","properties":{"josm":"w637404106","name":"1-го Травня провулок","nameuk":"1-го Травня вулиця"},"geometry":{"type":"Point","coordinates":[30.43643,50.61764]}},
{"type":"Feature","id":"658395018","properties":{"josm":"w658395018","name":"Гирьовий провулок","nameuk":"Калініна вулиця"},"geometry":{"type":"Point","coordinates":[38.21985,49.04229]}},
{"type":"Feature","id":"674940856","properties":{"josm":"w674940856","name":"Промышленный переулок","nameuk":"Польова вулиця"},"geometry":{"type":"Point","coordinates":[33.86395,45.71493]}},
{"type":"Feature","id":"674940857","properties":{"josm":"w674940857","name":"Промышленный переулок","nameuk":"Польова вулиця"},"geometry":{"type":"Point","coordinates":[33.86557,45.71524]}},
{"type":"Feature","id":"680741049","properties":{"josm":"w680741049","name":"бульвар Ленина","nameuk":"улица Гагарина"},"geometry":{"type":"Point","coordinates":[34.08771,44.96492]}},
{"type":"Feature","id":"704301702","properties":{"josm":"w704301702","name":"Вантовый мост","nameuk":"Вантовий міст"},"geometry":{"type":"Point","coordinates":[35.08523,47.84228]}},
{"type":"Feature","id":"725102950","properties":{"josm":"w725102950","name":"Колективна вулиця","nameuk":"Огнівська вулиця"},"geometry":{"type":"Point","coordinates":[34.51969,49.57916]}},
{"type":"Feature","id":"729104734","properties":{"josm":"w729104734","name":"улица Дружбы","nameuk":"вулиця Дружби"},"geometry":{"type":"Point","coordinates":[29.27346,47.87952]}},
{"type":"Feature","id":"738041623","properties":{"josm":"w738041623","name":"Гравийная велодорожка (Лесопарк - Алексеевка)","nameuk":"Гравійна велодоріжка (Лісопарк - Олексіївка)"},"geometry":{"type":"Point","coordinates":[36.23179,50.07202]}},
{"type":"Feature","id":"738041625","properties":{"josm":"w738041625","name":"Гравийная велодорожка (Неотложка)","nameuk":"Гравійна велодоріжка (Лікарня)"},"geometry":{"type":"Point","coordinates":[36.24146,50.04256]}},
{"type":"Feature","id":"738041630","properties":{"josm":"w738041630","name":"Гравийная велодорожка (Церковь)","nameuk":"Гравійна велодоріжка (Церква)"},"geometry":{"type":"Point","coordinates":[36.22603,50.04623]}},
{"type":"Feature","id":"738041631","properties":{"josm":"w738041631","name":"Дорога П'ятихатки - Павлове Поле","nameuk":"Гравійна велодоріжка (П.Поле - П'ятихатки)"},"geometry":{"type":"Point","coordinates":[36.24078,50.05121]}},
{"type":"Feature","id":"738041632","properties":{"josm":"w738041632","name":"Гравийная велодорожка (Wood Dirt Park)","nameuk":"Гравійна велодоріжка (Wood Dirt Park)"},"geometry":{"type":"Point","coordinates":[36.24503,50.05199]}},
{"type":"Feature","id":"738041635","properties":{"josm":"w738041635","name":"Гравийная велодорожка (П.Поле - Пятихатки)","nameuk":"Гравійна велодоріжка (П.Поле - П'ятихатки)"},"geometry":{"type":"Point","coordinates":[36.24042,50.04883]}},
{"type":"Feature","id":"763089202","properties":{"josm":"w763089202","name":"Моторобуд вулиця","nameuk":"8-го Березня вулиця"},"geometry":{"type":"Point","coordinates":[35.2015,47.83828]}},
{"type":"Feature","id":"763089203","properties":{"josm":"w763089203","name":"Проспект Моторобудівників","nameuk":"Моторобудівників Проспект"},"geometry":{"type":"Point","coordinates":[35.20094,47.83637]}},
{"type":"Feature","id":"770922486","properties":{"josm":"w770922486","name":"Лучистая улица","nameuk":"Набережна вулиця"},"geometry":{"type":"Point","coordinates":[34.60352,44.77446]}},
{"type":"Feature","id":"793313092","properties":{"josm":"w793313092","name":"Калініна вулиця50","nameuk":"Калініна вулиця"},"geometry":{"type":"Point","coordinates":[33.98661,50.38066]}},
{"type":"Feature","id":"793512616","properties":{"josm":"w793512616","name":"Нова вулиця","nameuk":"Новий провулок"},"geometry":{"type":"Point","coordinates":[25.2843,50.76565]}},
{"type":"Feature","id":"795986814","properties":{"josm":"w795986814","name":"Базарна вулиця","nameuk":"Базарная Улица"},"geometry":{"type":"Point","coordinates":[35.18473,47.8102]}},
{"type":"Feature","id":"801382242","properties":{"josm":"w801382242","name":"Декоративный переулок","nameuk":"Декоративний провулок"},"geometry":{"type":"Point","coordinates":[34.53472,49.60803]}},
{"type":"Feature","id":"801382243","properties":{"josm":"w801382243","name":"Свободный переулок","nameuk":"Вільний провулок"},"geometry":{"type":"Point","coordinates":[34.53521,49.60763]}},
{"type":"Feature","id":"802976371","properties":{"josm":"w802976371","name":"Свободный переулок","nameuk":"Вільний провулок"},"geometry":{"type":"Point","coordinates":[34.5352,49.60855]}},
{"type":"Feature","id":"804211990","properties":{"josm":"w804211990","name":"Леонида Гайдая улица","nameuk":"Гірська вулиця"},"geometry":{"type":"Point","coordinates":[34.40121,44.74241]}},
{"type":"Feature","id":"805085760","properties":{"josm":"w805085760","name":"Сагайдачного вулиця","nameuk":"Новий Шлях вулиця"},"geometry":{"type":"Point","coordinates":[30.31075,50.27112]}},
{"type":"Feature","id":"805363227","properties":{"josm":"w805363227","name":"Волгоградська ввулиця","nameuk":"Волгоградська вулиця"},"geometry":{"type":"Point","coordinates":[33.99717,50.35686]}},
{"type":"Feature","id":"806398590","properties":{"josm":"w806398590","name":"2 Піщаний провулок","nameuk":"1 Піщаний провулок"},"geometry":{"type":"Point","coordinates":[30.22564,48.73786]}},
{"type":"Feature","id":"806802230","properties":{"josm":"w806802230","name":"40-річчя Перемоги площа","nameuk":"40-річчя Перемоги вулиця"},"geometry":{"type":"Point","coordinates":[33.9148,50.36463]}},
{"type":"Feature","id":"806877732","properties":{"josm":"w806877732","name":"Добролюбова провулок","nameuk":"Сурікова вулиця"},"geometry":{"type":"Point","coordinates":[32.60418,46.66244]}},
{"type":"Feature","id":"808360631","properties":{"josm":"w808360631","name":"В.Белого (Гая) улица","nameuk":"В.Білого вулиця"},"geometry":{"type":"Point","coordinates":[37.51112,48.67152]}},
{"type":"Feature","id":"808360632","properties":{"josm":"w808360632","name":"переулок Вышываный (Луначарского)","nameuk":"Вишиваний провулок"},"geometry":{"type":"Point","coordinates":[37.514,48.66992]}},
{"type":"Feature","id":"808870326","properties":{"josm":"w808870326","name":"Рыночная улица","nameuk":"Ринкова вулиця"},"geometry":{"type":"Point","coordinates":[27.40571,49.43592]}},
{"type":"Feature","id":"808870327","properties":{"josm":"w808870327","name":"Ахтырский переулок","nameuk":"Охтирський провулок"},"geometry":{"type":"Point","coordinates":[27.40444,49.43534]}},
{"type":"Feature","id":"808870328","properties":{"josm":"w808870328","name":"Прибужская улица","nameuk":"Прибузька вулиця"},"geometry":{"type":"Point","coordinates":[27.40387,49.43469]}},
{"type":"Feature","id":"808921889","properties":{"josm":"w808921889","name":"Topol'na","nameuk":"Топольна"},"geometry":{"type":"Point","coordinates":[23.82572,49.80482]}},
{"type":"Feature","id":"809248148","properties":{"josm":"w809248148","name":"Лісова вулиця","nameuk":"Слов'янський провулок"},"geometry":{"type":"Point","coordinates":[34.60694,49.58968]}},
{"type":"Feature","id":"809482712","properties":{"josm":"w809482712","name":"Цитовський провулок","nameuk":"Рахівнича вулиця"},"geometry":{"type":"Point","coordinates":[34.5851,49.59839]}},
{"type":"Feature","id":"810577360","properties":{"josm":"w810577360","name":"ДнепроГЭС","nameuk":"ДніпроГЕС"},"geometry":{"type":"Point","coordinates":[35.0879,47.86848]}},
{"type":"Feature","id":"810820035","properties":{"josm":"w810820035","name":"Гравийная велодорожка (П.Поле - Пятихатки)","nameuk":"Гравійна велодоріжка (П.Поле - П'ятихатки)"},"geometry":{"type":"Point","coordinates":[36.24156,50.057]}},
{"type":"Feature"}
]}
