{
"type": "FeatureCollection",
"errorDescr": "Incorrect <b>name</b>-tag value",
"features": [
{"type":"Feature","id":"24933435","properties":{"josm":"w24933435","name":"Площадь Комбата Неустроева","nameuk":"Комбата Неустроєва площа"},"geometry":{"type":"Point","coordinates":[33.45198,44.59577]}},
{"type":"Feature","id":"24933436","properties":{"josm":"w24933436","name":"Площадь Комбата Неустроева","nameuk":"Комбата Неустроєва площа"},"geometry":{"type":"Point","coordinates":[33.45232,44.59526]}},
{"type":"Feature","id":"24933437","properties":{"josm":"w24933437","name":"Площадь Комбата Неустроева","nameuk":"Комбата Неустроєва площа"},"geometry":{"type":"Point","coordinates":[33.4521,44.59516]}},
{"type":"Feature","id":"24933459","properties":{"josm":"w24933459","name":"Площадь Комбата Неустроева","nameuk":"Комбата Неустроєва площа"},"geometry":{"type":"Point","coordinates":[33.45103,44.59557]}},
{"type":"Feature","id":"24933482","properties":{"josm":"w24933482","name":"Площадь Комбата Неустроева","nameuk":"Комбата Неустроєва площа"},"geometry":{"type":"Point","coordinates":[33.45108,44.59538]}},
{"type":"Feature","id":"25048969","properties":{"josm":"w25048969","name":"Площадь Лазарева","nameuk":"Лазарева площа"},"geometry":{"type":"Point","coordinates":[33.52012,44.61147]}},
{"type":"Feature","id":"28619107","properties":{"josm":"w28619107","name":"Площадь Комбата Неустроева","nameuk":"Комбата Неустроєва площа"},"geometry":{"type":"Point","coordinates":[33.45262,44.59599]}},
{"type":"Feature","id":"28619108","properties":{"josm":"w28619108","name":"Площадь Комбата Неустроева","nameuk":"Комбата Неустроєва площа"},"geometry":{"type":"Point","coordinates":[33.45238,44.5961]}},
{"type":"Feature","id":"36781585","properties":{"josm":"w36781585","name":"улица Героев Сталинграда","nameuk":"Героїв Сталінграда вулиця"},"geometry":{"type":"Point","coordinates":[34.06333,44.93836]}},
{"type":"Feature","id":"36781586","properties":{"josm":"w36781586","name":"улица Героев Сталинграда","nameuk":"Героїв Сталінграда вулиця"},"geometry":{"type":"Point","coordinates":[34.06563,44.93842]}},
{"type":"Feature","id":"39754948","properties":{"josm":"w39754948","name":"переулок Новикова","nameuk":"Новікова провулок"},"geometry":{"type":"Point","coordinates":[33.55465,44.52708]}},
{"type":"Feature","id":"59462539","properties":{"josm":"w59462539","name":"Центральная","nameuk":"Центральна"},"geometry":{"type":"Point","coordinates":[30.24627,50.52245]}},
{"type":"Feature","id":"83296600","properties":{"josm":"w83296600","name":"Чонгарский мост","nameuk":"Чонгарський міст"},"geometry":{"type":"Point","coordinates":[34.55253,45.98796]}},
{"type":"Feature","id":"85648613","properties":{"josm":"w85648613","name":"улица Героев Сталинграда","nameuk":"Героїв Сталінграда вулиця"},"geometry":{"type":"Point","coordinates":[34.05147,44.93721]}},
{"type":"Feature","id":"88208769","properties":{"josm":"w88208769","name":"улица Февральская","nameuk":"Лютнева вулиця"},"geometry":{"type":"Point","coordinates":[34.10895,44.96241]}},
{"type":"Feature","id":"90398599","properties":{"josm":"w90398599","name":"Московская улица","nameuk":"Москальова вулиця"},"geometry":{"type":"Point","coordinates":[34.07436,44.95725]}},
{"type":"Feature","id":"97509104","properties":{"josm":"w97509104","name":"улица Героев Сталинграда","nameuk":"Героїв Сталінграда вулиця"},"geometry":{"type":"Point","coordinates":[34.05504,44.9381]}},
{"type":"Feature","id":"107935273","properties":{"josm":"w107935273","name":"Симоненко улица","nameuk":"Симеренка вулиця"},"geometry":{"type":"Point","coordinates":[34.98392,44.84909]}},
{"type":"Feature","id":"108127184","properties":{"josm":"w108127184","name":"Селянська вулиця (15-я линия)","nameuk":"Селянська вулиця"},"geometry":{"type":"Point","coordinates":[30.33725,50.55382]}},
{"type":"Feature","id":"108339076","properties":{"josm":"w108339076","name":"шоссе Дражинского","nameuk":"Дражинського шосе"},"geometry":{"type":"Point","coordinates":[34.22205,44.5084]}},
{"type":"Feature","id":"116930612","properties":{"josm":"w116930612","name":"улица Сапунагорская","nameuk":"Сапунгорська вулиця"},"geometry":{"type":"Point","coordinates":[33.55737,44.53089]}},
{"type":"Feature","id":"122389855","properties":{"josm":"w122389855","name":"улица Героев Сталинграда","nameuk":"Героїв Сталінграда вулиця"},"geometry":{"type":"Point","coordinates":[34.0584,44.93745]}},
{"type":"Feature","id":"129743641","properties":{"josm":"w129743641","name":"улица Козлова","nameuk":"Козлова вулиця"},"geometry":{"type":"Point","coordinates":[34.09653,44.941]}},
{"type":"Feature","id":"135746706","properties":{"josm":"w135746706","name":"Дежнєва вулиця","nameuk":"Дежньова вулиця"},"geometry":{"type":"Point","coordinates":[38.38602,48.93415]}},
{"type":"Feature","id":"143178618","properties":{"josm":"w143178618","name":"улица Новая Дача","nameuk":"Новая Дача вулиця"},"geometry":{"type":"Point","coordinates":[36.55289,45.34947]}},
{"type":"Feature","id":"148112944","properties":{"josm":"w148112944","name":"Щорса вулиця (стор. пос.Дослідної ст.), Степова ввулиця (стор. с.Вигода)","nameuk":"Щорса вулиця"},"geometry":{"type":"Point","coordinates":[30.39234,46.60883]}},
{"type":"Feature","id":"211412837","properties":{"josm":"w211412837","name":"переулок Шевкопляса","nameuk":"Шевкопляса провулок"},"geometry":{"type":"Point","coordinates":[33.61131,44.61709]}},
{"type":"Feature","id":"243866526","properties":{"josm":"w243866526","name":"аллея Декабристов","nameuk":"Декабристів алея"},"geometry":{"type":"Point","coordinates":[34.40983,44.66357]}},
{"type":"Feature","id":"273656229","properties":{"josm":"w273656229","name":"улица Воли","nameuk":"Волі вулиця"},"geometry":{"type":"Point","coordinates":[34.57448,45.59416]}},
{"type":"Feature","id":"273656230","properties":{"josm":"w273656230","name":"улица Надежды","nameuk":"Надії вулиця"},"geometry":{"type":"Point","coordinates":[34.57342,45.59466]}},
{"type":"Feature","id":"291320992","properties":{"josm":"w291320992","name":"Площадь Комбата Неустроева","nameuk":"Комбата Неустроєва площа"},"geometry":{"type":"Point","coordinates":[33.45202,44.59535]}},
{"type":"Feature","id":"291320993","properties":{"josm":"w291320993","name":"Площадь Комбата Неустроева","nameuk":"Комбата Неустроєва площа"},"geometry":{"type":"Point","coordinates":[33.45154,44.59552]}},
{"type":"Feature"}
]}
