{
"type": "FeatureCollection",
"errorDescr": "Incorrect <b>name</b>-tag value",
"features": [
{"type":"Feature","id":"40049046","properties":{"josm":"w40049046","name":"Такжицька вулиця","nameuk":"Таджикська вулиця"},"geometry":{"type":"Point","coordinates":[35.20319,48.46966]}},
{"type":"Feature","id":"40057965","properties":{"josm":"w40057965","name":"Такжицька вулиця","nameuk":"Таджикська вулиця"},"geometry":{"type":"Point","coordinates":[35.19756,48.4676]}},
{"type":"Feature","id":"76858025","properties":{"josm":"w76858025","name":"1-я лінія","nameuk":"1-а лінія"},"geometry":{"type":"Point","coordinates":[30.81517,50.61811]}},
{"type":"Feature","id":"83296600","properties":{"josm":"w83296600","name":"Чонгарский мост","nameuk":"Чонгарський міст"},"geometry":{"type":"Point","coordinates":[34.55253,45.98796]}},
{"type":"Feature","id":"103425904","properties":{"josm":"w103425904","name":"103-я Садова вулиця","nameuk":"103-а Садова вулиця"},"geometry":{"type":"Point","coordinates":[30.59139,50.37665]}},
{"type":"Feature","id":"106089998","properties":{"josm":"w106089998","name":"11-а Лінія","nameuk":"11-а лінія"},"geometry":{"type":"Point","coordinates":[30.27181,50.54138]}},
{"type":"Feature","id":"115554203","properties":{"josm":"w115554203","name":"Юр’єва вулиця","nameuk":"Юрійова вулиця"},"geometry":{"type":"Point","coordinates":[37.80535,48.06259]}},
{"type":"Feature","id":"116569276","properties":{"josm":"w116569276","name":"Юрія Смирнова вулиця","nameuk":"Юрія Смірнова вулиця"},"geometry":{"type":"Point","coordinates":[37.7662,48.02867]}},
{"type":"Feature","id":"126632935","properties":{"josm":"w126632935","name":"Магнiтогорська вулиця","nameuk":"Магнітогорська вулиця"},"geometry":{"type":"Point","coordinates":[37.5917,48.75062]}},
{"type":"Feature","id":"132081335","properties":{"josm":"w132081335","name":"Констянтина Шолохова вулиця","nameuk":"Шолохова вулиця"},"geometry":{"type":"Point","coordinates":[38.39564,48.91653]}},
{"type":"Feature","id":"137572045","properties":{"josm":"w137572045","name":"50-лет СССР улица","nameuk":"50 років СРСР вулиця"},"geometry":{"type":"Point","coordinates":[38.10461,47.1149]}},
{"type":"Feature","id":"137572047","properties":{"josm":"w137572047","name":"60-лет СССР улица","nameuk":"60 років СРСР вулиця"},"geometry":{"type":"Point","coordinates":[38.08159,47.11838]}},
{"type":"Feature","id":"137572300","properties":{"josm":"w137572300","name":"50-лет СССР улица","nameuk":"50 років СРСР вулиця"},"geometry":{"type":"Point","coordinates":[38.10274,47.10808]}},
{"type":"Feature","id":"142957877","properties":{"josm":"w142957877","name":"8 Сьезда Советов улица","nameuk":"8-го З’їзду Рад вулиця"},"geometry":{"type":"Point","coordinates":[38.48762,47.78849]}},
{"type":"Feature","id":"145109061","properties":{"josm":"w145109061","name":"Бакинских Комисаров улица","nameuk":"Бакинських Комісарів вулиця"},"geometry":{"type":"Point","coordinates":[38.46601,48.03765]}},
{"type":"Feature","id":"148067325","properties":{"josm":"w148067325","name":"Златопольська вулиця","nameuk":"Златопільська вулиця"},"geometry":{"type":"Point","coordinates":[32.21317,48.48166]}},
{"type":"Feature","id":"148112944","properties":{"josm":"w148112944","name":"Щорса вулиця (стор. пос.Дослідної ст.), Степова ввулиця (стор. с.Вигода)","nameuk":"Щорса вулиця"},"geometry":{"type":"Point","coordinates":[30.39234,46.60883]}},
{"type":"Feature","id":"152450581","properties":{"josm":"w152450581","name":"50-лет Победы улица","nameuk":"50 років Перемоги вулиця"},"geometry":{"type":"Point","coordinates":[38.03026,47.41327]}},
{"type":"Feature","id":"155861824","properties":{"josm":"w155861824","name":"ул. Ленина","nameuk":"вул. Леніна"},"geometry":{"type":"Point","coordinates":[30.55065,46.48445]}},
{"type":"Feature","id":"167405079","properties":{"josm":"w167405079","name":"Юридика вулиця","nameuk":"Юдика вулиця"},"geometry":{"type":"Point","coordinates":[27.20651,49.74605]}},
{"type":"Feature","id":"169566576","properties":{"josm":"w169566576","name":"Лип'янська вулиця","nameuk":"Ганни Дмитришиної вулиця"},"geometry":{"type":"Point","coordinates":[26.02729,50.55492]}},
{"type":"Feature","id":"171633340","properties":{"josm":"w171633340","name":"Верхньошевченківський провулок","nameuk":"Верхньошевченківский провулок"},"geometry":{"type":"Point","coordinates":[37.17433,48.41055]}},
{"type":"Feature","id":"175083114","properties":{"josm":"w175083114","name":"Рози Люксембург переулок","nameuk":"Рози Люксембург вулиця"},"geometry":{"type":"Point","coordinates":[38.56009,48.85844]}},
{"type":"Feature","id":"183666170","properties":{"josm":"w183666170","name":"Скелевая улица","nameuk":"Смирнова вулиця"},"geometry":{"type":"Point","coordinates":[38.47919,47.89175]}},
{"type":"Feature","id":"188287368","properties":{"josm":"w188287368","name":"ул. 2-я Сортоиспытательная","nameuk":"вул. 2-я Сортовипробувальна"},"geometry":{"type":"Point","coordinates":[30.56051,46.45858]}},
{"type":"Feature","id":"188287407","properties":{"josm":"w188287407","name":"ул. Черноморская","nameuk":"вул. Чорноморська"},"geometry":{"type":"Point","coordinates":[30.55858,46.45833]}},
{"type":"Feature","id":"188289299","properties":{"josm":"w188289299","name":"ул. Шевченко","nameuk":"вул. Шевченко"},"geometry":{"type":"Point","coordinates":[30.57788,46.44246]}},
{"type":"Feature","id":"195081797","properties":{"josm":"w195081797","name":"Дружби провулок","nameuk":"Дружби вулиця"},"geometry":{"type":"Point","coordinates":[32.03086,46.88611]}},
{"type":"Feature","id":"200763050","properties":{"josm":"w200763050","name":"Южная дорога","nameuk":"Південна дорога"},"geometry":{"type":"Point","coordinates":[30.78038,46.56134]}},
{"type":"Feature","id":"201768132","properties":{"josm":"w201768132","name":"Шевченко вулиця","nameuk":"Шевченка вулиця"},"geometry":{"type":"Point","coordinates":[37.81524,47.09585]}},
{"type":"Feature","id":"205185203","properties":{"josm":"w205185203","name":"Южная дорога","nameuk":"Південна дорога"},"geometry":{"type":"Point","coordinates":[30.78052,46.56124]}},
{"type":"Feature","id":"210554239","properties":{"josm":"w210554239","name":"Магеллана Ф. вулиця","nameuk":"Магеллана вулиця"},"geometry":{"type":"Point","coordinates":[37.99315,48.06218]}},
{"type":"Feature","id":"227460040","properties":{"josm":"w227460040","name":"ул. Черноморская","nameuk":"вул. Чорноморська"},"geometry":{"type":"Point","coordinates":[30.5602,46.45419]}},
{"type":"Feature","id":"227460043","properties":{"josm":"w227460043","name":"ул. Профсоюзная","nameuk":"вул. Профспілкова"},"geometry":{"type":"Point","coordinates":[30.56245,46.4524]}},
{"type":"Feature","id":"232807015","properties":{"josm":"w232807015","name":"Шевченко улица","nameuk":"Шевченко вулиця"},"geometry":{"type":"Point","coordinates":[38.90737,49.27861]}},
{"type":"Feature","id":"251255495","properties":{"josm":"w251255495","name":"Зеленая улица","nameuk":"Зелена вулиця"},"geometry":{"type":"Point","coordinates":[33.3093,51.7711]}},
{"type":"Feature","id":"260620816","properties":{"josm":"w260620816","name":"улица Матросова","nameuk":"Матросова вулиця"},"geometry":{"type":"Point","coordinates":[34.74448,45.44781]}},
{"type":"Feature","id":"260620840","properties":{"josm":"w260620840","name":"улица Матросова","nameuk":"Матросова вулиця"},"geometry":{"type":"Point","coordinates":[34.74344,45.4481]}},
{"type":"Feature","id":"260620841","properties":{"josm":"w260620841","name":"улица Матросова","nameuk":"Матросова вулиця"},"geometry":{"type":"Point","coordinates":[34.74159,45.44861]}},
{"type":"Feature","id":"260620851","properties":{"josm":"w260620851","name":"улица Матросова","nameuk":"Матросова вулиця"},"geometry":{"type":"Point","coordinates":[34.73895,45.44863]}},
{"type":"Feature","id":"268115760","properties":{"josm":"w268115760","name":"Златопольська вулиця","nameuk":"Златопільська вулиця"},"geometry":{"type":"Point","coordinates":[32.21048,48.48023]}},
{"type":"Feature","id":"268115762","properties":{"josm":"w268115762","name":"Златопольська вулиця","nameuk":"Златопільська вулиця"},"geometry":{"type":"Point","coordinates":[32.20853,48.47917]}},
{"type":"Feature","id":"272921005","properties":{"josm":"w272921005","name":"Матяхина переулок","nameuk":"Матяхіна провулок"},"geometry":{"type":"Point","coordinates":[34.93156,45.33989]}},
{"type":"Feature","id":"294813883","properties":{"josm":"w294813883","name":"Черняхівського вулиця","nameuk":"Черняховського вулиця"},"geometry":{"type":"Point","coordinates":[38.01292,48.3559]}},
{"type":"Feature","id":"295281340","properties":{"josm":"w295281340","name":"Чкалова улица","nameuk":"Садова вулиця"},"geometry":{"type":"Point","coordinates":[30.24314,46.44675]}},
{"type":"Feature","id":"315917350","properties":{"josm":"w315917350","name":"ул. Шевченко","nameuk":"вул. Шевченко"},"geometry":{"type":"Point","coordinates":[30.57709,46.44972]}},
{"type":"Feature","id":"315917992","properties":{"josm":"w315917992","name":"ул. Шевченко","nameuk":"вул. Шевченко"},"geometry":{"type":"Point","coordinates":[30.5795,46.43511]}},
{"type":"Feature","id":"323550643","properties":{"josm":"w323550643","name":"Дворецька вулиця","nameuk":"17 вересня вулиця"},"geometry":{"type":"Point","coordinates":[26.03028,50.54351]}},
{"type":"Feature","id":"335673623","properties":{"josm":"w335673623","name":"60-лет СССР улица","nameuk":"60 років СРСР вулиця"},"geometry":{"type":"Point","coordinates":[37.19007,47.0544]}},
{"type":"Feature","id":"364393518","properties":{"josm":"w364393518","name":"8 Сьезда Советов улица","nameuk":"8-го З’їзду Рад вулиця"},"geometry":{"type":"Point","coordinates":[38.49673,47.78851]}},
{"type":"Feature","id":"374272911","properties":{"josm":"w374272911","name":"Зеленая улица","nameuk":"Зелена вулиця"},"geometry":{"type":"Point","coordinates":[33.30461,51.76865]}},
{"type":"Feature","id":"379371683","properties":{"josm":"w379371683","name":"Шевченко улица","nameuk":"Шевченко вулиця"},"geometry":{"type":"Point","coordinates":[38.90885,49.28127]}},
{"type":"Feature"}
]}
