{
"type": "FeatureCollection",
"errorDescr": "Incorrect <b>name</b>-tag value",
"features": [
{"type":"Feature","id":"27954936","properties":{"josm":"w27954936","name":"улица Ерошенко","nameuk":"Єрошенка вулиця"},"geometry":{"type":"Point","coordinates":[33.49165,44.6044]}},
{"type":"Feature","id":"33762100","properties":{"josm":"w33762100","name":"Лукияна Січинського вулиця","nameuk":"Лукіяна Січинського вулиця"},"geometry":{"type":"Point","coordinates":[23.79938,49.83054]}},
{"type":"Feature","id":"42257997","properties":{"josm":"w42257997","name":"Сабарівське шосе","nameuk":"Сабаровське шосе"},"geometry":{"type":"Point","coordinates":[28.43548,49.2082]}},
{"type":"Feature","id":"108127184","properties":{"josm":"w108127184","name":"Селянська вулиця (15-я линия)","nameuk":"Селянська вулиця"},"geometry":{"type":"Point","coordinates":[30.33725,50.55382]}},
{"type":"Feature","id":"135746706","properties":{"josm":"w135746706","name":"Дежнєва вулиця","nameuk":"Дежньова вулиця"},"geometry":{"type":"Point","coordinates":[38.38602,48.93415]}},
{"type":"Feature","id":"148112944","properties":{"josm":"w148112944","name":"Щорса вулиця (стор. пос.Дослідної ст.), Степова ввулиця (стор. с.Вигода)","nameuk":"Щорса вулиця"},"geometry":{"type":"Point","coordinates":[30.39234,46.60883]}},
{"type":"Feature","id":"153315417","properties":{"josm":"w153315417","name":"Тараса Шевченка вулиця","nameuk":"Шевченка"},"geometry":{"type":"Point","coordinates":[23.35489,49.22104]}},
{"type":"Feature","id":"171633340","properties":{"josm":"w171633340","name":"Верхньошевченківський провулок","nameuk":"Верхнешевченківский провулок"},"geometry":{"type":"Point","coordinates":[37.17433,48.41055]}},
{"type":"Feature","id":"177229958","properties":{"josm":"w177229958","name":"Зиґзаґ вулиця","nameuk":"Зигзаг вулиця"},"geometry":{"type":"Point","coordinates":[23.98225,49.83129]}},
{"type":"Feature","id":"188152176","properties":{"josm":"w188152176","name":"Журавлинна вулиця","nameuk":"Журавлина вулиця"},"geometry":{"type":"Point","coordinates":[23.86944,49.83496]}},
{"type":"Feature","id":"210554239","properties":{"josm":"w210554239","name":"Магеллана Ф. вулиця","nameuk":"Магеллана вулиця"},"geometry":{"type":"Point","coordinates":[37.99315,48.06218]}},
{"type":"Feature","id":"246785143","properties":{"josm":"w246785143","name":"Béke utca","nameuk":"Миру вулиця"},"geometry":{"type":"Point","coordinates":[22.75757,48.16324]}},
{"type":"Feature","id":"246802477","properties":{"josm":"w246802477","name":"Béke utca","nameuk":"Миру вулиця"},"geometry":{"type":"Point","coordinates":[22.71738,48.12355]}},
{"type":"Feature","id":"291438576","properties":{"josm":"w291438576","name":"улица Дмитрия Ульянова","nameuk":"Дмитра Ульянова вулиця"},"geometry":{"type":"Point","coordinates":[33.49367,44.60429]}},
{"type":"Feature"}
]}
