{
"type": "FeatureCollection",
"errorDescr": "Incorrect <b>name</b>-tag value",
"features": [
{"type":"Feature","id":"33762100","properties":{"josm":"w33762100","name":"Лукияна Січинського вулиця","nameuk":"Лукіяна Січинського вулиця"},"geometry":{"type":"Point","coordinates":[23.79938,49.83054]}},
{"type":"Feature","id":"33868373","properties":{"josm":"w33868373","name":"Мирона Тарновського вулиця","nameuk":"Мирона Тарнавського вулиця"},"geometry":{"type":"Point","coordinates":[23.83795,49.83292]}},
{"type":"Feature","id":"38813348","properties":{"josm":"w38813348","name":"Рубанівська вулиця","nameuk":"Клапцова вулиця"},"geometry":{"type":"Point","coordinates":[36.19559,49.98244]}},
{"type":"Feature","id":"42257997","properties":{"josm":"w42257997","name":"Сабарівське шосе","nameuk":"Сабаровське шосе"},"geometry":{"type":"Point","coordinates":[28.43548,49.2082]}},
{"type":"Feature","id":"43513830","properties":{"josm":"w43513830","name":"Совєтська вулиця","nameuk":"Радянська вулиця"},"geometry":{"type":"Point","coordinates":[38.22075,49.04596]}},
{"type":"Feature","id":"51048982","properties":{"josm":"w51048982","name":"Шишкінський","nameuk":"Шишкінський провулок"},"geometry":{"type":"Point","coordinates":[30.48239,50.47575]}},
{"type":"Feature","id":"76858025","properties":{"josm":"w76858025","name":"1-я линия","nameuk":"1-а лінія"},"geometry":{"type":"Point","coordinates":[30.81517,50.61811]}},
{"type":"Feature","id":"76858269","properties":{"josm":"w76858269","name":"2-я линия","nameuk":"2-а лінія"},"geometry":{"type":"Point","coordinates":[30.81434,50.61843]}},
{"type":"Feature","id":"83296600","properties":{"josm":"w83296600","name":"Чонгарский мост","nameuk":"Чонгарський міст"},"geometry":{"type":"Point","coordinates":[34.55253,45.98796]}},
{"type":"Feature","id":"108127184","properties":{"josm":"w108127184","name":"Селянська вулиця (15-я линия)","nameuk":"Селянська вулиця"},"geometry":{"type":"Point","coordinates":[30.33725,50.55382]}},
{"type":"Feature","id":"132416317","properties":{"josm":"w132416317","name":"Червоноармейский переулок","nameuk":"Червоноармійський провулок"},"geometry":{"type":"Point","coordinates":[37.54526,47.94666]}},
{"type":"Feature","id":"135746706","properties":{"josm":"w135746706","name":"Дежнєва вулиця","nameuk":"Дежньова вулиця"},"geometry":{"type":"Point","coordinates":[38.38602,48.93415]}},
{"type":"Feature","id":"136115682","properties":{"josm":"w136115682","name":"2-й Баштанский переулок","nameuk":"2-й Баштанський провулок"},"geometry":{"type":"Point","coordinates":[32.05401,46.96212]}},
{"type":"Feature","id":"148112944","properties":{"josm":"w148112944","name":"Щорса вулиця (стор. пос.Дослідної ст.), Степова ввулиця (стор. с.Вигода)","nameuk":"Щорса вулиця"},"geometry":{"type":"Point","coordinates":[30.39234,46.60883]}},
{"type":"Feature","id":"150431029","properties":{"josm":"w150431029","name":"20 років Міліції вулиця","nameuk":"20 років міліції вулиця"},"geometry":{"type":"Point","coordinates":[32.26616,48.49446]}},
{"type":"Feature","id":"155861824","properties":{"josm":"w155861824","name":"ул. Ленина","nameuk":"вул. Леніна"},"geometry":{"type":"Point","coordinates":[30.55065,46.48445]}},
{"type":"Feature","id":"171633340","properties":{"josm":"w171633340","name":"Верхньошевченківський провулок","nameuk":"Верхнешевченківский провулок"},"geometry":{"type":"Point","coordinates":[37.17433,48.41055]}},
{"type":"Feature","id":"177229958","properties":{"josm":"w177229958","name":"Зиґзаґ вулиця","nameuk":"Зигзаг вулиця"},"geometry":{"type":"Point","coordinates":[23.98225,49.83129]}},
{"type":"Feature","id":"188152176","properties":{"josm":"w188152176","name":"Журавлинна вулиця","nameuk":"Журавлина вулиця"},"geometry":{"type":"Point","coordinates":[23.86944,49.83496]}},
{"type":"Feature","id":"188287368","properties":{"josm":"w188287368","name":"ул. 2-я Сортоиспытательная","nameuk":"вул. 2-я Сортовипробувальна"},"geometry":{"type":"Point","coordinates":[30.56051,46.45858]}},
{"type":"Feature","id":"188287407","properties":{"josm":"w188287407","name":"ул. Черноморская","nameuk":"вул. Чорноморська"},"geometry":{"type":"Point","coordinates":[30.55858,46.45833]}},
{"type":"Feature","id":"188289299","properties":{"josm":"w188289299","name":"ул. Шевченко","nameuk":"вул. Шевченко"},"geometry":{"type":"Point","coordinates":[30.57788,46.44246]}},
{"type":"Feature","id":"210554239","properties":{"josm":"w210554239","name":"Магеллана Ф. вулиця","nameuk":"Магеллана вулиця"},"geometry":{"type":"Point","coordinates":[37.99315,48.06218]}},
{"type":"Feature","id":"227460040","properties":{"josm":"w227460040","name":"ул. Черноморская","nameuk":"вул. Чорноморська"},"geometry":{"type":"Point","coordinates":[30.5602,46.45419]}},
{"type":"Feature","id":"227460043","properties":{"josm":"w227460043","name":"ул. Профсоюзная","nameuk":"вул. Профспілкова"},"geometry":{"type":"Point","coordinates":[30.56245,46.4524]}},
{"type":"Feature","id":"260620871","properties":{"josm":"w260620871","name":"лица Фонтанная","nameuk":"Фонтанна вулиця"},"geometry":{"type":"Point","coordinates":[34.73758,45.45191]}},
{"type":"Feature","id":"260647558","properties":{"josm":"w260647558","name":"Коммунальная улица","nameuk":"Комунальна вулиця"},"geometry":{"type":"Point","coordinates":[34.73338,45.44689]}},
{"type":"Feature","id":"263736875","properties":{"josm":"w263736875","name":"Sport út","nameuk":"Спортивна вулиця"},"geometry":{"type":"Point","coordinates":[22.39319,48.42632]}},
{"type":"Feature","id":"272921005","properties":{"josm":"w272921005","name":"Матяхина переулок","nameuk":"Матяхіна провулок"},"geometry":{"type":"Point","coordinates":[34.93156,45.33989]}},
{"type":"Feature","id":"315917350","properties":{"josm":"w315917350","name":"ул. Шевченко","nameuk":"вул. Шевченко"},"geometry":{"type":"Point","coordinates":[30.57709,46.44972]}},
{"type":"Feature","id":"315917992","properties":{"josm":"w315917992","name":"ул. Шевченко","nameuk":"вул. Шевченко"},"geometry":{"type":"Point","coordinates":[30.5795,46.43511]}},
{"type":"Feature","id":"330455953","properties":{"josm":"w330455953","name":"Народовольська вулиця","nameuk":"Виноградна вулиця"},"geometry":{"type":"Point","coordinates":[37.62907,47.09695]}},
{"type":"Feature","id":"334191631","properties":{"josm":"w334191631","name":"Шахтный переулок","nameuk":"Садова вулиця"},"geometry":{"type":"Point","coordinates":[37.53352,47.9326]}},
{"type":"Feature","id":"334778269","properties":{"josm":"w334778269","name":"Червоноармейский переулок","nameuk":"Червоноармійський провулок"},"geometry":{"type":"Point","coordinates":[37.54187,47.94707]}},
{"type":"Feature","id":"335029710","properties":{"josm":"w335029710","name":"Первомайская улица","nameuk":"Зелена вулиця"},"geometry":{"type":"Point","coordinates":[37.49161,47.95376]}},
{"type":"Feature","id":"335029711","properties":{"josm":"w335029711","name":"Первомайская улица","nameuk":"Комуни вулиця"},"geometry":{"type":"Point","coordinates":[37.48395,47.95686]}},
{"type":"Feature","id":"335558412","properties":{"josm":"w335558412","name":"Народовольська вулиця","nameuk":"Виноградна вулиця"},"geometry":{"type":"Point","coordinates":[37.62695,47.09747]}},
{"type":"Feature","id":"336559661","properties":{"josm":"w336559661","name":"Горького улица","nameuk":"Горького вулиця"},"geometry":{"type":"Point","coordinates":[38.57684,47.82714]}},
{"type":"Feature","id":"337558432","properties":{"josm":"w337558432","name":"Горисело","nameuk":"Терешкова вулиця"},"geometry":{"type":"Point","coordinates":[25.84502,48.69687]}},
{"type":"Feature","id":"337792156","properties":{"josm":"w337792156","name":"Терешкова","nameuk":"Терешкова вулиця"},"geometry":{"type":"Point","coordinates":[25.84263,48.69351]}},
{"type":"Feature"}
]}
