{
"type": "FeatureCollection",
"errorDescr": "Incorrect <b>name</b>-tag value",
"features": [
{"type":"Feature","id":"23757595","properties":{"josm":"w23757595","name":"майдан Павловський","nameuk":"Павловська площа"},"geometry":{"type":"Point","coordinates":[36.22773,49.98743]}},
{"type":"Feature","id":"23861941","properties":{"josm":"w23861941","name":"майдан Павловський","nameuk":"Павловська площа"},"geometry":{"type":"Point","coordinates":[36.23152,49.98804]}},
{"type":"Feature","id":"31526969","properties":{"josm":"w31526969","name":"Измаильская улица","nameuk":"Ізмаїльська вулиця"},"geometry":{"type":"Point","coordinates":[30.69979,46.37175]}},
{"type":"Feature","id":"31526975","properties":{"josm":"w31526975","name":"Институтская улица","nameuk":"Інститутська вулиця"},"geometry":{"type":"Point","coordinates":[30.70066,46.37729]}},
{"type":"Feature","id":"31526977","properties":{"josm":"w31526977","name":"Берёзовая улица","nameuk":"Березова вулиця"},"geometry":{"type":"Point","coordinates":[30.70058,46.38127]}},
{"type":"Feature","id":"31527021","properties":{"josm":"w31527021","name":"Арцизская улица","nameuk":"Арцизька вулиця"},"geometry":{"type":"Point","coordinates":[30.69995,46.37142]}},
{"type":"Feature","id":"33792915","properties":{"josm":"w33792915","name":"Площадь Ленина","nameuk":"Площа Леніна"},"geometry":{"type":"Point","coordinates":[35.25617,48.63399]}},
{"type":"Feature","id":"34497738","properties":{"josm":"w34497738","name":"3-й Зерновой проезд","nameuk":"3-й Зерновий проїзд"},"geometry":{"type":"Point","coordinates":[36.27116,49.95139]}},
{"type":"Feature","id":"34679755","properties":{"josm":"w34679755","name":"Терихівська вулиця","nameuk":"Скорохода вулиця"},"geometry":{"type":"Point","coordinates":[36.18191,49.99515]}},
{"type":"Feature","id":"34699688","properties":{"josm":"w34699688","name":"Андріївська вулиця","nameuk":"Кубасова вулиця"},"geometry":{"type":"Point","coordinates":[36.19547,50.0011]}},
{"type":"Feature","id":"34702212","properties":{"josm":"w34702212","name":"Велика Панасівська вулиця","nameuk":"Котлова вулиця"},"geometry":{"type":"Point","coordinates":[36.20518,49.99829]}},
{"type":"Feature","id":"34838612","properties":{"josm":"w34838612","name":"Юрія Кондратюка провулок","nameuk":"Івана Кулика в’їзд"},"geometry":{"type":"Point","coordinates":[36.29206,50.04103]}},
{"type":"Feature","id":"38169952","properties":{"josm":"w38169952","name":"Симферопольское шоссе 2","nameuk":"Сімферопольське шосе"},"geometry":{"type":"Point","coordinates":[34.20098,44.51376]}},
{"type":"Feature","id":"38240751","properties":{"josm":"w38240751","name":"майдан Павловський","nameuk":"Павловська площа"},"geometry":{"type":"Point","coordinates":[36.22857,49.98722]}},
{"type":"Feature","id":"83296600","properties":{"josm":"w83296600","name":"Чонгарский мост","nameuk":"Чонгарський міст"},"geometry":{"type":"Point","coordinates":[34.55253,45.98796]}},
{"type":"Feature","id":"86463430","properties":{"josm":"w86463430","name":"Терихівська вулиця","nameuk":"Скорохода вулиця"},"geometry":{"type":"Point","coordinates":[36.18417,49.99402]}},
{"type":"Feature","id":"89529678","properties":{"josm":"w89529678","name":"Велика Панасівська вулиця","nameuk":"Котлова вулиця"},"geometry":{"type":"Point","coordinates":[36.17757,50.03779]}},
{"type":"Feature","id":"106089998","properties":{"josm":"w106089998","name":"11-а Лінія","nameuk":"11-а лінія"},"geometry":{"type":"Point","coordinates":[30.27181,50.54138]}},
{"type":"Feature","id":"120418169","properties":{"josm":"w120418169","name":"Велика Панасівська вулиця","nameuk":"Котлова вулиця"},"geometry":{"type":"Point","coordinates":[36.18907,50.0215]}},
{"type":"Feature","id":"120418172","properties":{"josm":"w120418172","name":"Бориса Шрамка вулиця","nameuk":"Дацька вулиця"},"geometry":{"type":"Point","coordinates":[36.19789,50.00453]}},
{"type":"Feature","id":"120418930","properties":{"josm":"w120418930","name":"Велика Панасівська вулиця","nameuk":"Котлова вулиця"},"geometry":{"type":"Point","coordinates":[36.21509,49.99366]}},
{"type":"Feature","id":"128976367","properties":{"josm":"w128976367","name":"Коцюбинского","nameuk":"Коцюбинського"},"geometry":{"type":"Point","coordinates":[32.73893,46.68151]}},
{"type":"Feature","id":"131630898","properties":{"josm":"w131630898","name":"Велика Панасівська вулиця","nameuk":"Котлова вулиця"},"geometry":{"type":"Point","coordinates":[36.21102,49.99644]}},
{"type":"Feature","id":"131630899","properties":{"josm":"w131630899","name":"Велика Панасівська вулиця","nameuk":"Котлова вулиця"},"geometry":{"type":"Point","coordinates":[36.20172,50.00273]}},
{"type":"Feature","id":"131630900","properties":{"josm":"w131630900","name":"Велика Панасівська вулиця","nameuk":"Котлова вулиця"},"geometry":{"type":"Point","coordinates":[36.20572,49.99775]}},
{"type":"Feature","id":"131670492","properties":{"josm":"w131670492","name":"Велика Панасівська вулиця","nameuk":"Котлова вулиця"},"geometry":{"type":"Point","coordinates":[36.21064,49.99661]}},
{"type":"Feature","id":"135271038","properties":{"josm":"w135271038","name":"Бригадная вулиця","nameuk":"Бригадна вулиця"},"geometry":{"type":"Point","coordinates":[32.04669,46.87591]}},
{"type":"Feature","id":"135289283","properties":{"josm":"w135289283","name":"Бахмутская вулиця","nameuk":"Артема вулиця"},"geometry":{"type":"Point","coordinates":[38.3677,48.62063]}},
{"type":"Feature","id":"136240219","properties":{"josm":"w136240219","name":"Носаль Є. І. вулиця","nameuk":"Носаль вулиця"},"geometry":{"type":"Point","coordinates":[35.29509,47.37318]}},
{"type":"Feature","id":"137572682","properties":{"josm":"w137572682","name":"Молодежная улица","nameuk":"Молодіжна вулиця"},"geometry":{"type":"Point","coordinates":[38.10788,47.11351]}},
{"type":"Feature","id":"145109061","properties":{"josm":"w145109061","name":"Бакинских Комисаров улица","nameuk":"Бакинських Комісарів вулиця"},"geometry":{"type":"Point","coordinates":[38.46601,48.03765]}},
{"type":"Feature","id":"148112944","properties":{"josm":"w148112944","name":"Щорса вулиця (стор. пос.Дослідної ст.), Степова ввулиця (стор. с.Вигода)","nameuk":"Щорса вулиця"},"geometry":{"type":"Point","coordinates":[30.39234,46.60883]}},
{"type":"Feature","id":"148890730","properties":{"josm":"w148890730","name":"Chekhov street","nameuk":"Чехова"},"geometry":{"type":"Point","coordinates":[29.05186,50.30726]}},
{"type":"Feature","id":"159981419","properties":{"josm":"w159981419","name":"майдан Павловський","nameuk":"Павловська площа"},"geometry":{"type":"Point","coordinates":[36.23287,49.98833]}},
{"type":"Feature","id":"167991159","properties":{"josm":"w167991159","name":"Садова провулок чи вулиця?","nameuk":"Садова провулок"},"geometry":{"type":"Point","coordinates":[33.17754,49.59085]}},
{"type":"Feature","id":"169332202","properties":{"josm":"w169332202","name":"Братів Савченків вулиця","nameuk":"Савченка вулиця"},"geometry":{"type":"Point","coordinates":[31.97926,49.48713]}},
{"type":"Feature","id":"169566576","properties":{"josm":"w169566576","name":"Лип'янська вулиця","nameuk":"Ганни Дмитришиної вулиця"},"geometry":{"type":"Point","coordinates":[26.02729,50.55492]}},
{"type":"Feature","id":"173075961","properties":{"josm":"w173075961","name":"Ніни Сагайдак вулиця","nameuk":"Нины Сагайдак улица"},"geometry":{"type":"Point","coordinates":[31.37119,51.52733]}},
{"type":"Feature","id":"173075966","properties":{"josm":"w173075966","name":"Ніни Сагайдак провулок","nameuk":"Нины Сагайдак переулок"},"geometry":{"type":"Point","coordinates":[31.37247,51.52672]}},
{"type":"Feature","id":"175083114","properties":{"josm":"w175083114","name":"Рози Люксембург переулок","nameuk":"Рози Люксембург вулиця"},"geometry":{"type":"Point","coordinates":[38.56009,48.85844]}},
{"type":"Feature","id":"185802436","properties":{"josm":"w185802436","name":"1-й Ігоря Муратова провулок","nameuk":"1-й Тіняковський провулок"},"geometry":{"type":"Point","coordinates":[36.14971,49.98269]}},
{"type":"Feature","id":"185853212","properties":{"josm":"w185853212","name":"2-й Ігоря Муратова провулок","nameuk":"2-й Тіняковський провулок"},"geometry":{"type":"Point","coordinates":[36.14956,49.98184]}},
{"type":"Feature","id":"188287368","properties":{"josm":"w188287368","name":"ул. 2-я Сортоиспытательная","nameuk":"вул. 2-я Сортовипробувальна"},"geometry":{"type":"Point","coordinates":[30.56051,46.45858]}},
{"type":"Feature","id":"188636038","properties":{"josm":"w188636038","name":"Велика Панасівська вулиця","nameuk":"Котлова вулиця"},"geometry":{"type":"Point","coordinates":[36.20591,49.99782]}},
{"type":"Feature","id":"197843257","properties":{"josm":"w197843257","name":"майдан Павловський","nameuk":"Павловська площа"},"geometry":{"type":"Point","coordinates":[36.22929,49.9877]}},
{"type":"Feature","id":"198082110","properties":{"josm":"w198082110","name":"майдан Павловський","nameuk":"Павловська площа"},"geometry":{"type":"Point","coordinates":[36.23,49.98734]}},
{"type":"Feature","id":"198082111","properties":{"josm":"w198082111","name":"майдан Павловський","nameuk":"Павловська площа"},"geometry":{"type":"Point","coordinates":[36.23148,49.98784]}},
{"type":"Feature","id":"200562485","properties":{"josm":"w200562485","name":"Рыночная улица","nameuk":"Ринкова вулиця"},"geometry":{"type":"Point","coordinates":[30.70173,46.38146]}},
{"type":"Feature","id":"200562490","properties":{"josm":"w200562490","name":"Миндальная улица","nameuk":"Мигдальна вулиця"},"geometry":{"type":"Point","coordinates":[30.69308,46.37935]}},
{"type":"Feature","id":"200562493","properties":{"josm":"w200562493","name":"Новосёлов улица","nameuk":"вулиця Новоселів"},"geometry":{"type":"Point","coordinates":[30.69412,46.37952]}},
{"type":"Feature","id":"202938490","properties":{"josm":"w202938490","name":"Об’їздна вулиця","nameuk":"Об’їзна вулиця"},"geometry":{"type":"Point","coordinates":[33.72367,46.99864]}},
{"type":"Feature","id":"204094857","properties":{"josm":"w204094857","name":"Велика Панасівська вулиця","nameuk":"Котлова вулиця"},"geometry":{"type":"Point","coordinates":[36.20498,49.99822]}},
{"type":"Feature","id":"208446072","properties":{"josm":"w208446072","name":"майдан Павловський","nameuk":"Павловська площа"},"geometry":{"type":"Point","coordinates":[36.22773,49.98706]}},
{"type":"Feature","id":"226717386","properties":{"josm":"w226717386","name":"Северная улица","nameuk":"Північна вулиця"},"geometry":{"type":"Point","coordinates":[30.69989,46.38299]}},
{"type":"Feature","id":"226717391","properties":{"josm":"w226717391","name":"Ёлочный переулок","nameuk":"Ялинковий провулок"},"geometry":{"type":"Point","coordinates":[30.69794,46.38143]}},
{"type":"Feature","id":"226717393","properties":{"josm":"w226717393","name":"Виноградная улица","nameuk":"Виноградна вулиця"},"geometry":{"type":"Point","coordinates":[30.69926,46.37717]}},
{"type":"Feature","id":"226847605","properties":{"josm":"w226847605","name":"Толбухина улица","nameuk":"Толбухіна вулиця"},"geometry":{"type":"Point","coordinates":[28.7896,45.34546]}},
{"type":"Feature","id":"230593943","properties":{"josm":"w230593943","name":"Балтская улица","nameuk":"Балтська вулиця"},"geometry":{"type":"Point","coordinates":[30.69523,46.36997]}},
{"type":"Feature","id":"230593948","properties":{"josm":"w230593948","name":"Килийская улица","nameuk":"Кілійська вулиця"},"geometry":{"type":"Point","coordinates":[30.70155,46.37415]}},
{"type":"Feature","id":"230593954","properties":{"josm":"w230593954","name":"Кодымская улица","nameuk":"Кодимська вулиця"},"geometry":{"type":"Point","coordinates":[30.69659,46.37378]}},
{"type":"Feature","id":"251255495","properties":{"josm":"w251255495","name":"Зелёная улица","nameuk":"Зелена вулиця"},"geometry":{"type":"Point","coordinates":[33.3093,51.7711]}},
{"type":"Feature","id":"262721205","properties":{"josm":"w262721205","name":"Чайкиної вулиця","nameuk":"Чайкіної вулиця"},"geometry":{"type":"Point","coordinates":[37.52005,47.5843]}},
{"type":"Feature","id":"304386665","properties":{"josm":"w304386665","name":"Молодежная улица","nameuk":"Молодіжна вулиця"},"geometry":{"type":"Point","coordinates":[38.07073,47.67644]}},
{"type":"Feature","id":"304386676","properties":{"josm":"w304386676","name":"Молодежная улица","nameuk":"Молодіжна вулиця"},"geometry":{"type":"Point","coordinates":[38.07138,47.67776]}},
{"type":"Feature","id":"308959403","properties":{"josm":"w308959403","name":"Северная","nameuk":"Північна"},"geometry":{"type":"Point","coordinates":[30.63795,46.44187]}},
{"type":"Feature","id":"308959404","properties":{"josm":"w308959404","name":"Южная","nameuk":"Південна"},"geometry":{"type":"Point","coordinates":[30.63896,46.43847]}},
{"type":"Feature","id":"308959405","properties":{"josm":"w308959405","name":"Розовая","nameuk":"Рожева"},"geometry":{"type":"Point","coordinates":[30.63747,46.44009]}},
{"type":"Feature","id":"308959406","properties":{"josm":"w308959406","name":"Серая","nameuk":"Сіра"},"geometry":{"type":"Point","coordinates":[30.63773,46.44011]}},
{"type":"Feature","id":"308959407","properties":{"josm":"w308959407","name":"Зелёная","nameuk":"Зелена"},"geometry":{"type":"Point","coordinates":[30.63797,46.44013]}},
{"type":"Feature","id":"308959408","properties":{"josm":"w308959408","name":"Центральная","nameuk":"Центральна"},"geometry":{"type":"Point","coordinates":[30.63815,46.44015]}},
{"type":"Feature","id":"308959409","properties":{"josm":"w308959409","name":"Абрикосовая","nameuk":"Абрикосова"},"geometry":{"type":"Point","coordinates":[30.63839,46.44017]}},
{"type":"Feature","id":"308959410","properties":{"josm":"w308959410","name":"Бежевая","nameuk":"Бежева"},"geometry":{"type":"Point","coordinates":[30.63862,46.44018]}},
{"type":"Feature","id":"308959411","properties":{"josm":"w308959411","name":"Голубая","nameuk":"Блакитна"},"geometry":{"type":"Point","coordinates":[30.63886,46.4402]}},
{"type":"Feature","id":"308959412","properties":{"josm":"w308959412","name":"Синяя","nameuk":"Синя"},"geometry":{"type":"Point","coordinates":[30.6391,46.44022]}},
{"type":"Feature","id":"308959413","properties":{"josm":"w308959413","name":"Рыночная","nameuk":"Ринкова"},"geometry":{"type":"Point","coordinates":[30.63933,46.44025]}},
{"type":"Feature","id":"308959414","properties":{"josm":"w308959414","name":"Авангардная","nameuk":"Авангардна"},"geometry":{"type":"Point","coordinates":[30.63953,46.44027]}},
{"type":"Feature","id":"324619787","properties":{"josm":"w324619787","name":"Myrna St","nameuk":"Мирна вул."},"geometry":{"type":"Point","coordinates":[30.50731,50.46409]}},
{"type":"Feature","id":"333432096","properties":{"josm":"w333432096","name":"Молодежная улица","nameuk":"Молодіжна вулиця"},"geometry":{"type":"Point","coordinates":[38.07158,47.67763]}},
{"type":"Feature","id":"336116218","properties":{"josm":"w336116218","name":"Озерная улица","nameuk":"Озерна вулиця"},"geometry":{"type":"Point","coordinates":[37.44875,48.57493]}},
{"type":"Feature","id":"336121459","properties":{"josm":"w336121459","name":"Дальний переулок","nameuk":"Дальній провулок"},"geometry":{"type":"Point","coordinates":[30.69628,46.38128]}},
{"type":"Feature","id":"371304903","properties":{"josm":"w371304903","name":"Площа Миру","nameuk":"Площа Мира"},"geometry":{"type":"Point","coordinates":[37.58573,48.73752]}},
{"type":"Feature","id":"374272283","properties":{"josm":"w374272283","name":"Зелёная улица","nameuk":"Зелена вулиця"},"geometry":{"type":"Point","coordinates":[33.30219,51.76598]}},
{"type":"Feature","id":"374272911","properties":{"josm":"w374272911","name":"Зелёная улица","nameuk":"Зелена вулиця"},"geometry":{"type":"Point","coordinates":[33.30461,51.76865]}},
{"type":"Feature","id":"383036880","properties":{"josm":"w383036880","name":"Велика Панасівська вулиця","nameuk":"Котлова вулиця"},"geometry":{"type":"Point","coordinates":[36.20185,50.00278]}},
{"type":"Feature","id":"384988192","properties":{"josm":"w384988192","name":"Olehivska Street","nameuk":"Олегівська вулиця"},"geometry":{"type":"Point","coordinates":[30.50858,50.46428]}},
{"type":"Feature","id":"390098801","properties":{"josm":"w390098801","name":"Корниевского","nameuk":"Корнiевського"},"geometry":{"type":"Point","coordinates":[32.24594,51.7791]}},
{"type":"Feature","id":"395269031","properties":{"josm":"w395269031","name":"Носаль Є. І. вулиця","nameuk":"Носаль вулиця"},"geometry":{"type":"Point","coordinates":[35.3103,47.37529]}},
{"type":"Feature","id":"395973029","properties":{"josm":"w395973029","name":"Шанцера улица","nameuk":"Шанцера вулиця"},"geometry":{"type":"Point","coordinates":[30.39084,46.12713]}},
{"type":"Feature","id":"396040883","properties":{"josm":"w396040883","name":"Пархоменко улица","nameuk":"Пархоменка вулиця"},"geometry":{"type":"Point","coordinates":[30.36612,46.13978]}},
{"type":"Feature","id":"396043808","properties":{"josm":"w396043808","name":"Пионерская улица","nameuk":"Піонерська вулиця"},"geometry":{"type":"Point","coordinates":[30.38417,46.11199]}},
{"type":"Feature","id":"396301366","properties":{"josm":"w396301366","name":"Победы улица","nameuk":"Перемоги вулиця"},"geometry":{"type":"Point","coordinates":[30.38672,46.10892]}},
{"type":"Feature","id":"396301368","properties":{"josm":"w396301368","name":"Полевая улица","nameuk":"Польова вулиця"},"geometry":{"type":"Point","coordinates":[30.38816,46.1097]}},
{"type":"Feature","id":"396301369","properties":{"josm":"w396301369","name":"Мира улица","nameuk":"Миру вулиця"},"geometry":{"type":"Point","coordinates":[30.3883,46.10782]}},
{"type":"Feature","id":"396511957","properties":{"josm":"w396511957","name":"Садовая улица","nameuk":"Садова вулиця"},"geometry":{"type":"Point","coordinates":[30.37456,46.11392]}},
{"type":"Feature","id":"396533940","properties":{"josm":"w396533940","name":"Первомайская улица","nameuk":"Першотравнева вулиця"},"geometry":{"type":"Point","coordinates":[30.38291,46.13163]}},
{"type":"Feature","id":"396533943","properties":{"josm":"w396533943","name":"Первомайская улица","nameuk":"Першотравнева вулиця"},"geometry":{"type":"Point","coordinates":[30.3819,46.12696]}},
{"type":"Feature","id":"396537618","properties":{"josm":"w396537618","name":"Первомайская улица","nameuk":"Першотравнева вулиця"},"geometry":{"type":"Point","coordinates":[30.38167,46.1281]}},
{"type":"Feature","id":"396537619","properties":{"josm":"w396537619","name":"Первомайская улица","nameuk":"Першотравнева вулиця"},"geometry":{"type":"Point","coordinates":[30.38298,46.12372]}},
{"type":"Feature","id":"396538144","properties":{"josm":"w396538144","name":"Садовая улица","nameuk":"Садова вулиця"},"geometry":{"type":"Point","coordinates":[30.37816,46.12792]}},
{"type":"Feature","id":"396541009","properties":{"josm":"w396541009","name":"Садовая улица","nameuk":"Садова вулиця"},"geometry":{"type":"Point","coordinates":[30.3787,46.1325]}},
{"type":"Feature","id":"396575881","properties":{"josm":"w396575881","name":"Садовая улица","nameuk":"Садова вулиця"},"geometry":{"type":"Point","coordinates":[30.37882,46.12267]}},
{"type":"Feature","id":"396763280","properties":{"josm":"w396763280","name":"улица Ленина","nameuk":"Леніна вулиця"},"geometry":{"type":"Point","coordinates":[39.27501,48.49452]}},
{"type":"Feature"}
]}
