{
"type": "FeatureCollection",
"errorDescr": "Incorrect <b>name</b>-tag value",
"features": [
{"type":"Feature","id":"23757595","properties":{"josm":"w23757595","name":"майдан Павловський","nameuk":"Павловська площа"},"geometry":{"type":"Point","coordinates":[36.22767,49.98741]}},
{"type":"Feature","id":"23861941","properties":{"josm":"w23861941","name":"майдан Павловський","nameuk":"Павловська площа"},"geometry":{"type":"Point","coordinates":[36.23152,49.98804]}},
{"type":"Feature","id":"27279173","properties":{"josm":"w27279173","name":"Ухтомського вул","nameuk":"Ухтомського вулиця"},"geometry":{"type":"Point","coordinates":[34.66565,48.47084]}},
{"type":"Feature","id":"30173400","properties":{"josm":"w30173400","name":"Лозовеньківський проспект","nameuk":"Окружна дорога"},"geometry":{"type":"Point","coordinates":[36.18046,50.05363]}},
{"type":"Feature","id":"31236417","properties":{"josm":"w31236417","name":"Мінський проспект","nameuk":"Мінське шосе"},"geometry":{"type":"Point","coordinates":[30.45122,50.5238]}},
{"type":"Feature","id":"31526969","properties":{"josm":"w31526969","name":"Измаильская улица","nameuk":"Ізмаїльська вулиця"},"geometry":{"type":"Point","coordinates":[30.69979,46.37175]}},
{"type":"Feature","id":"31526975","properties":{"josm":"w31526975","name":"Институтская улица","nameuk":"Інститутська вулиця"},"geometry":{"type":"Point","coordinates":[30.70066,46.37729]}},
{"type":"Feature","id":"31526977","properties":{"josm":"w31526977","name":"Берёзовая улица","nameuk":"Березова вулиця"},"geometry":{"type":"Point","coordinates":[30.70058,46.38127]}},
{"type":"Feature","id":"31527008","properties":{"josm":"w31527008","name":"Татарбунарская улица","nameuk":"Татарбунарська вулиця"},"geometry":{"type":"Point","coordinates":[30.69769,46.37228]}},
{"type":"Feature","id":"31527021","properties":{"josm":"w31527021","name":"Арцизская улица","nameuk":"Арцизька вулиця"},"geometry":{"type":"Point","coordinates":[30.69995,46.37142]}},
{"type":"Feature","id":"31527031","properties":{"josm":"w31527031","name":"Овидиопольская улица","nameuk":"Овідіопольська вулиця"},"geometry":{"type":"Point","coordinates":[30.70114,46.37154]}},
{"type":"Feature","id":"31668628","properties":{"josm":"w31668628","name":"СТ "Берегиня"","nameuk":"Садове товариство "Берегиня""},"geometry":{"type":"Point","coordinates":[30.67965,50.23539]}},
{"type":"Feature","id":"31668656","properties":{"josm":"w31668656","name":"СТ "Світанок"","nameuk":"Садове товариство "Світанок""},"geometry":{"type":"Point","coordinates":[30.64548,50.2625]}},
{"type":"Feature","id":"31668665","properties":{"josm":"w31668665","name":"Осенняя улица","nameuk":"Осіння вулиця"},"geometry":{"type":"Point","coordinates":[30.67752,50.24419]}},
{"type":"Feature","id":"33684480","properties":{"josm":"w33684480","name":"Руслана Плоходька вулиця","nameuk":"Роберта Ейдемана вулиця"},"geometry":{"type":"Point","coordinates":[36.35081,49.99435]}},
{"type":"Feature","id":"34203129","properties":{"josm":"w34203129","name":"Копиловська вулиця","nameuk":"Першої Маївки вулиця"},"geometry":{"type":"Point","coordinates":[36.2085,50.00102]}},
{"type":"Feature","id":"34497738","properties":{"josm":"w34497738","name":"3-й Зерновой проезд","nameuk":"3-й Зерновий проїзд"},"geometry":{"type":"Point","coordinates":[36.27116,49.95139]}},
{"type":"Feature","id":"34572897","properties":{"josm":"w34572897","name":"провулок Шарівський","nameuk":"Спортивна вулиця"},"geometry":{"type":"Point","coordinates":[36.157,49.9808]}},
{"type":"Feature","id":"34679755","properties":{"josm":"w34679755","name":"Терихівська вулиця","nameuk":"Скорохода вулиця"},"geometry":{"type":"Point","coordinates":[36.18191,49.99515]}},
{"type":"Feature","id":"34838730","properties":{"josm":"w34838730","name":"Сільський в’їзд","nameuk":"Колгоспний в’їзд"},"geometry":{"type":"Point","coordinates":[36.30029,50.05467]}},
{"type":"Feature","id":"34839561","properties":{"josm":"w34839561","name":"Стара Озерянка вулиця","nameuk":"Аральська вулиця"},"geometry":{"type":"Point","coordinates":[36.33871,50.04067]}},
{"type":"Feature","id":"35478586","properties":{"josm":"w35478586","name":"Козацкий переулок","nameuk":"Будівельна вулиця"},"geometry":{"type":"Point","coordinates":[33.64273,47.56743]}},
{"type":"Feature","id":"36813327","properties":{"josm":"w36813327","name":"Весняна вулиця","nameuk":"Дзержинського вулиця"},"geometry":{"type":"Point","coordinates":[30.92993,50.25435]}},
{"type":"Feature","id":"37159697","properties":{"josm":"w37159697","name":"Петропавлівська  вулиця","nameuk":"Будівельна вулиця"},"geometry":{"type":"Point","coordinates":[33.6425,47.56962]}},
{"type":"Feature","id":"38169952","properties":{"josm":"w38169952","name":"Симферопольское шоссе 2","nameuk":"Сімферопольське шосе"},"geometry":{"type":"Point","coordinates":[34.20098,44.51376]}},
{"type":"Feature","id":"38240751","properties":{"josm":"w38240751","name":"майдан Павловський","nameuk":"Павловська площа"},"geometry":{"type":"Point","coordinates":[36.22856,49.98729]}},
{"type":"Feature","id":"42897767","properties":{"josm":"w42897767","name":"Кирова вулиця","nameuk":"Кірова вулиця"},"geometry":{"type":"Point","coordinates":[38.23497,49.05216]}},
{"type":"Feature","id":"43968392","properties":{"josm":"w43968392","name":"2-й Парковий проїзд","nameuk":"2-я Парковий проїзд"},"geometry":{"type":"Point","coordinates":[34.82685,50.8898]}},
{"type":"Feature","id":"50848921","properties":{"josm":"w50848921","name":"Садовий бульвар вулиця","nameuk":"Садовий бульвар"},"geometry":{"type":"Point","coordinates":[33.47599,51.86586]}},
{"type":"Feature","id":"61009925","properties":{"josm":"w61009925","name":"Лычака вулиця","nameuk":"Личака вулиця"},"geometry":{"type":"Point","coordinates":[30.24545,50.51365]}},
{"type":"Feature","id":"66862263","properties":{"josm":"w66862263","name":"Січових Стрільців вулиця","nameuk":"Січових стрільців вулиця"},"geometry":{"type":"Point","coordinates":[30.12832,49.77636]}},
{"type":"Feature","id":"69253381","properties":{"josm":"w69253381","name":"Волошкова вулиця","nameuk":"Василькова вулиця"},"geometry":{"type":"Point","coordinates":[34.75931,50.93465]}},
{"type":"Feature","id":"72860071","properties":{"josm":"w72860071","name":"Гостинна вулиця","nameuk":"Тарасівська вулиця"},"geometry":{"type":"Point","coordinates":[37.25311,49.21208]}},
{"type":"Feature","id":"74725004","properties":{"josm":"w74725004","name":"1-й Робочий провулок","nameuk":"1-й робочий провулок"},"geometry":{"type":"Point","coordinates":[35.09284,48.58406]}},
{"type":"Feature","id":"79817063","properties":{"josm":"w79817063","name":"П. Морозова вулиця","nameuk":"П.Морозова вулиця"},"geometry":{"type":"Point","coordinates":[37.29987,48.13853]}},
{"type":"Feature","id":"81204334","properties":{"josm":"w81204334","name":"Морозова вулиця","nameuk":"Степана Мазурця вулиця"},"geometry":{"type":"Point","coordinates":[25.36354,50.74829]}},
{"type":"Feature","id":"83296600","properties":{"josm":"w83296600","name":"Чонгарский мост","nameuk":"Чонгарський міст"},"geometry":{"type":"Point","coordinates":[34.55253,45.98796]}},
{"type":"Feature","id":"86463430","properties":{"josm":"w86463430","name":"Терихівська вулиця","nameuk":"Скорохода вулиця"},"geometry":{"type":"Point","coordinates":[36.18417,49.99402]}},
{"type":"Feature","id":"86859486","properties":{"josm":"w86859486","name":"Колійний провулок","nameuk":"Піщаний провулок"},"geometry":{"type":"Point","coordinates":[36.24212,49.95272]}},
{"type":"Feature","id":"91432474","properties":{"josm":"w91432474","name":"Центральная улица","nameuk":"Центральна вулиця"},"geometry":{"type":"Point","coordinates":[36.15973,50.06541]}},
{"type":"Feature","id":"95857371","properties":{"josm":"w95857371","name":"Road to central square (museum)","nameuk":"Дорога до центральної площі (музею)"},"geometry":{"type":"Point","coordinates":[30.05834,49.81334]}},
{"type":"Feature","id":"95857375","properties":{"josm":"w95857375","name":"Spruce Avenue","nameuk":"Ялинкова алея"},"geometry":{"type":"Point","coordinates":[30.06434,49.81329]}},
{"type":"Feature","id":"96562257","properties":{"josm":"w96562257","name":"Балтийская улица","nameuk":"Балтійська вулиця"},"geometry":{"type":"Point","coordinates":[33.34176,47.89339]}},
{"type":"Feature","id":"98728048","properties":{"josm":"w98728048","name":"Героїв 55-ї бригади вулиця","nameuk":"Уральська вулиця"},"geometry":{"type":"Point","coordinates":[35.20264,47.83405]}},
{"type":"Feature","id":"99176484","properties":{"josm":"w99176484","name":"Набережная улица","nameuk":"Набережна вулиця"},"geometry":{"type":"Point","coordinates":[30.38033,50.32272]}},
{"type":"Feature","id":"99556211","properties":{"josm":"w99556211","name":"Киевская улица","nameuk":"Київська вулиця"},"geometry":{"type":"Point","coordinates":[30.3257,50.43527]}},
{"type":"Feature","id":"101176826","properties":{"josm":"w101176826","name":"Ковпака улица","nameuk":"Ковпака вулиця"},"geometry":{"type":"Point","coordinates":[30.37403,50.31848]}},
{"type":"Feature","id":"101176828","properties":{"josm":"w101176828","name":"Шевченко улица","nameuk":"Шевченка вулиця"},"geometry":{"type":"Point","coordinates":[30.37636,50.31905]}},
{"type":"Feature","id":"101176835","properties":{"josm":"w101176835","name":"Мичурина улица","nameuk":"Мічуріна вулиця"},"geometry":{"type":"Point","coordinates":[30.37512,50.31704]}},
{"type":"Feature","id":"101176839","properties":{"josm":"w101176839","name":"Полевая улица","nameuk":"Польова вулиця"},"geometry":{"type":"Point","coordinates":[30.37611,50.30979]}},
{"type":"Feature","id":"101176844","properties":{"josm":"w101176844","name":"Прорезная улица","nameuk":"Прорізна вулиця"},"geometry":{"type":"Point","coordinates":[30.37537,50.31815]}},
{"type":"Feature","id":"101337862","properties":{"josm":"w101337862","name":"Бібліотечний провулок","nameuk":"Библіотечний провулок"},"geometry":{"type":"Point","coordinates":[35.9285,49.94416]}},
{"type":"Feature","id":"102008331","properties":{"josm":"w102008331","name":"улица Инам","nameuk":"Інан вулиця"},"geometry":{"type":"Point","coordinates":[34.0918,44.89976]}},
{"type":"Feature","id":"102008347","properties":{"josm":"w102008347","name":"улица Инам","nameuk":"Інан вулиця"},"geometry":{"type":"Point","coordinates":[34.09265,44.89678]}},
{"type":"Feature","id":"102327272","properties":{"josm":"w102327272","name":"Руслана Плоходька вулиця","nameuk":"Роберта Ейдемана вулиця"},"geometry":{"type":"Point","coordinates":[36.35014,49.99119]}},
{"type":"Feature","id":"104438109","properties":{"josm":"w104438109","name":"Яновського провулок","nameuk":"Яновського вулиця"},"geometry":{"type":"Point","coordinates":[30.92932,50.3432]}},
{"type":"Feature","id":"106089998","properties":{"josm":"w106089998","name":"11-а Лінія","nameuk":"11-а лінія"},"geometry":{"type":"Point","coordinates":[30.27181,50.54138]}},
{"type":"Feature","id":"109582437","properties":{"josm":"w109582437","name":"Восьмого Березня вулиця","nameuk":"Першої Маївки вулиця"},"geometry":{"type":"Point","coordinates":[36.20954,49.99917]}},
{"type":"Feature","id":"111377462","properties":{"josm":"w111377462","name":"ул. Мичурина","nameuk":"Мiчуріна вулиця"},"geometry":{"type":"Point","coordinates":[30.25494,49.91267]}},
{"type":"Feature","id":"111802482","properties":{"josm":"w111802482","name":"Кірова вулиця","nameuk":"Кірова"},"geometry":{"type":"Point","coordinates":[38.3884,48.88603]}},
{"type":"Feature","id":"111828675","properties":{"josm":"w111828675","name":"Героїв Крут вулиця","nameuk":"Піонерська вулиця"},"geometry":{"type":"Point","coordinates":[35.39706,46.8598]}},
{"type":"Feature","id":"112405743","properties":{"josm":"w112405743","name":"улица Басенко","nameuk":"Басенка вулиця"},"geometry":{"type":"Point","coordinates":[33.90803,44.74867]}},
{"type":"Feature","id":"113812430","properties":{"josm":"w113812430","name":"Скіфська вулиця","nameuk":"Скыфська вулиця"},"geometry":{"type":"Point","coordinates":[35.35432,46.8648]}},
{"type":"Feature","id":"114023912","properties":{"josm":"w114023912","name":"Приветливая (Петровского) улица","nameuk":"Привітна вулиця"},"geometry":{"type":"Point","coordinates":[36.09489,49.8893]}},
{"type":"Feature","id":"114023949","properties":{"josm":"w114023949","name":"Циолковского улица","nameuk":"Ціолковського вулиця"},"geometry":{"type":"Point","coordinates":[36.09581,49.88957]}},
{"type":"Feature","id":"115448945","properties":{"josm":"w115448945","name":"Козацької слави вулиця","nameuk":"Октябрьська вулиця"},"geometry":{"type":"Point","coordinates":[34.38243,48.54329]}},
{"type":"Feature","id":"115449359","properties":{"josm":"w115449359","name":"Святковий провулок","nameuk":"Дзержинського провулок"},"geometry":{"type":"Point","coordinates":[34.38062,48.54787]}},
{"type":"Feature","id":"115477215","properties":{"josm":"w115477215","name":"Школьная ул.","nameuk":"Шкільна вул."},"geometry":{"type":"Point","coordinates":[30.29556,50.16494]}},
{"type":"Feature","id":"115477235","properties":{"josm":"w115477235","name":"Школьная ул.","nameuk":"Шкільна вул."},"geometry":{"type":"Point","coordinates":[30.29165,50.16478]}},
{"type":"Feature","id":"116939876","properties":{"josm":"w116939876","name":"Благодатна вулиця","nameuk":"Комсомольська вулиця"},"geometry":{"type":"Point","coordinates":[33.52607,47.96144]}},
{"type":"Feature","id":"117517380","properties":{"josm":"w117517380","name":"Молодёжная улица","nameuk":"Молодіжна вулиця"},"geometry":{"type":"Point","coordinates":[30.21835,50.21241]}},
{"type":"Feature","id":"117894084","properties":{"josm":"w117894084","name":"Тиха вулиця","nameuk":"Чапаєва вулиця"},"geometry":{"type":"Point","coordinates":[34.36311,48.56021]}},
{"type":"Feature","id":"117903194","properties":{"josm":"w117903194","name":"Кленовий провулок","nameuk":"Суворова вулиця"},"geometry":{"type":"Point","coordinates":[34.36991,48.55028]}},
{"type":"Feature","id":"118062446","properties":{"josm":"w118062446","name":"Кошового вулиця","nameuk":"вулиця Кошового"},"geometry":{"type":"Point","coordinates":[30.239,50.22959]}},
{"type":"Feature","id":"118077204","properties":{"josm":"w118077204","name":"Нова вулиця","nameuk":"Гагаріна вулиця"},"geometry":{"type":"Point","coordinates":[35.94533,48.49189]}},
{"type":"Feature","id":"118421843","properties":{"josm":"w118421843","name":"Черноморская улица","nameuk":"Чорноморська вулиця"},"geometry":{"type":"Point","coordinates":[30.46371,46.06965]}},
{"type":"Feature","id":"119438320","properties":{"josm":"w119438320","name":"Ясна (Тельмана) вулиця","nameuk":"Тельмана вулиця"},"geometry":{"type":"Point","coordinates":[36.11802,49.9046]}},
{"type":"Feature","id":"121115896","properties":{"josm":"w121115896","name":"провулок","nameuk":"Калініна вулиця"},"geometry":{"type":"Point","coordinates":[33.12329,48.65869]}},
{"type":"Feature","id":"121117051","properties":{"josm":"w121117051","name":"Кам'яна вулиця","nameuk":"Сакко і Ванцетті вулиця; Мурманський провулок"},"geometry":{"type":"Point","coordinates":[33.1038,48.68824]}},
{"type":"Feature","id":"121117054","properties":{"josm":"w121117054","name":"Покровська площа","nameuk":"Кірова площа"},"geometry":{"type":"Point","coordinates":[33.11163,48.68636]}},
{"type":"Feature","id":"121481526","properties":{"josm":"w121481526","name":"переулок Столичній","nameuk":"провулок Столичний"},"geometry":{"type":"Point","coordinates":[30.64077,50.23541]}},
{"type":"Feature","id":"123382097","properties":{"josm":"w123382097","name":"Соборна  вулиця","nameuk":"Соборна вулиця"},"geometry":{"type":"Point","coordinates":[34.25816,48.48113]}},
{"type":"Feature","id":"124197826","properties":{"josm":"w124197826","name":"Мар'ївський провулок","nameuk":"Котовського провулок"},"geometry":{"type":"Point","coordinates":[33.10445,48.68996]}},
{"type":"Feature","id":"124892288","properties":{"josm":"w124892288","name":"Леси Украинки улица","nameuk":"Лесі Українки вулиця"},"geometry":{"type":"Point","coordinates":[30.37245,50.31824]}},
{"type":"Feature","id":"124892290","properties":{"josm":"w124892290","name":"Кооперативная улица","nameuk":"Кооперативна вулиця"},"geometry":{"type":"Point","coordinates":[30.3833,50.32348]}},
{"type":"Feature","id":"124990636","properties":{"josm":"w124990636","name":"Восточная","nameuk":"Східна вулиця"},"geometry":{"type":"Point","coordinates":[32.7486,46.62477]}},
{"type":"Feature","id":"126136085","properties":{"josm":"w126136085","name":"Фрунзе вулиця","nameuk":"Незалежності вулиця"},"geometry":{"type":"Point","coordinates":[37.81244,48.97799]}},
{"type":"Feature","id":"126629448","properties":{"josm":"w126629448","name":"Шкадінова вулиця (Академiчна)","nameuk":"Шкадінова вулиця"},"geometry":{"type":"Point","coordinates":[37.57929,48.73277]}},
{"type":"Feature","id":"126735022","properties":{"josm":"w126735022","name":"Соборна вулиця","nameuk":"Центральна вулиця"},"geometry":{"type":"Point","coordinates":[30.45719,48.38905]}},
{"type":"Feature","id":"126776302","properties":{"josm":"w126776302","name":"Затишна вулиця","nameuk":"Будьонного вулиця"},"geometry":{"type":"Point","coordinates":[30.44948,48.38732]}},
{"type":"Feature","id":"126826008","properties":{"josm":"w126826008","name":"Садовый переулок","nameuk":"Садовий провулок"},"geometry":{"type":"Point","coordinates":[35.16489,50.08061]}},
{"type":"Feature","id":"126998341","properties":{"josm":"w126998341","name":"Пірогова вулиця","nameuk":"Пирогова вулиця"},"geometry":{"type":"Point","coordinates":[30.4728,48.38245]}},
{"type":"Feature","id":"127023719","properties":{"josm":"w127023719","name":"Друга Галатовка вулиця","nameuk":"Коротка вулиця"},"geometry":{"type":"Point","coordinates":[34.32508,48.6511]}},
{"type":"Feature","id":"127023720","properties":{"josm":"w127023720","name":"Сапеляка Владики вулиця","nameuk":"Щорса вулиця"},"geometry":{"type":"Point","coordinates":[34.33406,48.64821]}},
{"type":"Feature","id":"127025642","properties":{"josm":"w127025642","name":"Перша Галатовка вулиця","nameuk":"1-а Галатовка вулиця"},"geometry":{"type":"Point","coordinates":[34.32464,48.65001]}},
{"type":"Feature","id":"127025646","properties":{"josm":"w127025646","name":"Матросова перевулок","nameuk":"Матросова вулиця"},"geometry":{"type":"Point","coordinates":[34.32135,48.65105]}},
{"type":"Feature","id":"127025648","properties":{"josm":"w127025648","name":"Дніпровська вулиця","nameuk":"Крупської вулиця"},"geometry":{"type":"Point","coordinates":[34.32211,48.65072]}},
{"type":"Feature","id":"127029389","properties":{"josm":"w127029389","name":"Лісна вулиця","nameuk":"Лісова вулиця"},"geometry":{"type":"Point","coordinates":[34.31856,48.65183]}},
{"type":"Feature","id":"127029392","properties":{"josm":"w127029392","name":"Лісна вулиця","nameuk":"Лісова вулиця"},"geometry":{"type":"Point","coordinates":[34.31896,48.65281]}},
{"type":"Feature","id":"127029394","properties":{"josm":"w127029394","name":"Львівська вулиця","nameuk":"Морська вулиця"},"geometry":{"type":"Point","coordinates":[34.31745,48.6512]}},
{"type":"Feature","id":"127029395","properties":{"josm":"w127029395","name":"Верхньодніпровська  вулиця","nameuk":"Харківська вулиця"},"geometry":{"type":"Point","coordinates":[34.31755,48.65011]}},
{"type":"Feature","id":"127029399","properties":{"josm":"w127029399","name":"Галатовський провулок","nameuk":"Базарна вулиця"},"geometry":{"type":"Point","coordinates":[34.32656,48.65062]}},
{"type":"Feature","id":"127628449","properties":{"josm":"w127628449","name":"Богдана Хмельницького вулиця","nameuk":"Леніна вулиця"},"geometry":{"type":"Point","coordinates":[34.37441,48.55064]}},
{"type":"Feature","id":"127628645","properties":{"josm":"w127628645","name":"Ново Степова вулиця","nameuk":"Степова вулиця"},"geometry":{"type":"Point","coordinates":[34.37564,48.54783]}},
{"type":"Feature","id":"127632636","properties":{"josm":"w127632636","name":"Яблунева вулиця","nameuk":"Островського вулиця"},"geometry":{"type":"Point","coordinates":[34.36637,48.55798]}},
{"type":"Feature","id":"127635363","properties":{"josm":"w127635363","name":"Дорожна вулиця","nameuk":"Совхозна вулиця"},"geometry":{"type":"Point","coordinates":[34.37743,48.56258]}},
{"type":"Feature","id":"127670675","properties":{"josm":"w127670675","name":"Горяна вулиця","nameuk":"Горянська вулиця"},"geometry":{"type":"Point","coordinates":[34.31496,48.54109]}},
{"type":"Feature","id":"128505290","properties":{"josm":"w128505290","name":"Юрія Паращука вулиця","nameuk":"Івана Минайленка вулиця"},"geometry":{"type":"Point","coordinates":[36.18228,49.97959]}},
{"type":"Feature","id":"128976367","properties":{"josm":"w128976367","name":"Коцюбинского","nameuk":"Коцюбинського"},"geometry":{"type":"Point","coordinates":[32.73893,46.68151]}},
{"type":"Feature","id":"129911445","properties":{"josm":"w129911445","name":"Зайця вулиця","nameuk":"Зайцева вулиця"},"geometry":{"type":"Point","coordinates":[33.86699,48.04288]}},
{"type":"Feature","id":"129911527","properties":{"josm":"w129911527","name":"8-го Березня вулиця","nameuk":"8-го безерня вулиця"},"geometry":{"type":"Point","coordinates":[33.86523,48.06255]}},
{"type":"Feature","id":"130659531","properties":{"josm":"w130659531","name":"Чапаєва вулиця","nameuk":"Козацька вулиця"},"geometry":{"type":"Point","coordinates":[33.69316,47.66994]}},
{"type":"Feature","id":"130659533","properties":{"josm":"w130659533","name":"Покровська вулиця","nameuk":"Дзержинського вулиця"},"geometry":{"type":"Point","coordinates":[33.70349,47.66748]}},
{"type":"Feature","id":"131109302","properties":{"josm":"w131109302","name":"Європейська (Радянська) вулиця","nameuk":"Європейська вулиця"},"geometry":{"type":"Point","coordinates":[30.15721,50.54454]}},
{"type":"Feature","id":"131606761","properties":{"josm":"w131606761","name":"Юрія Паращука вулиця","nameuk":"Івана Минайленка вулиця"},"geometry":{"type":"Point","coordinates":[36.18676,49.97667]}},
{"type":"Feature","id":"131860045","properties":{"josm":"w131860045","name":"Соняшникова вулиця","nameuk":"Балашівська вулиця"},"geometry":{"type":"Point","coordinates":[38.36614,48.94955]}},
{"type":"Feature","id":"132233045","properties":{"josm":"w132233045","name":"Василя Стуса вулиця","nameuk":"Стуса вулиця"},"geometry":{"type":"Point","coordinates":[38.44021,48.90579]}},
{"type":"Feature","id":"132610731","properties":{"josm":"w132610731","name":"Соборна вулиця","nameuk":"Леніна вулиця"},"geometry":{"type":"Point","coordinates":[35.28171,47.44308]}},
{"type":"Feature","id":"133293770","properties":{"josm":"w133293770","name":"2-й Ногайський провулок","nameuk":"2-й Цюрупи провулок"},"geometry":{"type":"Point","coordinates":[35.35341,46.86817]}},
{"type":"Feature","id":"134690294","properties":{"josm":"w134690294","name":"Соняшникова вулиця","nameuk":"Балашівська вулиця"},"geometry":{"type":"Point","coordinates":[38.36765,48.94872]}},
{"type":"Feature","id":"135196195","properties":{"josm":"w135196195","name":"Мостова  вулиця","nameuk":"Слизкоухого вулиця"},"geometry":{"type":"Point","coordinates":[34.31373,48.65873]}},
{"type":"Feature","id":"135271038","properties":{"josm":"w135271038","name":"Бригадная вулиця","nameuk":"Бригадна вулиця"},"geometry":{"type":"Point","coordinates":[32.04669,46.87591]}},
{"type":"Feature","id":"135292602","properties":{"josm":"w135292602","name":"Вулиця Маяковськогоиру","nameuk":"Миру вулиця"},"geometry":{"type":"Point","coordinates":[38.36987,48.64988]}},
{"type":"Feature","id":"135292608","properties":{"josm":"w135292608","name":"Вулиця Чехова","nameuk":"Чехова вулиця"},"geometry":{"type":"Point","coordinates":[38.36698,48.62799]}},
{"type":"Feature","id":"135294028","properties":{"josm":"w135294028","name":"Марії Заньковецької вулиця","nameuk":"Канатенка вулиця"},"geometry":{"type":"Point","coordinates":[33.12798,48.68173]}},
{"type":"Feature","id":"135330250","properties":{"josm":"w135330250","name":"Захисників України вулиця","nameuk":""},"geometry":{"type":"Point","coordinates":[33.12743,48.67949]}},
{"type":"Feature","id":"135364971","properties":{"josm":"w135364971","name":"Івана Головка вулиця","nameuk":"Тихий провулок"},"geometry":{"type":"Point","coordinates":[33.07684,48.6713]}},
{"type":"Feature","id":"135368792","properties":{"josm":"w135368792","name":"Провулок Механізаторів","nameuk":"Механізаторів провулок"},"geometry":{"type":"Point","coordinates":[38.37161,48.62111]}},
{"type":"Feature","id":"135370360","properties":{"josm":"w135370360","name":"Вулиця Михайла Грушевського","nameuk":"Михайла Грушевського вулиця"},"geometry":{"type":"Point","coordinates":[38.37967,48.62665]}},
{"type":"Feature","id":"135370361","properties":{"josm":"w135370361","name":"Вулиця Гастелло","nameuk":"Гастелло вулиця"},"geometry":{"type":"Point","coordinates":[38.37647,48.61659]}},
{"type":"Feature","id":"135370363","properties":{"josm":"w135370363","name":"Вулиця Потьомкіна","nameuk":"Потьомкіна вулиця"},"geometry":{"type":"Point","coordinates":[38.38437,48.61901]}},
{"type":"Feature","id":"135370365","properties":{"josm":"w135370365","name":"Вулиця Пушкіна","nameuk":"Пушкіна вулиця"},"geometry":{"type":"Point","coordinates":[38.39151,48.62621]}},
{"type":"Feature","id":"135370366","properties":{"josm":"w135370366","name":"Вулиця Гастелло","nameuk":"Гастелло вулиця"},"geometry":{"type":"Point","coordinates":[38.38718,48.62082]}},
{"type":"Feature","id":"135370367","properties":{"josm":"w135370367","name":"Вулиця Гастелло","nameuk":"Гастелло вулиця"},"geometry":{"type":"Point","coordinates":[38.37718,48.61657]}},
{"type":"Feature","id":"135370368","properties":{"josm":"w135370368","name":"Вулиця Оседача","nameuk":"Оседача вулиця"},"geometry":{"type":"Point","coordinates":[38.37678,48.62486]}},
{"type":"Feature","id":"135370374","properties":{"josm":"w135370374","name":"Вулиця Паславського","nameuk":"Паславського вулиця"},"geometry":{"type":"Point","coordinates":[38.3893,48.62283]}},
{"type":"Feature","id":"135370934","properties":{"josm":"w135370934","name":"Провулок Ломоносова","nameuk":"Ломоносова провулок"},"geometry":{"type":"Point","coordinates":[38.38333,48.62065]}},
{"type":"Feature","id":"135370939","properties":{"josm":"w135370939","name":"Провулок Ломоносова","nameuk":"Ломоносова провулок"},"geometry":{"type":"Point","coordinates":[38.37815,48.62633]}},
{"type":"Feature","id":"135372709","properties":{"josm":"w135372709","name":"Провулок Лермонтова","nameuk":"Лермонтова провулок"},"geometry":{"type":"Point","coordinates":[38.38392,48.62324]}},
{"type":"Feature","id":"135372725","properties":{"josm":"w135372725","name":"Вулиця Парусовка","nameuk":"Парусовка вулиця"},"geometry":{"type":"Point","coordinates":[38.39492,48.61269]}},
{"type":"Feature","id":"135377316","properties":{"josm":"w135377316","name":"Вулиця Пархоменка","nameuk":"Пархоменка вулиця"},"geometry":{"type":"Point","coordinates":[38.3903,48.62907]}},
{"type":"Feature","id":"135377323","properties":{"josm":"w135377323","name":"Вулиця Ногтенка","nameuk":"Ногтенко вулиця"},"geometry":{"type":"Point","coordinates":[38.40361,48.63565]}},
{"type":"Feature","id":"135377368","properties":{"josm":"w135377368","name":"Вулиця Ногтенка","nameuk":"Ногтенко вулиця"},"geometry":{"type":"Point","coordinates":[38.39348,48.63209]}},
{"type":"Feature","id":"135377377","properties":{"josm":"w135377377","name":"Вулиця Григорія Сковороди","nameuk":"Григорія Сковороди вулиця"},"geometry":{"type":"Point","coordinates":[38.40078,48.63543]}},
{"type":"Feature","id":"135377387","properties":{"josm":"w135377387","name":"Вулиця Рєпіна","nameuk":"Рєпіна вулиця"},"geometry":{"type":"Point","coordinates":[38.38255,48.6199]}},
{"type":"Feature","id":"135377392","properties":{"josm":"w135377392","name":"Вулиця Рєпіна","nameuk":"Рєпіна вулиця"},"geometry":{"type":"Point","coordinates":[38.39068,48.62248]}},
{"type":"Feature","id":"135377404","properties":{"josm":"w135377404","name":"Вільховий провулок","nameuk":"Ольховий провулок"},"geometry":{"type":"Point","coordinates":[38.4062,48.63237]}},
{"type":"Feature","id":"135377407","properties":{"josm":"w135377407","name":"Провулок Фадєєва","nameuk":"Фадєєва провулок"},"geometry":{"type":"Point","coordinates":[38.40807,48.63151]}},
{"type":"Feature","id":"135459424","properties":{"josm":"w135459424","name":"Шевченка  вулиця","nameuk":"XVIII З’їзду ВЛКСМ вулиця"},"geometry":{"type":"Point","coordinates":[34.29751,48.64706]}},
{"type":"Feature","id":"135459425","properties":{"josm":"w135459425","name":"Шкільний провулок","nameuk":"Гоголя вулиця"},"geometry":{"type":"Point","coordinates":[34.29187,48.65688]}},
{"type":"Feature","id":"135459437","properties":{"josm":"w135459437","name":"Калинова вулиця","nameuk":"Калініна вулиця"},"geometry":{"type":"Point","coordinates":[34.3008,48.6553]}},
{"type":"Feature","id":"135459442","properties":{"josm":"w135459442","name":"Щастя вулиця","nameuk":""},"geometry":{"type":"Point","coordinates":[34.29076,48.65232]}},
{"type":"Feature","id":"135565454","properties":{"josm":"w135565454","name":"Мицкевича переулок","nameuk":"Міцкевича провулок"},"geometry":{"type":"Point","coordinates":[37.59977,49.71286]}},
{"type":"Feature","id":"135567259","properties":{"josm":"w135567259","name":"Визволення площа","nameuk":"Перемоги площа"},"geometry":{"type":"Point","coordinates":[33.09966,48.67356]}},
{"type":"Feature","id":"135591533","properties":{"josm":"w135591533","name":"Кооперативный переулок","nameuk":"Кооперативний провулок"},"geometry":{"type":"Point","coordinates":[35.20926,50.35722]}},
{"type":"Feature","id":"135684332","properties":{"josm":"w135684332","name":"Івана Піянзіна провулок","nameuk":"Пиянзина провулок; Марини Раскової провулок"},"geometry":{"type":"Point","coordinates":[33.1085,48.6898]}},
{"type":"Feature","id":"135691235","properties":{"josm":"w135691235","name":"Івана Гороновича провулок","nameuk":"Ленінський провулок"},"geometry":{"type":"Point","coordinates":[33.10923,48.66876]}},
{"type":"Feature","id":"135902900","properties":{"josm":"w135902900","name":"Миру  вулиця","nameuk":"Жукова вулиця"},"geometry":{"type":"Point","coordinates":[34.28037,48.64857]}},
{"type":"Feature","id":"135902901","properties":{"josm":"w135902901","name":"Остапа Вишні  вулиця","nameuk":"Остапа Вишні вулиця"},"geometry":{"type":"Point","coordinates":[34.29187,48.6483]}},
{"type":"Feature","id":"135902902","properties":{"josm":"w135902902","name":"І. Франка вулиця","nameuk":"Лермонтова вулиця"},"geometry":{"type":"Point","coordinates":[34.28377,48.64963]}},
{"type":"Feature","id":"135902905","properties":{"josm":"w135902905","name":"В. Листопад вулиця","nameuk":"Нечуя-Левицького вулиця"},"geometry":{"type":"Point","coordinates":[34.28796,48.64994]}},
{"type":"Feature","id":"136240219","properties":{"josm":"w136240219","name":"Носаль Є. І. вулиця","nameuk":"Носаль вулиця"},"geometry":{"type":"Point","coordinates":[35.29509,47.37318]}},
{"type":"Feature","id":"136285283","properties":{"josm":"w136285283","name":"Веселкова вулиця","nameuk":"Зелений провулок"},"geometry":{"type":"Point","coordinates":[33.10803,48.66841]}},
{"type":"Feature","id":"136431840","properties":{"josm":"w136431840","name":"Суворова вулиця","nameuk":"Суворова улица"},"geometry":{"type":"Point","coordinates":[31.39337,48.98856]}},
{"type":"Feature","id":"136914440","properties":{"josm":"w136914440","name":"Полевая улица","nameuk":"Польова вулиця"},"geometry":{"type":"Point","coordinates":[35.15012,50.32989]}},
{"type":"Feature","id":"137649831","properties":{"josm":"w137649831","name":"Ушакова вулиця","nameuk":"вулиця"},"geometry":{"type":"Point","coordinates":[31.37609,49.00237]}},
{"type":"Feature","id":"138099205","properties":{"josm":"w138099205","name":"Бурковського вулиця","nameuk":"Костюка вулиця"},"geometry":{"type":"Point","coordinates":[27.64529,50.5706]}},
{"type":"Feature","id":"141366032","properties":{"josm":"w141366032","name":"Вулиця Водоп’янова","nameuk":"Водоп’янова вулиця"},"geometry":{"type":"Point","coordinates":[38.35572,48.63125]}},
{"type":"Feature","id":"141366039","properties":{"josm":"w141366039","name":"Вулиця Чехова","nameuk":"Чехова вулиця"},"geometry":{"type":"Point","coordinates":[38.36421,48.62412]}},
{"type":"Feature","id":"141366053","properties":{"josm":"w141366053","name":"Вулиця Зої Космодем’янської","nameuk":"Зої Космодем’янської вулиця"},"geometry":{"type":"Point","coordinates":[38.35524,48.62657]}},
{"type":"Feature","id":"141385531","properties":{"josm":"w141385531","name":"Вулиця Сави Мамонтова","nameuk":"С. Мамонтова вулиця"},"geometry":{"type":"Point","coordinates":[38.36128,48.63476]}},
{"type":"Feature","id":"142456424","properties":{"josm":"w142456424","name":"Переможний провулок","nameuk":"Привокзальна вулиця"},"geometry":{"type":"Point","coordinates":[34.37849,48.55418]}},
{"type":"Feature","id":"142456425","properties":{"josm":"w142456425","name":"Ново Степова вулиця","nameuk":"Степова вулиця"},"geometry":{"type":"Point","coordinates":[34.38265,48.54513]}},
{"type":"Feature","id":"144378197","properties":{"josm":"w144378197","name":"Олега Кошевого улица","nameuk":"Олега Кошового вулиця"},"geometry":{"type":"Point","coordinates":[33.5119,47.91929]}},
{"type":"Feature","id":"144792776","properties":{"josm":"w144792776","name":"Комарова улица","nameuk":"Комарова вулиця"},"geometry":{"type":"Point","coordinates":[30.3356,50.44396]}},
{"type":"Feature","id":"144792777","properties":{"josm":"w144792777","name":"Комсомольская улица","nameuk":"Комсомольська вулиця"},"geometry":{"type":"Point","coordinates":[30.34515,50.43274]}},
{"type":"Feature","id":"144866982","properties":{"josm":"w144866982","name":"Киевская улица","nameuk":"Київська вулиця"},"geometry":{"type":"Point","coordinates":[30.32341,50.44051]}},
{"type":"Feature","id":"148010118","properties":{"josm":"w148010118","name":"Кар'єрний тупик","nameuk":"Каръерный тупик"},"geometry":{"type":"Point","coordinates":[32.24616,48.47959]}},
{"type":"Feature","id":"148112944","properties":{"josm":"w148112944","name":"Щорса вулиця (стор. пос.Дослідної ст.), Степова ввулиця (стор. с.Вигода)","nameuk":"Щорса вулиця"},"geometry":{"type":"Point","coordinates":[30.39234,46.60883]}},
{"type":"Feature","id":"152442075","properties":{"josm":"w152442075","name":"Украинская улица","nameuk":"Українська вулиця"},"geometry":{"type":"Point","coordinates":[33.51329,47.92042]}},
{"type":"Feature","id":"156597060","properties":{"josm":"w156597060","name":"Лозовеньківський проспект","nameuk":"Окружна дорога"},"geometry":{"type":"Point","coordinates":[36.23382,50.08989]}},
{"type":"Feature","id":"158073060","properties":{"josm":"w158073060","name":"Красна вулиця","nameuk":"Червона вулиця"},"geometry":{"type":"Point","coordinates":[34.24092,48.48096]}},
{"type":"Feature","id":"158361441","properties":{"josm":"w158361441","name":"Чаплієвська вулиця","nameuk":"Миру вулиця"},"geometry":{"type":"Point","coordinates":[36.39359,49.98839]}},
{"type":"Feature","id":"158668353","properties":{"josm":"w158668353","name":"Спортивна вулиця","nameuk":"Терешкової вулиця"},"geometry":{"type":"Point","coordinates":[34.41477,48.5932]}},
{"type":"Feature","id":"159139200","properties":{"josm":"w159139200","name":"В. Лобановського  вулиця","nameuk":"В. Лобановського вулиця"},"geometry":{"type":"Point","coordinates":[34.23038,48.47068]}},
{"type":"Feature","id":"159185118","properties":{"josm":"w159185118","name":"О. Довженка  вулиця","nameuk":"О. Довженка вулиця"},"geometry":{"type":"Point","coordinates":[34.25577,48.47709]}},
{"type":"Feature","id":"159185132","properties":{"josm":"w159185132","name":"Перший Соборний  провулок","nameuk":"Островського провулок"},"geometry":{"type":"Point","coordinates":[34.25,48.48107]}},
{"type":"Feature","id":"159185176","properties":{"josm":"w159185176","name":"Академіка Пріснякова  вулиця","nameuk":"Академіка Пріснякова вулиця"},"geometry":{"type":"Point","coordinates":[34.24493,48.47072]}},
{"type":"Feature","id":"159233378","properties":{"josm":"w159233378","name":"С. Ряженцева вулиця","nameuk":"Тельмана вулиця"},"geometry":{"type":"Point","coordinates":[34.23589,48.48915]}},
{"type":"Feature","id":"159233410","properties":{"josm":"w159233410","name":"Перший Кутузова провулок","nameuk":"Кутузова провулок"},"geometry":{"type":"Point","coordinates":[34.22277,48.4781]}},
{"type":"Feature","id":"159813362","properties":{"josm":"w159813362","name":"Лозовеньківський проспект","nameuk":"Окружна дорога"},"geometry":{"type":"Point","coordinates":[36.26322,50.1021]}},
{"type":"Feature","id":"159813363","properties":{"josm":"w159813363","name":"Лозовеньківський проспект","nameuk":"Окружна дорога"},"geometry":{"type":"Point","coordinates":[36.26582,50.1019]}},
{"type":"Feature","id":"159815292","properties":{"josm":"w159815292","name":"Лозовеньківський проспект","nameuk":"Окружна дорога"},"geometry":{"type":"Point","coordinates":[36.1968,50.064]}},
{"type":"Feature","id":"159815293","properties":{"josm":"w159815293","name":"Лозовеньківський проспект","nameuk":"Окружна дорога"},"geometry":{"type":"Point","coordinates":[36.18377,50.05505]}},
{"type":"Feature","id":"159815294","properties":{"josm":"w159815294","name":"Лозовеньківський проспект","nameuk":"Окружна дорога"},"geometry":{"type":"Point","coordinates":[36.18203,50.05422]}},
{"type":"Feature","id":"159981419","properties":{"josm":"w159981419","name":"майдан Павловський","nameuk":"Павловська площа"},"geometry":{"type":"Point","coordinates":[36.23287,49.98833]}},
{"type":"Feature","id":"161808590","properties":{"josm":"w161808590","name":"Семьи Бобринских вулиця","nameuk":"Родини Бобринських вулиця"},"geometry":{"type":"Point","coordinates":[31.8572,49.22554]}},
{"type":"Feature","id":"161853411","properties":{"josm":"w161853411","name":"Феофановская улица","nameuk":"Феофанівська вулиця"},"geometry":{"type":"Point","coordinates":[30.47734,50.33204]}},
{"type":"Feature","id":"161855004","properties":{"josm":"w161855004","name":"Партизанская улица","nameuk":"Партизанська вулиця"},"geometry":{"type":"Point","coordinates":[30.48132,50.32696]}},
{"type":"Feature","id":"162361872","properties":{"josm":"w162361872","name":"Полтавська (Радевича) вулиця","nameuk":"Полтавська вулиця"},"geometry":{"type":"Point","coordinates":[35.09855,49.44263]}},
{"type":"Feature","id":"162361874","properties":{"josm":"w162361874","name":"Полтавська (Радевича) вулиця","nameuk":"Полтавська вулиця"},"geometry":{"type":"Point","coordinates":[35.13742,49.45199]}},
{"type":"Feature","id":"163200999","properties":{"josm":"w163200999","name":"вулиця Садова","nameuk":"Садова вулиця"},"geometry":{"type":"Point","coordinates":[36.95385,49.49147]}},
{"type":"Feature","id":"163270423","properties":{"josm":"w163270423","name":"Чехова вулиця","nameuk":"Чєхова вулиця"},"geometry":{"type":"Point","coordinates":[34.53187,49.82097]}},
{"type":"Feature","id":"163357267","properties":{"josm":"w163357267","name":"улица Вишневая","nameuk":"вулиця Вишнева"},"geometry":{"type":"Point","coordinates":[30.62965,50.25625]}},
{"type":"Feature","id":"163357267","properties":{"josm":"w163357267","name":"улица Вишневая","nameuk":"вулиця Вишнева"},"geometry":{"type":"Point","coordinates":[30.62965,50.25625]}},
{"type":"Feature","id":"163357271","properties":{"josm":"w163357271","name":"улица Абрикосовая","nameuk":"вулиця Абрикосова"},"geometry":{"type":"Point","coordinates":[30.62943,50.25732]}},
{"type":"Feature","id":"163357289","properties":{"josm":"w163357289","name":"переулок Искусства","nameuk":"провулок Мистецтва"},"geometry":{"type":"Point","coordinates":[30.64112,50.24943]}},
{"type":"Feature","id":"164141513","properties":{"josm":"w164141513","name":"Магістральна вулиця","nameuk":"Магістральна  вулиця"},"geometry":{"type":"Point","coordinates":[33.45937,47.90123]}},
{"type":"Feature","id":"164750319","properties":{"josm":"w164750319","name":"Суворова улица","nameuk":"Суворова вулиця"},"geometry":{"type":"Point","coordinates":[30.4603,50.32944]}},
{"type":"Feature","id":"167991159","properties":{"josm":"w167991159","name":"Садова провулок чи вулиця?","nameuk":"Садова провулок"},"geometry":{"type":"Point","coordinates":[33.17754,49.59085]}},
{"type":"Feature","id":"168200938","properties":{"josm":"w168200938","name":"Міліонна вулиця","nameuk":"Паризької Комуни вулиця"},"geometry":{"type":"Point","coordinates":[32.67938,49.074]}},
{"type":"Feature","id":"168201046","properties":{"josm":"w168201046","name":"Фундукліївська вулиця","nameuk":"Горького вулиця"},"geometry":{"type":"Point","coordinates":[32.66987,49.06871]}},
{"type":"Feature","id":"168413718","properties":{"josm":"w168413718","name":"Охотничий пер.","nameuk":"Мисливський пров."},"geometry":{"type":"Point","coordinates":[30.30976,50.19105]}},
{"type":"Feature","id":"168908093","properties":{"josm":"w168908093","name":"Героїв-підпільників вулиця","nameuk":"Ленінської Іскри вулиця"},"geometry":{"type":"Point","coordinates":[37.54655,48.59575]}},
{"type":"Feature","id":"169398903","properties":{"josm":"w169398903","name":"Калинова  вулиця","nameuk":"Калініна вулиця"},"geometry":{"type":"Point","coordinates":[34.27899,48.48223]}},
{"type":"Feature","id":"169566576","properties":{"josm":"w169566576","name":"Лип'янська вулиця","nameuk":"Ганни Дмитришиної вулиця"},"geometry":{"type":"Point","coordinates":[26.02729,50.55492]}},
{"type":"Feature","id":"170317487","properties":{"josm":"w170317487","name":"Замковий (Турецький) міст","nameuk":"Замковий міст"},"geometry":{"type":"Point","coordinates":[26.56585,48.6735]}},
{"type":"Feature","id":"171264907","properties":{"josm":"w171264907","name":"Приозёрная улица","nameuk":"Приозерна вулиця"},"geometry":{"type":"Point","coordinates":[36.04156,49.97504]}},
{"type":"Feature","id":"171815253","properties":{"josm":"w171815253","name":"Спортивная улица","nameuk":"Спортивна вулиця"},"geometry":{"type":"Point","coordinates":[35.26739,50.76973]}},
{"type":"Feature","id":"171815270","properties":{"josm":"w171815270","name":"Виноградная улица","nameuk":"Виноградна вулиця"},"geometry":{"type":"Point","coordinates":[35.25723,50.7766]}},
{"type":"Feature","id":"171815273","properties":{"josm":"w171815273","name":"Вишнёвая улица","nameuk":"Вишнева вулиця"},"geometry":{"type":"Point","coordinates":[35.26527,50.77579]}},
{"type":"Feature","id":"171815291","properties":{"josm":"w171815291","name":"Мичурина переулок","nameuk":"Мічуріна провулок"},"geometry":{"type":"Point","coordinates":[35.27446,50.76824]}},
{"type":"Feature","id":"171816215","properties":{"josm":"w171816215","name":"Шевченко улица","nameuk":"Шевченка вулиця"},"geometry":{"type":"Point","coordinates":[35.25667,50.7623]}},
{"type":"Feature","id":"171816217","properties":{"josm":"w171816217","name":"Московская улица","nameuk":"Московська вулиця"},"geometry":{"type":"Point","coordinates":[35.26177,50.76566]}},
{"type":"Feature","id":"171818197","properties":{"josm":"w171818197","name":"Новосёловская улица","nameuk":"Новоселівська вулиця"},"geometry":{"type":"Point","coordinates":[35.26873,50.7939]}},
{"type":"Feature","id":"171823483","properties":{"josm":"w171823483","name":"Гоголя улица","nameuk":"Гоголя вулиця"},"geometry":{"type":"Point","coordinates":[35.2693,50.79598]}},
{"type":"Feature","id":"171823491","properties":{"josm":"w171823491","name":"Луговой переулок","nameuk":"Луговий провулок"},"geometry":{"type":"Point","coordinates":[35.26114,50.78817]}},
{"type":"Feature","id":"172302821","properties":{"josm":"w172302821","name":"Безхлібна (Гребінківська) вулиця","nameuk":"Безхлібна вулиця"},"geometry":{"type":"Point","coordinates":[32.44026,50.10391]}},
{"type":"Feature","id":"174964536","properties":{"josm":"w174964536","name":"Михайла Петренко вулиця","nameuk":"Череватенка вулиця"},"geometry":{"type":"Point","coordinates":[37.15552,48.29623]}},
{"type":"Feature","id":"175083114","properties":{"josm":"w175083114","name":"Рози Люксембург переулок","nameuk":"Рози Люксембург вулиця"},"geometry":{"type":"Point","coordinates":[38.56009,48.85844]}},
{"type":"Feature","id":"175324967","properties":{"josm":"w175324967","name":"Залізнична вулиця","nameuk":"Шота вулиця"},"geometry":{"type":"Point","coordinates":[37.16357,48.28704]}},
{"type":"Feature","id":"175802142","properties":{"josm":"w175802142","name":"Залізнична вулиця","nameuk":"Шота вулиця"},"geometry":{"type":"Point","coordinates":[37.15583,48.28773]}},
{"type":"Feature","id":"175802156","properties":{"josm":"w175802156","name":"Залізнична вулиця","nameuk":"Шота вулиця"},"geometry":{"type":"Point","coordinates":[37.17156,48.28534]}},
{"type":"Feature","id":"175802157","properties":{"josm":"w175802157","name":"Залізнична вулиця","nameuk":"Шота вулиця"},"geometry":{"type":"Point","coordinates":[37.14862,48.2872]}},
{"type":"Feature","id":"179918769","properties":{"josm":"w179918769","name":"Садова вулиця","nameuk":"Вишнева вулиця"},"geometry":{"type":"Point","coordinates":[38.51072,48.90954]}},
{"type":"Feature","id":"180746422","properties":{"josm":"w180746422","name":"Черняховского вулиця","nameuk":"Черняховского  вулиця"},"geometry":{"type":"Point","coordinates":[39.37,48.5512]}},
{"type":"Feature","id":"181264317","properties":{"josm":"w181264317","name":"Ванди Біневськой провулок","nameuk":"Джерельний провулок"},"geometry":{"type":"Point","coordinates":[36.35264,49.97136]}},
{"type":"Feature","id":"181990525","properties":{"josm":"w181990525","name":"Дніпровський  провулок","nameuk":"Дніпровський провулок"},"geometry":{"type":"Point","coordinates":[34.24885,48.48469]}},
{"type":"Feature","id":"181990528","properties":{"josm":"w181990528","name":"Кузьми Скрябіна  вулиця","nameuk":"Кузьми Скрябіна вулиця"},"geometry":{"type":"Point","coordinates":[34.25028,48.48349]}},
{"type":"Feature","id":"181990532","properties":{"josm":"w181990532","name":"Центральна вулиця","nameuk":"Леніна вулиця"},"geometry":{"type":"Point","coordinates":[34.24676,48.48633]}},
{"type":"Feature","id":"181990533","properties":{"josm":"w181990533","name":"Другий Дніпровський  провулок","nameuk":"Радянський провулок"},"geometry":{"type":"Point","coordinates":[34.25054,48.48603]}},
{"type":"Feature","id":"181991177","properties":{"josm":"w181991177","name":"Княгині Ольги  провулок","nameuk":"Княгині Ольги провулок"},"geometry":{"type":"Point","coordinates":[34.21672,48.47533]}},
{"type":"Feature","id":"182760159","properties":{"josm":"w182760159","name":"Октябрьская улица","nameuk":"Жовтнева вулиця"},"geometry":{"type":"Point","coordinates":[30.13379,50.48487]}},
{"type":"Feature","id":"183125914","properties":{"josm":"w183125914","name":"Грушевського вулиця","nameuk":"Вишнева вулиця"},"geometry":{"type":"Point","coordinates":[25.99277,51.30871]}},
{"type":"Feature","id":"184539633","properties":{"josm":"w184539633","name":"Київська вулиця","nameuk":"Жовтневої Революції вулиця"},"geometry":{"type":"Point","coordinates":[31.30585,47.61363]}},
{"type":"Feature","id":"185143064","properties":{"josm":"w185143064","name":"Варненская улица","nameuk":"Варненська вулиця"},"geometry":{"type":"Point","coordinates":[31.99765,47.03053]}},
{"type":"Feature","id":"185747654","properties":{"josm":"w185747654","name":"Визволителів вулиця","nameuk":"Червоноармійська вулиця"},"geometry":{"type":"Point","coordinates":[36.06263,49.98417]}},
{"type":"Feature","id":"186284585","properties":{"josm":"w186284585","name":"Кооперативный переулок","nameuk":"Кооперативний провулок"},"geometry":{"type":"Point","coordinates":[35.11743,50.36539]}},
{"type":"Feature","id":"186284596","properties":{"josm":"w186284596","name":"Заречный переулок","nameuk":"Зарічний переулок"},"geometry":{"type":"Point","coordinates":[35.11684,50.36366]}},
{"type":"Feature","id":"186284609","properties":{"josm":"w186284609","name":"Островского переулок","nameuk":"Островського провулок"},"geometry":{"type":"Point","coordinates":[35.12643,50.35364]}},
{"type":"Feature","id":"186284624","properties":{"josm":"w186284624","name":"Матросова переулок","nameuk":"Матросова провулок"},"geometry":{"type":"Point","coordinates":[35.10176,50.36454]}},
{"type":"Feature","id":"186284632","properties":{"josm":"w186284632","name":"Маяковского переулок","nameuk":"Маяковського провулок"},"geometry":{"type":"Point","coordinates":[35.12728,50.35107]}},
{"type":"Feature","id":"186371314","properties":{"josm":"w186371314","name":"Привокзальная улица","nameuk":"Привокзальна вулиця"},"geometry":{"type":"Point","coordinates":[35.13396,50.34572]}},
{"type":"Feature","id":"186657835","properties":{"josm":"w186657835","name":"Харьковская улица","nameuk":"Харківська вулиця"},"geometry":{"type":"Point","coordinates":[35.31543,50.0421]}},
{"type":"Feature","id":"186724962","properties":{"josm":"w186724962","name":"Набережная улица","nameuk":"Набережна вулиця"},"geometry":{"type":"Point","coordinates":[36.40827,49.80359]}},
{"type":"Feature","id":"186785546","properties":{"josm":"w186785546","name":"Вишнёвая улица","nameuk":"Вишнева вулиця"},"geometry":{"type":"Point","coordinates":[35.06766,50.0982]}},
{"type":"Feature","id":"187232537","properties":{"josm":"w187232537","name":"вул. Чкалова","nameuk":"Чкалова вулиця"},"geometry":{"type":"Point","coordinates":[33.27235,48.04107]}},
{"type":"Feature","id":"187355161","properties":{"josm":"w187355161","name":"Вулиця Тургенєва","nameuk":"Тургенєва вулиця"},"geometry":{"type":"Point","coordinates":[38.374,48.63456]}},
{"type":"Feature","id":"187355162","properties":{"josm":"w187355162","name":"Вулиця Красних Партизан","nameuk":"Красних Партизан вулиця"},"geometry":{"type":"Point","coordinates":[38.38116,48.63309]}},
{"type":"Feature","id":"187355165","properties":{"josm":"w187355165","name":"Вулиця Красних Партизан","nameuk":"Красних Партизан вулиця"},"geometry":{"type":"Point","coordinates":[38.37598,48.63198]}},
{"type":"Feature","id":"187676811","properties":{"josm":"w187676811","name":"вулиця Ярослава Мудрого","nameuk":"Комсомольська вулиця"},"geometry":{"type":"Point","coordinates":[30.82809,49.86602]}},
{"type":"Feature","id":"187676829","properties":{"josm":"w187676829","name":"Свято-Троїцька вулиця","nameuk":"Свердлова вулиця"},"geometry":{"type":"Point","coordinates":[30.82145,49.86261]}},
{"type":"Feature","id":"188287368","properties":{"josm":"w188287368","name":"ул. 2-я Сортоиспытательная","nameuk":"вул. 2-я Сортовипробувальна"},"geometry":{"type":"Point","coordinates":[30.56051,46.45858]}},
{"type":"Feature","id":"188744198","properties":{"josm":"w188744198","name":"Боженка вулиця","nameuk":"Ушакова вулиця"},"geometry":{"type":"Point","coordinates":[32.15092,48.37634]}},
{"type":"Feature","id":"188944900","properties":{"josm":"w188944900","name":"Першотравневий провулок","nameuk":"Радянська вулиця"},"geometry":{"type":"Point","coordinates":[34.44048,49.57406]}},
{"type":"Feature","id":"190136595","properties":{"josm":"w190136595","name":"Зелёная улица","nameuk":"Зелена вулиця"},"geometry":{"type":"Point","coordinates":[33.72595,47.5499]}},
{"type":"Feature","id":"191560037","properties":{"josm":"w191560037","name":"Вознесенская улица","nameuk":"Вознесенська вулиця"},"geometry":{"type":"Point","coordinates":[35.75693,46.83415]}},
{"type":"Feature","id":"191903789","properties":{"josm":"w191903789","name":"Казацкая улица","nameuk":"Козацька вулиця"},"geometry":{"type":"Point","coordinates":[30.06618,46.84475]}},
{"type":"Feature","id":"192486384","properties":{"josm":"w192486384","name":"Садовая улица","nameuk":"Садова вулиця"},"geometry":{"type":"Point","coordinates":[35.16215,50.0744]}},
{"type":"Feature","id":"193408946","properties":{"josm":"w193408946","name":"Освиты улица","nameuk":"Освіти вулиця"},"geometry":{"type":"Point","coordinates":[30.37557,50.38059]}},
{"type":"Feature","id":"194159390","properties":{"josm":"w194159390","name":"Kalynova Street","nameuk":"Калинова вулиця"},"geometry":{"type":"Point","coordinates":[34.64633,48.71241]}},
{"type":"Feature","id":"195542066","properties":{"josm":"w195542066","name":"Освиты улица","nameuk":"Освіти вулиця"},"geometry":{"type":"Point","coordinates":[30.38025,50.37989]}},
{"type":"Feature","id":"197524354","properties":{"josm":"w197524354","name":"Партизанська вулиця","nameuk":"Паотизанська вулиця"},"geometry":{"type":"Point","coordinates":[35.7416,47.14884]}},
{"type":"Feature","id":"197842111","properties":{"josm":"w197842111","name":"Каразинский переулок","nameuk":"Каразінський провулок"},"geometry":{"type":"Point","coordinates":[35.15899,50.08413]}},
{"type":"Feature","id":"197843257","properties":{"josm":"w197843257","name":"майдан Павловський","nameuk":"Павловська площа"},"geometry":{"type":"Point","coordinates":[36.22929,49.9877]}},
{"type":"Feature","id":"198082110","properties":{"josm":"w198082110","name":"майдан Павловський","nameuk":"Павловська площа"},"geometry":{"type":"Point","coordinates":[36.22999,49.98735]}},
{"type":"Feature","id":"198082111","properties":{"josm":"w198082111","name":"майдан Павловський","nameuk":"Павловська площа"},"geometry":{"type":"Point","coordinates":[36.23148,49.98784]}},
{"type":"Feature","id":"198189046","properties":{"josm":"w198189046","name":"Вулиця Тараса Шевченка","nameuk":"Тараса Шевченка вулиця"},"geometry":{"type":"Point","coordinates":[38.3713,48.63854]}},
{"type":"Feature","id":"198189085","properties":{"josm":"w198189085","name":"Вулиця Глінки","nameuk":"Глінки вулиця"},"geometry":{"type":"Point","coordinates":[38.37759,48.64352]}},
{"type":"Feature","id":"198189124","properties":{"josm":"w198189124","name":"Вулиця Уляни Громової","nameuk":"Уляни Громової вулиця"},"geometry":{"type":"Point","coordinates":[38.37391,48.64261]}},
{"type":"Feature","id":"198189137","properties":{"josm":"w198189137","name":"Річковий провулок","nameuk":"Річкоий провулок"},"geometry":{"type":"Point","coordinates":[38.36889,48.63769]}},
{"type":"Feature","id":"198196378","properties":{"josm":"w198196378","name":"Вулиця Менделєєва","nameuk":"Менделєєва вулиця"},"geometry":{"type":"Point","coordinates":[38.38269,48.65306]}},
{"type":"Feature","id":"199247188","properties":{"josm":"w199247188","name":"Набережна ріки Сумка вулиця","nameuk":"Горького вулиця"},"geometry":{"type":"Point","coordinates":[34.80294,50.91328]}},
{"type":"Feature","id":"200562485","properties":{"josm":"w200562485","name":"Рыночная улица","nameuk":"Ринкова вулиця"},"geometry":{"type":"Point","coordinates":[30.70173,46.38146]}},
{"type":"Feature","id":"200562490","properties":{"josm":"w200562490","name":"Миндальная улица","nameuk":"Мигдальна вулиця"},"geometry":{"type":"Point","coordinates":[30.69308,46.37935]}},
{"type":"Feature","id":"200562493","properties":{"josm":"w200562493","name":"Новосёлов улица","nameuk":"вулиця Новоселів"},"geometry":{"type":"Point","coordinates":[30.69412,46.37952]}},
{"type":"Feature","id":"200562494","properties":{"josm":"w200562494","name":"Ореховая улица","nameuk":"Горіхова вулиця"},"geometry":{"type":"Point","coordinates":[30.6953,46.37965]}},
{"type":"Feature","id":"200562495","properties":{"josm":"w200562495","name":"Абрикосовая улица","nameuk":"Абрикосова вулиця"},"geometry":{"type":"Point","coordinates":[30.69203,46.37972]}},
{"type":"Feature","id":"202614969","properties":{"josm":"w202614969","name":"333-ї Дивізії вулиця","nameuk":"333-ї дивізії вулиця"},"geometry":{"type":"Point","coordinates":[35.50627,48.33054]}},
{"type":"Feature","id":"202938490","properties":{"josm":"w202938490","name":"Об’їздна вулиця","nameuk":"Об’їзна вулиця"},"geometry":{"type":"Point","coordinates":[33.72367,46.99864]}},
{"type":"Feature","id":"205724828","properties":{"josm":"w205724828","name":"Києво-Московська вулиця","nameuk":"Київо-Московська вулиця"},"geometry":{"type":"Point","coordinates":[33.92007,51.67801]}},
{"type":"Feature","id":"205945702","properties":{"josm":"w205945702","name":"Юрьевская улица","nameuk":"Юр'ївська вулиця"},"geometry":{"type":"Point","coordinates":[35.07184,50.09531]}},
{"type":"Feature","id":"205960358","properties":{"josm":"w205960358","name":"вул. Чарівна (Чапаєва)","nameuk":"Чапаєва вулиця"},"geometry":{"type":"Point","coordinates":[34.91332,47.00755]}},
{"type":"Feature","id":"205976975","properties":{"josm":"w205976975","name":"Мелитопольская улица","nameuk":"Мелітопольська вулиця"},"geometry":{"type":"Point","coordinates":[35.68639,46.9102]}},
{"type":"Feature","id":"205976978","properties":{"josm":"w205976978","name":"Астраханская улица","nameuk":"Астраханська вулиця"},"geometry":{"type":"Point","coordinates":[35.74277,46.83786]}},
{"type":"Feature","id":"205977007","properties":{"josm":"w205977007","name":"Почтовая улица","nameuk":"Поштова вулиця"},"geometry":{"type":"Point","coordinates":[35.76127,46.82988]}},
{"type":"Feature","id":"208446072","properties":{"josm":"w208446072","name":"майдан Павловський","nameuk":"Павловська площа"},"geometry":{"type":"Point","coordinates":[36.22766,49.98704]}},
{"type":"Feature","id":"208488516","properties":{"josm":"w208488516","name":"Центральная улица","nameuk":"Центральна вулиця"},"geometry":{"type":"Point","coordinates":[34.55975,46.59325]}},
{"type":"Feature","id":"208488545","properties":{"josm":"w208488545","name":"Мира улица","nameuk":"Миру вулиця"},"geometry":{"type":"Point","coordinates":[34.56218,46.59667]}},
{"type":"Feature","id":"208488584","properties":{"josm":"w208488584","name":"Мира улица","nameuk":"Миру вулиця"},"geometry":{"type":"Point","coordinates":[34.56153,46.59733]}},
{"type":"Feature","id":"208911797","properties":{"josm":"w208911797","name":"Героев Обороны улица","nameuk":"Героїв Оборони вулиця"},"geometry":{"type":"Point","coordinates":[35.12573,50.81561]}},
{"type":"Feature","id":"213434074","properties":{"josm":"w213434074","name":"Спортивна вулиця","nameuk":"Дніпровська вулиця"},"geometry":{"type":"Point","coordinates":[36.0782,48.52675]}},
{"type":"Feature","id":"215817598","properties":{"josm":"w215817598","name":"Молодёжная улица","nameuk":"Молодіжна вулиця"},"geometry":{"type":"Point","coordinates":[33.92176,50.60666]}},
{"type":"Feature","id":"216092481","properties":{"josm":"w216092481","name":"Покровский переулок","nameuk":"Покровський провулок "},"geometry":{"type":"Point","coordinates":[30.4251,46.26048]}},
{"type":"Feature","id":"219406526","properties":{"josm":"w219406526","name":"Кленовая Долина улица","nameuk":"вул. Кленова Долина"},"geometry":{"type":"Point","coordinates":[30.56055,50.34038]}},
{"type":"Feature","id":"219406527","properties":{"josm":"w219406527","name":"Цветочные Луга улица","nameuk":"вул. Квіткові Луки"},"geometry":{"type":"Point","coordinates":[30.56,50.3412]}},
{"type":"Feature","id":"220176743","properties":{"josm":"w220176743","name":"1-го Мая улица","nameuk":"1-го Травня вулиця"},"geometry":{"type":"Point","coordinates":[33.78906,50.55768]}},
{"type":"Feature","id":"220176765","properties":{"josm":"w220176765","name":"Зелёная улица","nameuk":"Зелена вулиця"},"geometry":{"type":"Point","coordinates":[33.80529,50.55554]}},
{"type":"Feature","id":"220260634","properties":{"josm":"w220260634","name":"Виноградна вулиця","nameuk":"Виноградка вулиця"},"geometry":{"type":"Point","coordinates":[34.80556,46.17865]}},
{"type":"Feature","id":"221866315","properties":{"josm":"w221866315","name":"Соборнана вулиця","nameuk":"Червоних Партизан вулиця"},"geometry":{"type":"Point","coordinates":[31.77196,47.30851]}},
{"type":"Feature","id":"223952300","properties":{"josm":"w223952300","name":"Василия Хоменко улица","nameuk":"Василя Хоменка вулиця"},"geometry":{"type":"Point","coordinates":[33.49333,46.81706]}},
{"type":"Feature","id":"223952302","properties":{"josm":"w223952302","name":"Василия Хоменко улица","nameuk":"Василя Хоменка вулиця"},"geometry":{"type":"Point","coordinates":[33.49315,46.81704]}},
{"type":"Feature","id":"225784838","properties":{"josm":"w225784838","name":"Рыбачья улица","nameuk":"Рибальська вулиця"},"geometry":{"type":"Point","coordinates":[30.7444,46.38974]}},
{"type":"Feature","id":"226717386","properties":{"josm":"w226717386","name":"Северная улица","nameuk":"Північна вулиця"},"geometry":{"type":"Point","coordinates":[30.69989,46.38299]}},
{"type":"Feature","id":"226717390","properties":{"josm":"w226717390","name":"Виноградная улица","nameuk":"Виноградна вулиця"},"geometry":{"type":"Point","coordinates":[30.6995,46.38147]}},
{"type":"Feature","id":"226717391","properties":{"josm":"w226717391","name":"Ёлочный переулок","nameuk":"Ялинковий провулок"},"geometry":{"type":"Point","coordinates":[30.69794,46.38143]}},
{"type":"Feature","id":"226717393","properties":{"josm":"w226717393","name":"Виноградная улица","nameuk":"Виноградна вулиця"},"geometry":{"type":"Point","coordinates":[30.69926,46.37717]}},
{"type":"Feature","id":"227830888","properties":{"josm":"w227830888","name":"улица Басенко","nameuk":"Басенка вулиця"},"geometry":{"type":"Point","coordinates":[33.91283,44.74964]}},
{"type":"Feature","id":"229017815","properties":{"josm":"w229017815","name":"Зерова улица","nameuk":"Зерова вулиця"},"geometry":{"type":"Point","coordinates":[31.33377,50.34875]}},
{"type":"Feature","id":"229017820","properties":{"josm":"w229017820","name":"Зерова улица","nameuk":"Зерова вулиця"},"geometry":{"type":"Point","coordinates":[31.33558,50.35201]}},
{"type":"Feature","id":"229017822","properties":{"josm":"w229017822","name":"проулок Червоный","nameuk":"провулок Червоний"},"geometry":{"type":"Point","coordinates":[31.32373,50.34977]}},
{"type":"Feature","id":"229017833","properties":{"josm":"w229017833","name":"Трубежская улица","nameuk":"Трубіжська вулиця"},"geometry":{"type":"Point","coordinates":[31.33445,50.34999]}},
{"type":"Feature","id":"229017834","properties":{"josm":"w229017834","name":"Одесская улица","nameuk":"Одеська вулиця"},"geometry":{"type":"Point","coordinates":[31.33245,50.34917]}},
{"type":"Feature","id":"229018444","properties":{"josm":"w229018444","name":"Ватутина","nameuk":"Ватутіна"},"geometry":{"type":"Point","coordinates":[31.30321,50.36082]}},
{"type":"Feature","id":"229119773","properties":{"josm":"w229119773","name":"Г. Сковороди  вулиця","nameuk":"Комсомольська вулиця"},"geometry":{"type":"Point","coordinates":[34.28148,48.48092]}},
{"type":"Feature","id":"230172835","properties":{"josm":"w230172835","name":"Саксаганського (Пролетарська) вулиця","nameuk":"Пролетарська вулиця"},"geometry":{"type":"Point","coordinates":[32.52625,50.22329]}},
{"type":"Feature","id":"230593943","properties":{"josm":"w230593943","name":"Балтская улица","nameuk":"Балтська вулиця"},"geometry":{"type":"Point","coordinates":[30.69523,46.36997]}},
{"type":"Feature","id":"230593948","properties":{"josm":"w230593948","name":"Килийская улица","nameuk":"Кілійська вулиця"},"geometry":{"type":"Point","coordinates":[30.70155,46.37415]}},
{"type":"Feature","id":"230593951","properties":{"josm":"w230593951","name":"Любашовская улица","nameuk":"Любашівська вулиця"},"geometry":{"type":"Point","coordinates":[30.69392,46.37049]}},
{"type":"Feature","id":"230593954","properties":{"josm":"w230593954","name":"Кодымская улица","nameuk":"Кодимська вулиця"},"geometry":{"type":"Point","coordinates":[30.69659,46.37378]}},
{"type":"Feature","id":"231093804","properties":{"josm":"w231093804","name":"Троянд провулок","nameuk":"2-й Вишневий провулок"},"geometry":{"type":"Point","coordinates":[33.27919,48.04385]}},
{"type":"Feature","id":"231180106","properties":{"josm":"w231180106","name":"Новая улица","nameuk":"Нова вулиця"},"geometry":{"type":"Point","coordinates":[32.11004,46.62048]}},
{"type":"Feature","id":"232637004","properties":{"josm":"w232637004","name":"Октябрьская улица","nameuk":"вулиця Жовтнева"},"geometry":{"type":"Point","coordinates":[31.80637,47.20997]}},
{"type":"Feature","id":"232643582","properties":{"josm":"w232643582","name":"Октябрьская улица","nameuk":"вулиця Жовтнева"},"geometry":{"type":"Point","coordinates":[31.82498,47.20016]}},
{"type":"Feature","id":"234110765","properties":{"josm":"w234110765","name":"Калініна вулиця","nameuk":"Калінова вулиця"},"geometry":{"type":"Point","coordinates":[32.67841,48.71275]}},
{"type":"Feature","id":"234249610","properties":{"josm":"w234249610","name":"Набережная улица","nameuk":"Н"},"geometry":{"type":"Point","coordinates":[37.27181,49.17398]}},
{"type":"Feature","id":"234318375","properties":{"josm":"w234318375","name":"Ленина улица","nameuk":"Фрунзе вулиця"},"geometry":{"type":"Point","coordinates":[30.28561,50.1974]}},
{"type":"Feature","id":"235121517","properties":{"josm":"w235121517","name":"Маяковского улица","nameuk":"Маяковського вулиця"},"geometry":{"type":"Point","coordinates":[35.26811,50.85758]}},
{"type":"Feature","id":"235286390","properties":{"josm":"w235286390","name":"Чкалова улица","nameuk":"Чкалова вулиця"},"geometry":{"type":"Point","coordinates":[35.27347,50.86307]}},
{"type":"Feature","id":"235286410","properties":{"josm":"w235286410","name":"Сосновский переулок","nameuk":"Сосновський провулок"},"geometry":{"type":"Point","coordinates":[35.2909,50.86542]}},
{"type":"Feature","id":"235989229","properties":{"josm":"w235989229","name":"Хуторская улица","nameuk":"Хутірська вулиця"},"geometry":{"type":"Point","coordinates":[29.99965,46.61028]}},
{"type":"Feature","id":"235989254","properties":{"josm":"w235989254","name":"Хуторская улица","nameuk":"Хутірська вулиця"},"geometry":{"type":"Point","coordinates":[29.99922,46.60933]}},
{"type":"Feature","id":"236695820","properties":{"josm":"w236695820","name":"Шевченко переулок","nameuk":"Шевченка провулок"},"geometry":{"type":"Point","coordinates":[33.46177,51.86864]}},
{"type":"Feature","id":"237500233","properties":{"josm":"w237500233","name":"ул. 1-ого Мая","nameuk":"вул. 1 Травня"},"geometry":{"type":"Point","coordinates":[30.19084,49.95296]}},
{"type":"Feature","id":"238063400","properties":{"josm":"w238063400","name":"Леніна вулиця","nameuk":"Кленова (Леніна) вулиця"},"geometry":{"type":"Point","coordinates":[30.15085,50.54638]}},
{"type":"Feature","id":"238498877","properties":{"josm":"w238498877","name":"Лермонтова вулиця","nameuk":"Некрасова вулиця"},"geometry":{"type":"Point","coordinates":[26.97718,49.65622]}},
{"type":"Feature","id":"239044640","properties":{"josm":"w239044640","name":"Шевченко улица","nameuk":"Шевченка вулиця"},"geometry":{"type":"Point","coordinates":[34.15486,50.62837]}},
{"type":"Feature","id":"239156036","properties":{"josm":"w239156036","name":"Школьная улица","nameuk":"Шкільна вулиця"},"geometry":{"type":"Point","coordinates":[34.77915,51.01222]}},
{"type":"Feature","id":"239162603","properties":{"josm":"w239162603","name":"вулиця Саркісова","nameuk":"Курганський провулок"},"geometry":{"type":"Point","coordinates":[37.59868,48.7653]}},
{"type":"Feature","id":"241071665","properties":{"josm":"w241071665","name":"Космонавта Попова бульвар","nameuk":"Попова площа"},"geometry":{"type":"Point","coordinates":[33.11699,48.66341]}},
{"type":"Feature","id":"242063209","properties":{"josm":"w242063209","name":"Левадный переулок","nameuk":"Левадний провулок"},"geometry":{"type":"Point","coordinates":[35.05837,50.36045]}},
{"type":"Feature","id":"242063211","properties":{"josm":"w242063211","name":"Вишнёвая улица","nameuk":"Вишнева вулиця"},"geometry":{"type":"Point","coordinates":[35.05826,50.36157]}},
{"type":"Feature","id":"242249683","properties":{"josm":"w242249683","name":"Ломоносова улица","nameuk":"Ломоносова вулиця"},"geometry":{"type":"Point","coordinates":[35.16325,50.34179]}},
{"type":"Feature","id":"242337057","properties":{"josm":"w242337057","name":"Шкільна вулиця","nameuk":"Чкалова вулиця"},"geometry":{"type":"Point","coordinates":[39.45045,48.67181]}},
{"type":"Feature","id":"242940229","properties":{"josm":"w242940229","name":"Слесарная улица","nameuk":"Кузнечна вулиця"},"geometry":{"type":"Point","coordinates":[33.53346,44.59177]}},
{"type":"Feature","id":"243030032","properties":{"josm":"w243030032","name":"Улица Куйбышева","nameuk":"Чапаєва вулиця (вулиця Куйбышева)"},"geometry":{"type":"Point","coordinates":[34.34707,46.81979]}},
{"type":"Feature","id":"243050652","properties":{"josm":"w243050652","name":"Пушкина улица","nameuk":"Пушкіна вулиця"},"geometry":{"type":"Point","coordinates":[34.38714,46.82814]}},
{"type":"Feature","id":"243051087","properties":{"josm":"w243051087","name":"Калинина улица","nameuk":"Калініна вулиця"},"geometry":{"type":"Point","coordinates":[34.38245,46.83934]}},
{"type":"Feature","id":"246173085","properties":{"josm":"w246173085","name":"Нестора Махно  вулиця","nameuk":"Щорса вулиця"},"geometry":{"type":"Point","coordinates":[34.2158,48.48298]}},
{"type":"Feature","id":"246173087","properties":{"josm":"w246173087","name":"Княгині Ольги  вулиця","nameuk":"Княгинї Ольги вулиця"},"geometry":{"type":"Point","coordinates":[34.21797,48.47861]}},
{"type":"Feature","id":"246272218","properties":{"josm":"w246272218","name":"Yalta Kart","nameuk":"Ялта Карт"},"geometry":{"type":"Point","coordinates":[34.16029,44.48817]}},
{"type":"Feature","id":"247332301","properties":{"josm":"w247332301","name":"Другий  Соборний  провулок","nameuk":"Островського провулок"},"geometry":{"type":"Point","coordinates":[34.2513,48.48079]}},
{"type":"Feature","id":"250080828","properties":{"josm":"w250080828","name":"Школьный переулок","nameuk":"Шкільний провулок"},"geometry":{"type":"Point","coordinates":[36.21618,48.55874]}},
{"type":"Feature","id":"250527536","properties":{"josm":"w250527536","name":"Тиха  вулиця","nameuk":"Центральна вулиця"},"geometry":{"type":"Point","coordinates":[34.01819,48.79832]}},
{"type":"Feature","id":"251255495","properties":{"josm":"w251255495","name":"Зелёная улица","nameuk":"Зелена вулиця"},"geometry":{"type":"Point","coordinates":[33.3093,51.7711]}},
{"type":"Feature","id":"251256086","properties":{"josm":"w251256086","name":"Запорізька вулиця","nameuk":"Комсомольська вулиця"},"geometry":{"type":"Point","coordinates":[34.40883,48.58882]}},
{"type":"Feature","id":"253892615","properties":{"josm":"w253892615","name":"Садовая улица","nameuk":"Садова вулиця"},"geometry":{"type":"Point","coordinates":[35.31486,50.03693]}},
{"type":"Feature","id":"255683239","properties":{"josm":"w255683239","name":"Петропавлівська вулиця","nameuk":"Будівельна вулиця"},"geometry":{"type":"Point","coordinates":[33.64528,47.57156]}},
{"type":"Feature","id":"256082505","properties":{"josm":"w256082505","name":"Солнечная улица","nameuk":"Сонячна вулиця"},"geometry":{"type":"Point","coordinates":[30.37764,50.38318]}},
{"type":"Feature","id":"256225377","properties":{"josm":"w256225377","name":"Полевая улица","nameuk":"Польова вулиця"},"geometry":{"type":"Point","coordinates":[34.42534,51.10093]}},
{"type":"Feature","id":"258465524","properties":{"josm":"w258465524","name":"Південна вулиця","nameuk":"Южна вулиця"},"geometry":{"type":"Point","coordinates":[33.86436,48.04041]}},
{"type":"Feature","id":"258465525","properties":{"josm":"w258465525","name":"Південна вулиця","nameuk":"Южна вулиця"},"geometry":{"type":"Point","coordinates":[33.8709,48.03983]}},
{"type":"Feature","id":"258817069","properties":{"josm":"w258817069","name":"Пролетарская улица","nameuk":"Пролетарська вулиця"},"geometry":{"type":"Point","coordinates":[30.1325,50.52452]}},
{"type":"Feature","id":"259332305","properties":{"josm":"w259332305","name":"Привокзальный провулок","nameuk":"Кірова провулок"},"geometry":{"type":"Point","coordinates":[37.82604,48.96177]}},
{"type":"Feature","id":"262721205","properties":{"josm":"w262721205","name":"Чайкиної вулиця","nameuk":"Чайкіної вулиця"},"geometry":{"type":"Point","coordinates":[37.52005,47.5843]}},
{"type":"Feature","id":"263079319","properties":{"josm":"w263079319","name":"Петропавловская вулиця","nameuk":"Леніна вулиця"},"geometry":{"type":"Point","coordinates":[37.78866,49.00198]}},
{"type":"Feature","id":"264767902","properties":{"josm":"w264767902","name":"Пушкина улица","nameuk":"Пушкіна вулиця"},"geometry":{"type":"Point","coordinates":[33.49222,46.7377]}},
{"type":"Feature","id":"265139117","properties":{"josm":"w265139117","name":"Чхаидзе улица","nameuk":"Чхаїдзе вулиця"},"geometry":{"type":"Point","coordinates":[34.53552,46.03348]}},
{"type":"Feature","id":"265929288","properties":{"josm":"w265929288","name":"Победы улица","nameuk":"Перемоги вулиця"},"geometry":{"type":"Point","coordinates":[30.45766,50.32314]}},
{"type":"Feature","id":"266705833","properties":{"josm":"w266705833","name":"Короленко вулиця","nameuk":"Короленка вулиця"},"geometry":{"type":"Point","coordinates":[34.53535,49.83016]}},
{"type":"Feature","id":"268676749","properties":{"josm":"w268676749","name":"Независимости вулиця","nameuk":"Незалежності вулиця"},"geometry":{"type":"Point","coordinates":[37.81871,48.98071]}},
{"type":"Feature","id":"268676751","properties":{"josm":"w268676751","name":"Независимости вулиця","nameuk":"Незалежності вулиця"},"geometry":{"type":"Point","coordinates":[37.81608,48.97947]}},
{"type":"Feature","id":"269520685","properties":{"josm":"w269520685","name":"Полищука улица","nameuk":"Молодіжна вулиця"},"geometry":{"type":"Point","coordinates":[35.15311,45.14509]}},
{"type":"Feature","id":"270322915","properties":{"josm":"w270322915","name":"Островского улица","nameuk":"Островського вулиця"},"geometry":{"type":"Point","coordinates":[35.21293,50.35146]}},
{"type":"Feature","id":"274662290","properties":{"josm":"w274662290","name":"Січових Стрільців вулиця","nameuk":"Січових стрільців вулиця"},"geometry":{"type":"Point","coordinates":[30.13324,49.77477]}},
{"type":"Feature","id":"276815260","properties":{"josm":"w276815260","name":"М. Немолота вулиця","nameuk":"М.Немолота вулиця"},"geometry":{"type":"Point","coordinates":[33.22701,51.22548]}},
{"type":"Feature","id":"282579005","properties":{"josm":"w282579005","name":"Тухачевського (Іподромна) вулиця","nameuk":"Тухачевського (Ипподромная) вулиця"},"geometry":{"type":"Point","coordinates":[35.12062,49.46842]}},
{"type":"Feature","id":"282579011","properties":{"josm":"w282579011","name":"Калініна (Дробця) вулиця","nameuk":"Калініна вулиця"},"geometry":{"type":"Point","coordinates":[35.1254,49.46092]}},
{"type":"Feature","id":"289229788","properties":{"josm":"w289229788","name":"Новоселівська вулиця","nameuk":"Щорса вулиця"},"geometry":{"type":"Point","coordinates":[32.64327,50.07593]}},
{"type":"Feature","id":"290359480","properties":{"josm":"w290359480","name":"Петропавловский провулок","nameuk":"Леніна провулок"},"geometry":{"type":"Point","coordinates":[37.78017,49.00161]}},
{"type":"Feature","id":"291096679","properties":{"josm":"w291096679","name":"Івана Багряного вулиця","nameuk":"Ентузіастів вулиця"},"geometry":{"type":"Point","coordinates":[28.5468,49.24647]}},
{"type":"Feature","id":"301072528","properties":{"josm":"w301072528","name":"Отамана Головатого (Леніна) вулиця","nameuk":"Леніна вулиця"},"geometry":{"type":"Point","coordinates":[30.18989,46.49794]}},
{"type":"Feature","id":"301072529","properties":{"josm":"w301072529","name":"Отамана Головатого (Леніна) вулиця","nameuk":"Леніна вулиця"},"geometry":{"type":"Point","coordinates":[30.18953,46.49812]}},
{"type":"Feature","id":"301242063","properties":{"josm":"w301242063","name":"Комсомольський (Максименко) провулок","nameuk":"Комсомольський провулок"},"geometry":{"type":"Point","coordinates":[35.14077,49.45904]}},
{"type":"Feature","id":"302903843","properties":{"josm":"w302903843","name":"Островского улица","nameuk":"Островського вулиця"},"geometry":{"type":"Point","coordinates":[30.37596,50.32015]}},
{"type":"Feature","id":"304386665","properties":{"josm":"w304386665","name":"Молодежная улица","nameuk":"Молодіжна вулиця"},"geometry":{"type":"Point","coordinates":[38.07073,47.67644]}},
{"type":"Feature","id":"304386676","properties":{"josm":"w304386676","name":"Молодежная улица","nameuk":"Молодіжна вулиця"},"geometry":{"type":"Point","coordinates":[38.07138,47.67776]}},
{"type":"Feature","id":"306281266","properties":{"josm":"w306281266","name":"Комсомольський (Максименко) провулок","nameuk":"Комсомольський провулок"},"geometry":{"type":"Point","coordinates":[35.14239,49.45879]}},
{"type":"Feature","id":"307938865","properties":{"josm":"w307938865","name":"Козаченка вулиця","nameuk":"Козаченко вулиця"},"geometry":{"type":"Point","coordinates":[38.43313,48.8914]}},
{"type":"Feature","id":"307941928","properties":{"josm":"w307941928","name":"Івана Франка вулиця","nameuk":"Франка вулиця"},"geometry":{"type":"Point","coordinates":[38.43574,48.89034]}},
{"type":"Feature","id":"308454787","properties":{"josm":"w308454787","name":"Ешиль Ада","nameuk":"Мирна вулиця"},"geometry":{"type":"Point","coordinates":[34.98896,44.83923]}},
{"type":"Feature","id":"308958541","properties":{"josm":"w308958541","name":"Сумская улица","nameuk":"Сумська вулиця"},"geometry":{"type":"Point","coordinates":[35.02499,51.11659]}},
{"type":"Feature","id":"308958575","properties":{"josm":"w308958575","name":"Холодная Гора улица","nameuk":"Холодна Гора вулиця"},"geometry":{"type":"Point","coordinates":[35.04132,51.12928]}},
{"type":"Feature","id":"308958607","properties":{"josm":"w308958607","name":"Холодная Гора улица","nameuk":"Холодна Гора вулиця"},"geometry":{"type":"Point","coordinates":[35.03488,51.1271]}},
{"type":"Feature","id":"308959403","properties":{"josm":"w308959403","name":"Северная","nameuk":"Північна"},"geometry":{"type":"Point","coordinates":[30.63795,46.44187]}},
{"type":"Feature","id":"308959404","properties":{"josm":"w308959404","name":"Южная","nameuk":"Південна"},"geometry":{"type":"Point","coordinates":[30.63896,46.43847]}},
{"type":"Feature","id":"308959405","properties":{"josm":"w308959405","name":"Розовая","nameuk":"Рожева"},"geometry":{"type":"Point","coordinates":[30.63747,46.44009]}},
{"type":"Feature","id":"308959406","properties":{"josm":"w308959406","name":"Серая","nameuk":"Сіра"},"geometry":{"type":"Point","coordinates":[30.63773,46.44011]}},
{"type":"Feature","id":"308959407","properties":{"josm":"w308959407","name":"Зелёная","nameuk":"Зелена"},"geometry":{"type":"Point","coordinates":[30.63797,46.44013]}},
{"type":"Feature","id":"308959408","properties":{"josm":"w308959408","name":"Центральная","nameuk":"Центральна"},"geometry":{"type":"Point","coordinates":[30.63815,46.44015]}},
{"type":"Feature","id":"308959409","properties":{"josm":"w308959409","name":"Абрикосовая","nameuk":"Абрикосова"},"geometry":{"type":"Point","coordinates":[30.63839,46.44017]}},
{"type":"Feature","id":"308959410","properties":{"josm":"w308959410","name":"Бежевая","nameuk":"Бежева"},"geometry":{"type":"Point","coordinates":[30.63862,46.44018]}},
{"type":"Feature","id":"308959411","properties":{"josm":"w308959411","name":"Голубая","nameuk":"Блакитна"},"geometry":{"type":"Point","coordinates":[30.63886,46.4402]}},
{"type":"Feature","id":"308959412","properties":{"josm":"w308959412","name":"Синяя","nameuk":"Синя"},"geometry":{"type":"Point","coordinates":[30.6391,46.44022]}},
{"type":"Feature","id":"308959413","properties":{"josm":"w308959413","name":"Рыночная","nameuk":"Ринкова"},"geometry":{"type":"Point","coordinates":[30.63933,46.44025]}},
{"type":"Feature","id":"308959414","properties":{"josm":"w308959414","name":"Авангардная","nameuk":"Авангардна"},"geometry":{"type":"Point","coordinates":[30.63953,46.44027]}},
{"type":"Feature","id":"313254004","properties":{"josm":"w313254004","name":"Пролетарська вулиця","nameuk":"Европейська вулиця"},"geometry":{"type":"Point","coordinates":[33.36657,49.09969]}},
{"type":"Feature","id":"313556680","properties":{"josm":"w313556680","name":"Залізнична вулиця","nameuk":"Шота вулиця"},"geometry":{"type":"Point","coordinates":[37.17813,48.28415]}},
{"type":"Feature","id":"315891608","properties":{"josm":"w315891608","name":"Лісова вулиця","nameuk":"Лісна вулиця"},"geometry":{"type":"Point","coordinates":[33.28573,49.1199]}},
{"type":"Feature","id":"315891608","properties":{"josm":"w315891608","name":"Лісова вулиця","nameuk":"Лісна вулиця"},"geometry":{"type":"Point","coordinates":[33.28573,49.1199]}},
{"type":"Feature","id":"316504888","properties":{"josm":"w316504888","name":"Пушкина улица","nameuk":"Пушкіна вулиця"},"geometry":{"type":"Point","coordinates":[36.21681,48.55459]}},
{"type":"Feature","id":"316504902","properties":{"josm":"w316504902","name":"Соборная улица","nameuk":"Соборна вулиця"},"geometry":{"type":"Point","coordinates":[36.21727,48.55686]}},
{"type":"Feature","id":"316544561","properties":{"josm":"w316544561","name":"Галузевий проїзд","nameuk":"Галузевий провулок"},"geometry":{"type":"Point","coordinates":[33.45535,49.15754]}},
{"type":"Feature","id":"319671081","properties":{"josm":"w319671081","name":"Терешкова вулиця","nameuk":"Мічуріна вулиця"},"geometry":{"type":"Point","coordinates":[29.85431,47.07752]}},
{"type":"Feature","id":"321111229","properties":{"josm":"w321111229","name":"Школьный переулок","nameuk":"Шкільний провулок"},"geometry":{"type":"Point","coordinates":[33.92651,47.50135]}},
{"type":"Feature","id":"323547122","properties":{"josm":"w323547122","name":"Дружби провулок","nameuk":"Дружби вулиця"},"geometry":{"type":"Point","coordinates":[26.02746,50.54447]}},
{"type":"Feature","id":"325184739","properties":{"josm":"w325184739","name":"вулиця Росавська","nameuk":"Червоноармійська вулиця"},"geometry":{"type":"Point","coordinates":[30.83,49.8657]}},
{"type":"Feature","id":"325200717","properties":{"josm":"w325200717","name":"вулиця Відродження","nameuk":"Дзержинського вулиця"},"geometry":{"type":"Point","coordinates":[30.82548,49.86859]}},
{"type":"Feature","id":"325205931","properties":{"josm":"w325205931","name":"Медова вулиця","nameuk":"60 років СРСР вулиця"},"geometry":{"type":"Point","coordinates":[30.83337,49.87078]}},
{"type":"Feature","id":"327118715","properties":{"josm":"w327118715","name":"Залізнична вулиця","nameuk":"Шота вулиця"},"geometry":{"type":"Point","coordinates":[37.16709,48.28619]}},
{"type":"Feature","id":"327118718","properties":{"josm":"w327118718","name":"Залізнична вулиця","nameuk":"Шота вулиця"},"geometry":{"type":"Point","coordinates":[37.1524,48.28753]}},
{"type":"Feature","id":"328910335","properties":{"josm":"w328910335","name":"Головурівська вулиця","nameuk":"Галавурівська вулиця"},"geometry":{"type":"Point","coordinates":[31.03847,50.22506]}},
{"type":"Feature","id":"333432096","properties":{"josm":"w333432096","name":"Молодежная улица","nameuk":"Молодіжна вулиця"},"geometry":{"type":"Point","coordinates":[38.07158,47.67763]}},
{"type":"Feature","id":"333891437","properties":{"josm":"w333891437","name":"Фундукліївська вулиця","nameuk":"Горького вулиця"},"geometry":{"type":"Point","coordinates":[32.67541,49.0728]}},
{"type":"Feature","id":"334219315","properties":{"josm":"w334219315","name":"Фундукліївська вулиця","nameuk":"Горького вулиця"},"geometry":{"type":"Point","coordinates":[32.67803,49.07477]}},
{"type":"Feature","id":"335603179","properties":{"josm":"w335603179","name":"Орджонікідзе вулиця (Олекси Тихого)","nameuk":"Орджонікідзе вулиця"},"geometry":{"type":"Point","coordinates":[37.57315,48.73947]}},
{"type":"Feature","id":"335788774","properties":{"josm":"w335788774","name":"Соціалістична вулиця (Василя Стуса)","nameuk":"Соціалістична вулиця"},"geometry":{"type":"Point","coordinates":[37.58546,48.73454]}},
{"type":"Feature","id":"336116218","properties":{"josm":"w336116218","name":"Озерная улица","nameuk":"Озерна вулиця"},"geometry":{"type":"Point","coordinates":[37.44876,48.57494]}},
{"type":"Feature","id":"336121459","properties":{"josm":"w336121459","name":"Дальний переулок","nameuk":"Дальній провулок"},"geometry":{"type":"Point","coordinates":[30.69628,46.38128]}},
{"type":"Feature","id":"337175490","properties":{"josm":"w337175490","name":"Луначарского улица","nameuk":"Соборна вулиця"},"geometry":{"type":"Point","coordinates":[38.07101,48.69601]}},
{"type":"Feature","id":"337646962","properties":{"josm":"w337646962","name":"Трейл Канатный","nameuk":"Трейл Канатний"},"geometry":{"type":"Point","coordinates":[36.24159,50.02535]}},
{"type":"Feature","id":"341396869","properties":{"josm":"w341396869","name":"Щастя вулиця","nameuk":"Щастя  вулиця"},"geometry":{"type":"Point","coordinates":[29.83383,49.91494]}},
{"type":"Feature","id":"342018461","properties":{"josm":"w342018461","name":"Кольцевая вулиця","nameuk":"Кільцева вулиця"},"geometry":{"type":"Point","coordinates":[29.80531,49.92523]}},
{"type":"Feature","id":"349250916","properties":{"josm":"w349250916","name":"Мира улица","nameuk":"Миру вулиця"},"geometry":{"type":"Point","coordinates":[33.91478,47.50197]}},
{"type":"Feature","id":"349252597","properties":{"josm":"w349252597","name":"Дудченко улица","nameuk":"Дудченка вулиця"},"geometry":{"type":"Point","coordinates":[33.90858,47.49229]}},
{"type":"Feature","id":"349260892","properties":{"josm":"w349260892","name":"Ореховая улица","nameuk":"Горіхова вулиця"},"geometry":{"type":"Point","coordinates":[33.91016,47.50148]}},
{"type":"Feature","id":"353833606","properties":{"josm":"w353833606","name":"Надежды улица","nameuk":"Надії вулиця"},"geometry":{"type":"Point","coordinates":[33.91699,47.49024]}},
{"type":"Feature","id":"353833624","properties":{"josm":"w353833624","name":"Орлиная улица","nameuk":"Орлина вулиця"},"geometry":{"type":"Point","coordinates":[33.9206,47.48834]}},
{"type":"Feature","id":"353839538","properties":{"josm":"w353839538","name":"Невского улица","nameuk":"Невського вулиця"},"geometry":{"type":"Point","coordinates":[33.91177,47.50755]}},
{"type":"Feature","id":"353839543","properties":{"josm":"w353839543","name":"Вишнёвый переулок","nameuk":"Вишневий провулок"},"geometry":{"type":"Point","coordinates":[33.92368,47.51288]}},
{"type":"Feature","id":"353839549","properties":{"josm":"w353839549","name":"Молодёжный переулок","nameuk":"Молодіжний провулок"},"geometry":{"type":"Point","coordinates":[33.91793,47.51121]}},
{"type":"Feature","id":"355532621","properties":{"josm":"w355532621","name":"9-го Січня вулиця","nameuk":"9-го січня вулиця"},"geometry":{"type":"Point","coordinates":[34.63986,47.65162]}},
{"type":"Feature","id":"355665945","properties":{"josm":"w355665945","name":"Пилипа Орлика 1-й провулок","nameuk":"Пилипа Орлика вулиця"},"geometry":{"type":"Point","coordinates":[28.53735,49.26843]}},
{"type":"Feature","id":"357853573","properties":{"josm":"w357853573","name":"Ткаченко вулиця","nameuk":"Лікарняна"},"geometry":{"type":"Point","coordinates":[29.63118,47.92709]}},
{"type":"Feature","id":"359616480","properties":{"josm":"w359616480","name":"Петровського (Магістральна) вулиця","nameuk":"Петровського вулиця"},"geometry":{"type":"Point","coordinates":[32.43326,50.12068]}},
{"type":"Feature","id":"359633473","properties":{"josm":"w359633473","name":"Вишнева вулиця","nameuk":"Жовтнева вулиця"},"geometry":{"type":"Point","coordinates":[34.24159,48.47322]}},
{"type":"Feature","id":"359633482","properties":{"josm":"w359633482","name":"Дніпровська  вулиця","nameuk":"Дніпровська вулиця"},"geometry":{"type":"Point","coordinates":[34.249,48.48679]}},
{"type":"Feature","id":"363747056","properties":{"josm":"w363747056","name":"На дорогу (старая дорога в Молодово)","nameuk":"На дорогу (стара дорога в Молодове)"},"geometry":{"type":"Point","coordinates":[27.09837,48.5467]}},
{"type":"Feature","id":"363750201","properties":{"josm":"w363750201","name":"Дорога возле леса за огородами","nameuk":"Дорога біля лісу за городами"},"geometry":{"type":"Point","coordinates":[27.12145,48.539]}},
{"type":"Feature","id":"363751941","properties":{"josm":"w363751941","name":"Дорога в лес","nameuk":"Дорога в ліс"},"geometry":{"type":"Point","coordinates":[27.12638,48.53586]}},
{"type":"Feature","id":"364235289","properties":{"josm":"w364235289","name":"Мельхіседека Значко-Яворського провулок","nameuk":"Карла Маркса провулок"},"geometry":{"type":"Point","coordinates":[32.66362,49.07163]}},
{"type":"Feature","id":"365349942","properties":{"josm":"w365349942","name":"Мира улица","nameuk":"Миру вулиця"},"geometry":{"type":"Point","coordinates":[36.20872,47.98325]}},
{"type":"Feature","id":"365349950","properties":{"josm":"w365349950","name":"Мира улица","nameuk":"Миру вулиця"},"geometry":{"type":"Point","coordinates":[36.21177,47.98497]}},
{"type":"Feature","id":"366720862","properties":{"josm":"w366720862","name":"Привокзальный провулок","nameuk":"Кірова провулок"},"geometry":{"type":"Point","coordinates":[37.82304,48.95965]}},
{"type":"Feature","id":"367052452","properties":{"josm":"w367052452","name":"проход","nameuk":"прохід"},"geometry":{"type":"Point","coordinates":[30.72804,46.44237]}},
{"type":"Feature","id":"373323004","properties":{"josm":"w373323004","name":"Кирова проспект","nameuk":"Кірова проспект"},"geometry":{"type":"Point","coordinates":[34.1019,44.95108]}},
{"type":"Feature","id":"374272283","properties":{"josm":"w374272283","name":"Зелёная улица","nameuk":"Зелена вулиця"},"geometry":{"type":"Point","coordinates":[33.30219,51.76598]}},
{"type":"Feature","id":"374272911","properties":{"josm":"w374272911","name":"Зелёная улица","nameuk":"Зелена вулиця"},"geometry":{"type":"Point","coordinates":[33.30461,51.76865]}},
{"type":"Feature","id":"376722503","properties":{"josm":"w376722503","name":"Дабриняна вулиця","nameuk":"вулиця Дарбіняна"},"geometry":{"type":"Point","coordinates":[29.06549,50.31734]}},
{"type":"Feature","id":"382326985","properties":{"josm":"w382326985","name":"Днепровская улица","nameuk":"Дніпровська вулиця "},"geometry":{"type":"Point","coordinates":[33.92912,47.49314]}},
{"type":"Feature","id":"385257640","properties":{"josm":"w385257640","name":"Пешеходный переход","nameuk":"Пішохідний перехід"},"geometry":{"type":"Point","coordinates":[30.73016,46.55861]}},
{"type":"Feature","id":"385413329","properties":{"josm":"w385413329","name":"Пешеходный переход","nameuk":"Пішохідний перехід"},"geometry":{"type":"Point","coordinates":[30.73517,46.55582]}},
{"type":"Feature","id":"385413330","properties":{"josm":"w385413330","name":"Пешеходный переход","nameuk":"Пішохідний перехід"},"geometry":{"type":"Point","coordinates":[30.73508,46.55626]}},
{"type":"Feature","id":"385472935","properties":{"josm":"w385472935","name":"Пешеходный переход","nameuk":"Пішохідний перехід"},"geometry":{"type":"Point","coordinates":[30.74041,46.53918]}},
{"type":"Feature","id":"387319577","properties":{"josm":"w387319577","name":"Воронцовская улица","nameuk":"Воронцовская"},"geometry":{"type":"Point","coordinates":[32.73726,46.68197]}},
{"type":"Feature","id":"388243183","properties":{"josm":"w388243183","name":"3-я лінія","nameuk":"3-а лінія"},"geometry":{"type":"Point","coordinates":[30.72738,46.4045]}},
{"type":"Feature","id":"390098801","properties":{"josm":"w390098801","name":"Корниевского","nameuk":"Корнiевського"},"geometry":{"type":"Point","coordinates":[32.24594,51.7791]}},
{"type":"Feature","id":"395269031","properties":{"josm":"w395269031","name":"Носаль Є. І. вулиця","nameuk":"Носаль вулиця"},"geometry":{"type":"Point","coordinates":[35.3103,47.37529]}},
{"type":"Feature","id":"396763280","properties":{"josm":"w396763280","name":"улица Ленина","nameuk":"Леніна вулиця"},"geometry":{"type":"Point","coordinates":[39.27501,48.49452]}},
{"type":"Feature","id":"397952147","properties":{"josm":"w397952147","name":"Заречная улица","nameuk":"Зарічна вулиця"},"geometry":{"type":"Point","coordinates":[30.3024,50.17166]}},
{"type":"Feature","id":"400028785","properties":{"josm":"w400028785","name":"Высокая улица","nameuk":"Висока вулиця"},"geometry":{"type":"Point","coordinates":[35.27854,50.79256]}},
{"type":"Feature","id":"400220181","properties":{"josm":"w400220181","name":"провулок Грищенка","nameuk":"Грищенко вулиця"},"geometry":{"type":"Point","coordinates":[36.39105,49.98682]}},
{"type":"Feature","id":"401182047","properties":{"josm":"w401182047","name":"Житомирская улица","nameuk":"Житомирська вулиця"},"geometry":{"type":"Point","coordinates":[30.32988,50.42628]}},
{"type":"Feature","id":"401215882","properties":{"josm":"w401215882","name":"Карла Маркса улица","nameuk":"Карла Маркса вулиця"},"geometry":{"type":"Point","coordinates":[30.37878,50.31722]}},
{"type":"Feature","id":"401900986","properties":{"josm":"w401900986","name":"Первомайская улица","nameuk":"Першотравнева вулиця"},"geometry":{"type":"Point","coordinates":[35.03144,51.12315]}},
{"type":"Feature","id":"403840698","properties":{"josm":"w403840698","name":"Одесская улица","nameuk":"Одеська вулиця"},"geometry":{"type":"Point","coordinates":[30.44596,46.24578]}},
{"type":"Feature","id":"404015264","properties":{"josm":"w404015264","name":"Калиновий проїзд","nameuk":"Калиновий провулок"},"geometry":{"type":"Point","coordinates":[35.84218,48.53974]}},
{"type":"Feature","id":"404015265","properties":{"josm":"w404015265","name":"Вербний проїзд","nameuk":"Вербний провулок"},"geometry":{"type":"Point","coordinates":[35.84098,48.53965]}},
{"type":"Feature","id":"404015266","properties":{"josm":"w404015266","name":"Тополиний проїзд","nameuk":"Тополиний провулок"},"geometry":{"type":"Point","coordinates":[35.83967,48.53954]}},
{"type":"Feature","id":"404862353","properties":{"josm":"w404862353","name":"переулок 1й Гетьмана Сагайдачного","nameuk":"провулок 1й Гетьмана Сагайдачного"},"geometry":{"type":"Point","coordinates":[35.36596,46.85472]}},
{"type":"Feature","id":"405153195","properties":{"josm":"w405153195","name":"Звёздная улица","nameuk":"Зоряна вулиця"},"geometry":{"type":"Point","coordinates":[30.13452,50.48181]}},
{"type":"Feature","id":"405179712","properties":{"josm":"w405179712","name":"Центральная улица","nameuk":"Центральна вулиця"},"geometry":{"type":"Point","coordinates":[30.11977,50.42157]}},
{"type":"Feature","id":"405311501","properties":{"josm":"w405311501","name":"Островского улица","nameuk":"Островського вулиця"},"geometry":{"type":"Point","coordinates":[30.37302,50.32134]}},
{"type":"Feature","id":"405311504","properties":{"josm":"w405311504","name":"Молодёжная улица","nameuk":"Молодіжна вулиця"},"geometry":{"type":"Point","coordinates":[30.3764,50.30852]}},
{"type":"Feature","id":"405311505","properties":{"josm":"w405311505","name":"Парковая улица","nameuk":"Паркова вулиця"},"geometry":{"type":"Point","coordinates":[30.37553,50.30764]}},
{"type":"Feature","id":"412474021","properties":{"josm":"w412474021","name":"Мичурина улица","nameuk":"Мічуріна вулиця"},"geometry":{"type":"Point","coordinates":[33.93311,47.49372]}},
{"type":"Feature","id":"412474025","properties":{"josm":"w412474025","name":"Набережная улица","nameuk":"Набережна вулиця"},"geometry":{"type":"Point","coordinates":[33.92684,47.50773]}},
{"type":"Feature","id":"412474026","properties":{"josm":"w412474026","name":"Парковая улица","nameuk":"Паркова вулиця"},"geometry":{"type":"Point","coordinates":[33.92547,47.50736]}},
{"type":"Feature","id":"412776088","properties":{"josm":"w412776088","name":"Школьный переулок","nameuk":"Шкільний провулок"},"geometry":{"type":"Point","coordinates":[33.92902,47.50142]}},
{"type":"Feature","id":"412776101","properties":{"josm":"w412776101","name":"Горького улица","nameuk":"Горького вулиця"},"geometry":{"type":"Point","coordinates":[33.90828,47.4945]}},
{"type":"Feature","id":"412776105","properties":{"josm":"w412776105","name":"8 Марта переулок","nameuk":"8 Березня провулок"},"geometry":{"type":"Point","coordinates":[33.9103,47.49768]}},
{"type":"Feature","id":"413943505","properties":{"josm":"w413943505","name":"Оптимистов улица","nameuk":"Оптимістів вулиця"},"geometry":{"type":"Point","coordinates":[35.1119,48.37723]}},
{"type":"Feature","id":"415713504","properties":{"josm":"w415713504","name":"вул. Чапаєва (Чарівна)","nameuk":"Чапаєва вулиця"},"geometry":{"type":"Point","coordinates":[34.89006,47.02314]}},
{"type":"Feature","id":"415713505","properties":{"josm":"w415713505","name":"вул. Жданова","nameuk":"Горького"},"geometry":{"type":"Point","coordinates":[34.87798,47.01619]}},
{"type":"Feature","id":"415761359","properties":{"josm":"w415761359","name":"Кооперативна вулиця","nameuk":"Кооперативна вулиця "},"geometry":{"type":"Point","coordinates":[35.23245,47.28398]}},
{"type":"Feature","id":"416062063","properties":{"josm":"w416062063","name":"вул. Жданова","nameuk":"Чапаєва вулиця"},"geometry":{"type":"Point","coordinates":[34.8767,47.02229]}},
{"type":"Feature","id":"416062544","properties":{"josm":"w416062544","name":"вул. Горького","nameuk":"Горького"},"geometry":{"type":"Point","coordinates":[34.89021,47.01435]}},
{"type":"Feature","id":"416784657","properties":{"josm":"w416784657","name":"Калинова  вулиця","nameuk":"Калініна вулиця"},"geometry":{"type":"Point","coordinates":[34.26936,48.48079]}},
{"type":"Feature","id":"417364964","properties":{"josm":"w417364964","name":"Транспортная улица","nameuk":"вулиця Транспортна"},"geometry":{"type":"Point","coordinates":[36.12876,50.113]}},
{"type":"Feature","id":"417364968","properties":{"josm":"w417364968","name":"Борейская улица","nameuk":"вулиця Борейська"},"geometry":{"type":"Point","coordinates":[36.12861,50.11751]}},
{"type":"Feature","id":"417800569","properties":{"josm":"w417800569","name":"Комсомольський (Максименко) провулок","nameuk":"Комсомольський провулок"},"geometry":{"type":"Point","coordinates":[35.14683,49.4588]}},
{"type":"Feature","id":"420209686","properties":{"josm":"w420209686","name":"улица Пушкина","nameuk":"Жданова вулиця"},"geometry":{"type":"Point","coordinates":[34.38017,46.8265]}},
{"type":"Feature","id":"420214232","properties":{"josm":"w420214232","name":"ул. Карла Маркса","nameuk":"Жданова вулиця"},"geometry":{"type":"Point","coordinates":[34.38481,46.83593]}},
{"type":"Feature","id":"420225685","properties":{"josm":"w420225685","name":"ул. Карла Маркса","nameuk":"Жданова вулиця"},"geometry":{"type":"Point","coordinates":[34.38701,46.83955]}},
{"type":"Feature","id":"420792618","properties":{"josm":"w420792618","name":"Кооперативная улица","nameuk":"Кооперативна вулиця"},"geometry":{"type":"Point","coordinates":[35.75516,46.82599]}},
{"type":"Feature","id":"421240763","properties":{"josm":"w421240763","name":"Улица Цыбаня","nameuk":"Вулиця Цибаня"},"geometry":{"type":"Point","coordinates":[32.49182,50.25392]}},
{"type":"Feature","id":"421243907","properties":{"josm":"w421243907","name":"Аврушенко улица","nameuk":"Аврушенка вулиця"},"geometry":{"type":"Point","coordinates":[32.5035,50.25324]}},
{"type":"Feature","id":"421615811","properties":{"josm":"w421615811","name":"Героев труда улица","nameuk":"Героїв труда вулиця"},"geometry":{"type":"Point","coordinates":[35.00794,47.38561]}},
{"type":"Feature","id":"421777500","properties":{"josm":"w421777500","name":"Мира улица","nameuk":"Миру вулиця"},"geometry":{"type":"Point","coordinates":[34.5509,46.71783]}},
{"type":"Feature","id":"422840471","properties":{"josm":"w422840471","name":"Новая улица","nameuk":"Нова вулиця"},"geometry":{"type":"Point","coordinates":[36.22504,48.56591]}},
{"type":"Feature","id":"423497262","properties":{"josm":"w423497262","name":"Шевченко улица","nameuk":"Шевченка вулиця"},"geometry":{"type":"Point","coordinates":[36.20874,48.53847]}},
{"type":"Feature","id":"424436486","properties":{"josm":"w424436486","name":"Молодёжная улица","nameuk":"Молодіжна вулиця"},"geometry":{"type":"Point","coordinates":[36.09378,48.44954]}},
{"type":"Feature","id":"424481144","properties":{"josm":"w424481144","name":"улица Механизаторов ","nameuk":"Механізаторів вулиця"},"geometry":{"type":"Point","coordinates":[33.73648,44.66893]}},
{"type":"Feature","id":"424772339","properties":{"josm":"w424772339","name":"1-й Заорільський провулок","nameuk":"3-й Заорільський провулок"},"geometry":{"type":"Point","coordinates":[34.52027,48.93094]}},
{"type":"Feature","id":"425193249","properties":{"josm":"w425193249","name":"Тихая улица","nameuk":"Тиха вулиця"},"geometry":{"type":"Point","coordinates":[36.08617,48.52721]}},
{"type":"Feature","id":"438380985","properties":{"josm":"w438380985","name":"Грузовой переулок","nameuk":"Грузовий провулок"},"geometry":{"type":"Point","coordinates":[35.1264,50.34951]}},
{"type":"Feature","id":"438381556","properties":{"josm":"w438381556","name":"Железнодорожная улица","nameuk":"Залізнична вулиця"},"geometry":{"type":"Point","coordinates":[35.13022,50.34761]}},