{
"type": "FeatureCollection",
"errorDescr": "Incorrect <b>name</b>-tag value",
"features": [
{"type":"Feature","id":"33762100","properties":{"josm":"w33762100","name":"Лукияна Січинського вулиця","nameuk":"Лукіяна Січинського вулиця"},"geometry":{"type":"Point","coordinates":[23.79938,49.83054]}},
{"type":"Feature","id":"33868373","properties":{"josm":"w33868373","name":"Мирона Тарновського вулиця","nameuk":"Мирона Тарнавського вулиця"},"geometry":{"type":"Point","coordinates":[23.83795,49.83292]}},
{"type":"Feature","id":"38813348","properties":{"josm":"w38813348","name":"Рубанівська вулиця","nameuk":"Клапцова вулиця"},"geometry":{"type":"Point","coordinates":[36.19559,49.98244]}},
{"type":"Feature","id":"42257997","properties":{"josm":"w42257997","name":"Сабарівське шосе","nameuk":"Сабаровське шосе"},"geometry":{"type":"Point","coordinates":[28.43548,49.2082]}},
{"type":"Feature","id":"43513830","properties":{"josm":"w43513830","name":"Совєтська вулиця","nameuk":"Радянська вулиця"},"geometry":{"type":"Point","coordinates":[38.22075,49.04596]}},
{"type":"Feature","id":"108127184","properties":{"josm":"w108127184","name":"Селянська вулиця (15-я линия)","nameuk":"Селянська вулиця"},"geometry":{"type":"Point","coordinates":[30.33725,50.55382]}},
{"type":"Feature","id":"110452945","properties":{"josm":"w110452945","name":"Попова улица","nameuk":"Польова вулиця"},"geometry":{"type":"Point","coordinates":[38.48815,48.04222]}},
{"type":"Feature","id":"132089682","properties":{"josm":"w132089682","name":"Попова улица","nameuk":"Польова вулиця"},"geometry":{"type":"Point","coordinates":[38.48242,48.04322]}},
{"type":"Feature","id":"132416317","properties":{"josm":"w132416317","name":"Червоноармейский переулок","nameuk":"Червоноармійський провулок"},"geometry":{"type":"Point","coordinates":[37.54526,47.94666]}},
{"type":"Feature","id":"135746706","properties":{"josm":"w135746706","name":"Дежнєва вулиця","nameuk":"Дежньова вулиця"},"geometry":{"type":"Point","coordinates":[38.38602,48.93415]}},
{"type":"Feature","id":"148112944","properties":{"josm":"w148112944","name":"Щорса вулиця (стор. пос.Дослідної ст.), Степова ввулиця (стор. с.Вигода)","nameuk":"Щорса вулиця"},"geometry":{"type":"Point","coordinates":[30.39234,46.60883]}},
{"type":"Feature","id":"150431029","properties":{"josm":"w150431029","name":"20 років Міліції вулиця","nameuk":"20 років міліції вулиця"},"geometry":{"type":"Point","coordinates":[32.26616,48.49446]}},
{"type":"Feature","id":"171633340","properties":{"josm":"w171633340","name":"Верхньошевченківський провулок","nameuk":"Верхнешевченківский провулок"},"geometry":{"type":"Point","coordinates":[37.17433,48.41055]}},
{"type":"Feature","id":"177229958","properties":{"josm":"w177229958","name":"Зиґзаґ вулиця","nameuk":"Зигзаг вулиця"},"geometry":{"type":"Point","coordinates":[23.98225,49.83129]}},
{"type":"Feature","id":"188152176","properties":{"josm":"w188152176","name":"Журавлинна вулиця","nameuk":"Журавлина вулиця"},"geometry":{"type":"Point","coordinates":[23.86944,49.83496]}},
{"type":"Feature","id":"210554239","properties":{"josm":"w210554239","name":"Магеллана Ф. вулиця","nameuk":"Магеллана вулиця"},"geometry":{"type":"Point","coordinates":[37.99315,48.06218]}},
{"type":"Feature","id":"260620871","properties":{"josm":"w260620871","name":"лица Фонтанная","nameuk":"Фонтанна вулиця"},"geometry":{"type":"Point","coordinates":[34.73758,45.45191]}},
{"type":"Feature","id":"260647558","properties":{"josm":"w260647558","name":"Коммунальная улица","nameuk":"Комунальна вулиця"},"geometry":{"type":"Point","coordinates":[34.73338,45.44689]}},
{"type":"Feature","id":"272921005","properties":{"josm":"w272921005","name":"Матяхина переулок","nameuk":"Матяхіна провулок"},"geometry":{"type":"Point","coordinates":[34.93156,45.33989]}},
{"type":"Feature","id":"329344725","properties":{"josm":"w329344725","name":"Михайла Грушевського","nameuk":"Михайла Грушевського вулиця"},"geometry":{"type":"Point","coordinates":[23.88352,49.83719]}},
{"type":"Feature","id":"334778269","properties":{"josm":"w334778269","name":"Червоноармейский переулок","nameuk":"Червоноармійський провулок"},"geometry":{"type":"Point","coordinates":[37.54187,47.94707]}},
{"type":"Feature","id":"336559661","properties":{"josm":"w336559661","name":"Горького улица","nameuk":"Горького вулиця"},"geometry":{"type":"Point","coordinates":[38.57684,47.82714]}},
{"type":"Feature","id":"337792156","properties":{"josm":"w337792156","name":"Терешкова","nameuk":"Терешкова вулиця"},"geometry":{"type":"Point","coordinates":[25.84263,48.69351]}},
{"type":"Feature"}
]}
