{
"type": "FeatureCollection",
"errorDescr": "Incorrect <b>name</b>-tag value",
"features": [
{"type":"Feature","id":"17032467","properties":{"josm":"w17032467","name":"Командарма Уборевича вулиця","nameuk":"Бучми вулиця"},"geometry":{"type":"Point","coordinates":[36.34768,50.02981]}},
{"type":"Feature","id":"31526969","properties":{"josm":"w31526969","name":"Измаильская улица","nameuk":"Ізмаїльська вулиця"},"geometry":{"type":"Point","coordinates":[30.69979,46.37175]}},
{"type":"Feature","id":"31526975","properties":{"josm":"w31526975","name":"Институтская улица","nameuk":"Інститутська вулиця"},"geometry":{"type":"Point","coordinates":[30.70066,46.37729]}},
{"type":"Feature","id":"31526977","properties":{"josm":"w31526977","name":"Берёзовая улица","nameuk":"Березова вулиця"},"geometry":{"type":"Point","coordinates":[30.70058,46.38127]}},
{"type":"Feature","id":"31527021","properties":{"josm":"w31527021","name":"Арцизская улица","nameuk":"Арцизька вулиця"},"geometry":{"type":"Point","coordinates":[30.69995,46.37142]}},
{"type":"Feature","id":"33792915","properties":{"josm":"w33792915","name":"Площадь Ленина","nameuk":"Площа Леніна"},"geometry":{"type":"Point","coordinates":[35.25616,48.63399]}},
{"type":"Feature","id":"35169248","properties":{"josm":"w35169248","name":"Димитрова вулиця","nameuk":"Степана Бандери вулиця"},"geometry":{"type":"Point","coordinates":[30.81599,50.51673]}},
{"type":"Feature","id":"35731622","properties":{"josm":"w35731622","name":"Дмитра Майбороди вулиця","nameuk":"Збишка вулиця"},"geometry":{"type":"Point","coordinates":[28.44019,49.23288]}},
{"type":"Feature","id":"38611072","properties":{"josm":"w38611072","name":"Сиреневая улица","nameuk":"Серенева вулиця"},"geometry":{"type":"Point","coordinates":[34.79118,44.83174]}},
{"type":"Feature","id":"39624965","properties":{"josm":"w39624965","name":"Бехтерева вулиця","nameuk":"Бехтерєва вулиця"},"geometry":{"type":"Point","coordinates":[35.18558,48.47181]}},
{"type":"Feature","id":"46332487","properties":{"josm":"w46332487","name":"Агатангела Кримського вулиця","nameuk":"Ленських Подій вулиця"},"geometry":{"type":"Point","coordinates":[28.4409,49.22432]}},
{"type":"Feature","id":"83296600","properties":{"josm":"w83296600","name":"Чонгарский мост","nameuk":"Чонгарський міст"},"geometry":{"type":"Point","coordinates":[34.55253,45.98796]}},
{"type":"Feature","id":"97606345","properties":{"josm":"w97606345","name":"К вулиця","nameuk":"Кримська вулиця"},"geometry":{"type":"Point","coordinates":[36.0368,49.81559]}},
{"type":"Feature","id":"102687592","properties":{"josm":"w102687592","name":"Солікамська вулиця","nameuk":"Соликамская вулиця"},"geometry":{"type":"Point","coordinates":[37.87854,47.98574]}},
{"type":"Feature","id":"106089998","properties":{"josm":"w106089998","name":"11-а Лінія","nameuk":"11-а лінія"},"geometry":{"type":"Point","coordinates":[30.27181,50.54138]}},
{"type":"Feature","id":"106271624","properties":{"josm":"w106271624","name":"Кожедуба улица","nameuk":"Кожедуба вулиця"},"geometry":{"type":"Point","coordinates":[36.68806,49.84178]}},
{"type":"Feature","id":"112682964","properties":{"josm":"w112682964","name":"Желанна вулиця","nameuk":"Бажана вулиця"},"geometry":{"type":"Point","coordinates":[37.60074,47.97009]}},
{"type":"Feature","id":"114522645","properties":{"josm":"w114522645","name":"Хлібодарна вулиця","nameuk":"Хлебодарная вулиця"},"geometry":{"type":"Point","coordinates":[37.77355,48.00927]}},
{"type":"Feature","id":"114523373","properties":{"josm":"w114523373","name":"Хлібодарна вулиця","nameuk":"Хлебодарная вулиця"},"geometry":{"type":"Point","coordinates":[37.77172,48.01348]}},
{"type":"Feature","id":"114523799","properties":{"josm":"w114523799","name":"Хлібодарна вулиця","nameuk":"Хлебодарная вулиця"},"geometry":{"type":"Point","coordinates":[37.76268,48.01411]}},
{"type":"Feature","id":"115554203","properties":{"josm":"w115554203","name":"Юр’єва вулиця","nameuk":"Юрійова вулиця"},"geometry":{"type":"Point","coordinates":[37.80535,48.06259]}},
{"type":"Feature","id":"116569276","properties":{"josm":"w116569276","name":"Юрія Смирнова вулиця","nameuk":"Юрія Смірнова вулиця"},"geometry":{"type":"Point","coordinates":[37.7662,48.02867]}},
{"type":"Feature","id":"122835271","properties":{"josm":"w122835271","name":"Молодежная улица","nameuk":"Молодіжна вулиця"},"geometry":{"type":"Point","coordinates":[38.44755,47.85554]}},
{"type":"Feature","id":"126632935","properties":{"josm":"w126632935","name":"Магнiтогорська вулиця","nameuk":"Магнітогорська вулиця"},"geometry":{"type":"Point","coordinates":[37.5917,48.75062]}},
{"type":"Feature","id":"128976367","properties":{"josm":"w128976367","name":"Коцюбинского","nameuk":"Коцюбинського"},"geometry":{"type":"Point","coordinates":[32.73893,46.68151]}},
{"type":"Feature","id":"129835863","properties":{"josm":"w129835863","name":"Хлібодарна вулиця","nameuk":"Хлебодарная вулиця"},"geometry":{"type":"Point","coordinates":[37.77402,48.00254]}},
{"type":"Feature","id":"134103486","properties":{"josm":"w134103486","name":"Молодежная улица","nameuk":"Молодіжна вулиця"},"geometry":{"type":"Point","coordinates":[37.40126,46.9681]}},
{"type":"Feature","id":"136438191","properties":{"josm":"w136438191","name":"Желанна вулиця","nameuk":"Бажана вулиця"},"geometry":{"type":"Point","coordinates":[37.58953,47.97192]}},
{"type":"Feature","id":"137572047","properties":{"josm":"w137572047","name":"60-лет СССР улица","nameuk":"60 років СРСР вулиця"},"geometry":{"type":"Point","coordinates":[38.08159,47.11838]}},
{"type":"Feature","id":"137572682","properties":{"josm":"w137572682","name":"Молодежная улица","nameuk":"Молодіжна вулиця"},"geometry":{"type":"Point","coordinates":[38.10788,47.11351]}},
{"type":"Feature","id":"145109061","properties":{"josm":"w145109061","name":"Бакинских Комисаров улица","nameuk":"Бакинських Комісарів вулиця"},"geometry":{"type":"Point","coordinates":[38.46601,48.03765]}},
{"type":"Feature","id":"148067325","properties":{"josm":"w148067325","name":"Златопольська вулиця","nameuk":"Златопільська вулиця"},"geometry":{"type":"Point","coordinates":[32.21317,48.48166]}},
{"type":"Feature","id":"148112944","properties":{"josm":"w148112944","name":"Щорса вулиця (стор. пос.Дослідної ст.), Степова ввулиця (стор. с.Вигода)","nameuk":"Щорса вулиця"},"geometry":{"type":"Point","coordinates":[30.39234,46.60883]}},
{"type":"Feature","id":"148586892","properties":{"josm":"w148586892","name":"Чоповського провулок","nameuk":"Чоповського вулиця"},"geometry":{"type":"Point","coordinates":[30.73805,50.69789]}},
{"type":"Feature","id":"155861824","properties":{"josm":"w155861824","name":"ул. Ленина","nameuk":"вул. Леніна"},"geometry":{"type":"Point","coordinates":[30.55065,46.48445]}},
{"type":"Feature","id":"167455343","properties":{"josm":"w167455343","name":"Турунська вулиця","nameuk":"Турунская вулиця"},"geometry":{"type":"Point","coordinates":[37.67136,47.92072]}},
{"type":"Feature","id":"167458567","properties":{"josm":"w167458567","name":"Проїжджа вулиця","nameuk":"Проїздна вулиця"},"geometry":{"type":"Point","coordinates":[37.67472,47.91954]}},
{"type":"Feature","id":"167459059","properties":{"josm":"w167459059","name":"Бринька вулиця","nameuk":"Бринько вулиця"},"geometry":{"type":"Point","coordinates":[37.6785,47.92013]}},
{"type":"Feature","id":"167991159","properties":{"josm":"w167991159","name":"Садова провулок чи вулиця?","nameuk":"Садова провулок"},"geometry":{"type":"Point","coordinates":[33.17754,49.59085]}},
{"type":"Feature","id":"169566576","properties":{"josm":"w169566576","name":"Лип'янська вулиця","nameuk":"Ганни Дмитришиної вулиця"},"geometry":{"type":"Point","coordinates":[26.02729,50.55492]}},
{"type":"Feature","id":"171633340","properties":{"josm":"w171633340","name":"Верхньошевченківський провулок","nameuk":"Верхньошевченківский провулок"},"geometry":{"type":"Point","coordinates":[37.17433,48.41055]}},
{"type":"Feature","id":"175083114","properties":{"josm":"w175083114","name":"Рози Люксембург переулок","nameuk":"Рози Люксембург вулиця"},"geometry":{"type":"Point","coordinates":[38.56009,48.85844]}},
{"type":"Feature","id":"179312419","properties":{"josm":"w179312419","name":"Озерная улица","nameuk":"Озерна вулиця"},"geometry":{"type":"Point","coordinates":[37.98966,48.27831]}},
{"type":"Feature","id":"183317336","properties":{"josm":"w183317336","name":"Гоголя вулиця","nameuk":"Гоголя улица"},"geometry":{"type":"Point","coordinates":[25.83994,48.52131]}},
{"type":"Feature","id":"183666170","properties":{"josm":"w183666170","name":"Скелевая улица","nameuk":"Смирнова вулиця"},"geometry":{"type":"Point","coordinates":[38.47919,47.89175]}},
{"type":"Feature","id":"184292145","properties":{"josm":"w184292145","name":"пер. Гвардейский","nameuk":"пров. Гвардійський"},"geometry":{"type":"Point","coordinates":[28.1182,49.03313]}},
{"type":"Feature","id":"188287368","properties":{"josm":"w188287368","name":"ул. 2-я Сортоиспытательная","nameuk":"вул. 2-я Сортовипробувальна"},"geometry":{"type":"Point","coordinates":[30.56051,46.45858]}},
{"type":"Feature","id":"188287407","properties":{"josm":"w188287407","name":"ул. Черноморская","nameuk":"вул. Чорноморська"},"geometry":{"type":"Point","coordinates":[30.55858,46.45833]}},
{"type":"Feature","id":"188289299","properties":{"josm":"w188289299","name":"ул. Шевченко","nameuk":"вул. Шевченко"},"geometry":{"type":"Point","coordinates":[30.57788,46.44246]}},
{"type":"Feature","id":"200562485","properties":{"josm":"w200562485","name":"Рыночная улица","nameuk":"Ринкова вулиця"},"geometry":{"type":"Point","coordinates":[30.70173,46.38146]}},
{"type":"Feature","id":"200562490","properties":{"josm":"w200562490","name":"Миндальная улица","nameuk":"Мигдальна вулиця"},"geometry":{"type":"Point","coordinates":[30.69308,46.37935]}},
{"type":"Feature","id":"200562493","properties":{"josm":"w200562493","name":"Новосёлов улица","nameuk":"вулиця Новоселів"},"geometry":{"type":"Point","coordinates":[30.69412,46.37952]}},
{"type":"Feature","id":"200763050","properties":{"josm":"w200763050","name":"Южная дорога","nameuk":"Південна дорога"},"geometry":{"type":"Point","coordinates":[30.78038,46.56134]}},
{"type":"Feature","id":"205185203","properties":{"josm":"w205185203","name":"Южная дорога","nameuk":"Південна дорога"},"geometry":{"type":"Point","coordinates":[30.78052,46.56124]}},
{"type":"Feature","id":"210554239","properties":{"josm":"w210554239","name":"Магеллана Ф. вулиця","nameuk":"Магеллана вулиця"},"geometry":{"type":"Point","coordinates":[37.99315,48.06218]}},
{"type":"Feature","id":"221866353","properties":{"josm":"w221866353","name":"Кухарева вулиця","nameuk":"23 Кухарева вулиця"},"geometry":{"type":"Point","coordinates":[31.76853,47.31415]}},
{"type":"Feature","id":"223049158","properties":{"josm":"w223049158","name":"Кобилянської вулиця","nameuk":"Кобилянської Ольги вулиця"},"geometry":{"type":"Point","coordinates":[30.77084,50.51228]}},
{"type":"Feature","id":"226717386","properties":{"josm":"w226717386","name":"Северная улица","nameuk":"Північна вулиця"},"geometry":{"type":"Point","coordinates":[30.69989,46.38299]}},
{"type":"Feature","id":"226717391","properties":{"josm":"w226717391","name":"Ёлочный переулок","nameuk":"Ялинковий провулок"},"geometry":{"type":"Point","coordinates":[30.69794,46.38143]}},
{"type":"Feature","id":"226717393","properties":{"josm":"w226717393","name":"Виноградная улица","nameuk":"Виноградна вулиця"},"geometry":{"type":"Point","coordinates":[30.69926,46.37717]}},
{"type":"Feature","id":"227460040","properties":{"josm":"w227460040","name":"ул. Черноморская","nameuk":"вул. Чорноморська"},"geometry":{"type":"Point","coordinates":[30.5602,46.45419]}},
{"type":"Feature","id":"227460043","properties":{"josm":"w227460043","name":"ул. Профсоюзная","nameuk":"вул. Профспілкова"},"geometry":{"type":"Point","coordinates":[30.56245,46.4524]}},
{"type":"Feature","id":"230593943","properties":{"josm":"w230593943","name":"Балтская улица","nameuk":"Балтська вулиця"},"geometry":{"type":"Point","coordinates":[30.69523,46.36997]}},
{"type":"Feature","id":"230593948","properties":{"josm":"w230593948","name":"Килийская улица","nameuk":"Кілійська вулиця"},"geometry":{"type":"Point","coordinates":[30.70155,46.37415]}},
{"type":"Feature","id":"230593954","properties":{"josm":"w230593954","name":"Кодымская улица","nameuk":"Кодимська вулиця"},"geometry":{"type":"Point","coordinates":[30.69659,46.37378]}},
{"type":"Feature","id":"251255495","properties":{"josm":"w251255495","name":"Зелёная улица","nameuk":"Зелена вулиця"},"geometry":{"type":"Point","coordinates":[33.3093,51.7711]}},
{"type":"Feature","id":"260620816","properties":{"josm":"w260620816","name":"улица Матросова","nameuk":"Матросова вулиця"},"geometry":{"type":"Point","coordinates":[34.74448,45.44781]}},
{"type":"Feature","id":"260620840","properties":{"josm":"w260620840","name":"улица Матросова","nameuk":"Матросова вулиця"},"geometry":{"type":"Point","coordinates":[34.74344,45.4481]}},
{"type":"Feature","id":"260620841","properties":{"josm":"w260620841","name":"улица Матросова","nameuk":"Матросова вулиця"},"geometry":{"type":"Point","coordinates":[34.74159,45.44861]}},
{"type":"Feature","id":"260620851","properties":{"josm":"w260620851","name":"улица Матросова","nameuk":"Матросова вулиця"},"geometry":{"type":"Point","coordinates":[34.73895,45.44863]}},
{"type":"Feature","id":"262721205","properties":{"josm":"w262721205","name":"Чайкиної вулиця","nameuk":"Чайкіної вулиця"},"geometry":{"type":"Point","coordinates":[37.52005,47.5843]}},
{"type":"Feature","id":"268115760","properties":{"josm":"w268115760","name":"Златопольська вулиця","nameuk":"Златопільська вулиця"},"geometry":{"type":"Point","coordinates":[32.21048,48.48023]}},
{"type":"Feature","id":"268115762","properties":{"josm":"w268115762","name":"Златопольська вулиця","nameuk":"Златопільська вулиця"},"geometry":{"type":"Point","coordinates":[32.20853,48.47917]}},
{"type":"Feature","id":"272921005","properties":{"josm":"w272921005","name":"Матяхина переулок","nameuk":"Матяхіна провулок"},"geometry":{"type":"Point","coordinates":[34.93156,45.33989]}},
{"type":"Feature","id":"279537294","properties":{"josm":"w279537294","name":"Бринька вулиця","nameuk":"Бринько вулиця"},"geometry":{"type":"Point","coordinates":[37.67722,47.91895]}},
{"type":"Feature","id":"294654872","properties":{"josm":"w294654872","name":"Катовицька вулиця","nameuk":"Катовіцька вулиця"},"geometry":{"type":"Point","coordinates":[37.66677,47.93108]}},
{"type":"Feature","id":"294813883","properties":{"josm":"w294813883","name":"Черняхівського вулиця","nameuk":"Черняховського вулиця"},"geometry":{"type":"Point","coordinates":[38.01292,48.3559]}},
{"type":"Feature","id":"295281340","properties":{"josm":"w295281340","name":"Чкалова улица","nameuk":"Садова вулиця"},"geometry":{"type":"Point","coordinates":[30.24314,46.44675]}},
{"type":"Feature","id":"295281345","properties":{"josm":"w295281345","name":"Кирова улица","nameuk":"Кірова вулиця"},"geometry":{"type":"Point","coordinates":[30.24169,46.44629]}},
{"type":"Feature","id":"300862645","properties":{"josm":"w300862645","name":"Молодежная улица","nameuk":"Молодіжна вулиця"},"geometry":{"type":"Point","coordinates":[37.39127,47.23169]}},
{"type":"Feature","id":"304386665","properties":{"josm":"w304386665","name":"Молодежная улица","nameuk":"Молодіжна вулиця"},"geometry":{"type":"Point","coordinates":[38.07073,47.67644]}},
{"type":"Feature","id":"304386676","properties":{"josm":"w304386676","name":"Молодежная улица","nameuk":"Молодіжна вулиця"},"geometry":{"type":"Point","coordinates":[38.07138,47.67776]}},
{"type":"Feature","id":"310369533","properties":{"josm":"w310369533","name":"Фіалковського вулиця","nameuk":"Фіалковського"},"geometry":{"type":"Point","coordinates":[30.75519,50.50259]}},
{"type":"Feature","id":"315917350","properties":{"josm":"w315917350","name":"ул. Шевченко","nameuk":"вул. Шевченко"},"geometry":{"type":"Point","coordinates":[30.57709,46.44972]}},
{"type":"Feature","id":"315917992","properties":{"josm":"w315917992","name":"ул. Шевченко","nameuk":"вул. Шевченко"},"geometry":{"type":"Point","coordinates":[30.5795,46.43511]}},
{"type":"Feature","id":"333432096","properties":{"josm":"w333432096","name":"Молодежная улица","nameuk":"Молодіжна вулиця"},"geometry":{"type":"Point","coordinates":[38.07158,47.67763]}},
{"type":"Feature","id":"335392530","properties":{"josm":"w335392530","name":"Молодежная улица","nameuk":"Молодіжна вулиця"},"geometry":{"type":"Point","coordinates":[37.17476,47.98792]}},
{"type":"Feature","id":"335976624","properties":{"josm":"w335976624","name":"Молодежная улица","nameuk":"Молодіжна вулиця"},"geometry":{"type":"Point","coordinates":[38.94028,47.92131]}},
{"type":"Feature","id":"336116218","properties":{"josm":"w336116218","name":"Озерная улица","nameuk":"Озерна вулиця"},"geometry":{"type":"Point","coordinates":[37.44875,48.57493]}},
{"type":"Feature","id":"336121459","properties":{"josm":"w336121459","name":"Дальний переулок","nameuk":"Дальній провулок"},"geometry":{"type":"Point","coordinates":[30.69628,46.38128]}},
{"type":"Feature","id":"336603463","properties":{"josm":"w336603463","name":"Молодежная улица","nameuk":"Молодіжна вулиця"},"geometry":{"type":"Point","coordinates":[38.17663,47.94606]}},
{"type":"Feature","id":"374272283","properties":{"josm":"w374272283","name":"Зелёная улица","nameuk":"Зелена вулиця"},"geometry":{"type":"Point","coordinates":[33.30219,51.76598]}},
{"type":"Feature","id":"374272911","properties":{"josm":"w374272911","name":"Зелёная улица","nameuk":"Зелена вулиця"},"geometry":{"type":"Point","coordinates":[33.30461,51.76865]}},
{"type":"Feature","id":"385081504","properties":{"josm":"w385081504","name":"Ударников улица","nameuk":"Ударників вулиця"},"geometry":{"type":"Point","coordinates":[34.98765,48.48583]}},
{"type":"Feature"}
]}
