{
"type": "FeatureCollection",
"errorDescr": "Incorrect <b>name</b>-tag value",
"features": [
{"type":"Feature","id":"27954936","properties":{"josm":"w27954936","name":"улица Ерошенко","nameuk":"Єрошенка вулиця"},"geometry":{"type":"Point","coordinates":[33.49165,44.6044]}},
{"type":"Feature","id":"33762100","properties":{"josm":"w33762100","name":"Лукияна Січинського вулиця","nameuk":"Лукіяна Січинського вулиця"},"geometry":{"type":"Point","coordinates":[23.79938,49.83054]}},
{"type":"Feature","id":"42257997","properties":{"josm":"w42257997","name":"Сабарівське шосе","nameuk":"Сабаровське шосе"},"geometry":{"type":"Point","coordinates":[28.43548,49.2082]}},
{"type":"Feature","id":"76858025","properties":{"josm":"w76858025","name":"1-я линия","nameuk":"1-а лінія"},"geometry":{"type":"Point","coordinates":[30.81517,50.61811]}},
{"type":"Feature","id":"76858269","properties":{"josm":"w76858269","name":"2-я линия","nameuk":"2-а лінія"},"geometry":{"type":"Point","coordinates":[30.81434,50.61843]}},
{"type":"Feature","id":"97596233","properties":{"josm":"w97596233","name":"Николаева улица","nameuk":"Ніколаєва вулиця"},"geometry":{"type":"Point","coordinates":[36.1462,50.17542]}},
{"type":"Feature","id":"108127184","properties":{"josm":"w108127184","name":"Селянська вулиця (15-я линия)","nameuk":"Селянська вулиця"},"geometry":{"type":"Point","coordinates":[30.33725,50.55382]}},
{"type":"Feature","id":"115916355","properties":{"josm":"w115916355","name":"Береговая улица","nameuk":"Берегова вулиця"},"geometry":{"type":"Point","coordinates":[30.33378,46.49837]}},
{"type":"Feature","id":"135746706","properties":{"josm":"w135746706","name":"Дежнєва вулиця","nameuk":"Дежньова вулиця"},"geometry":{"type":"Point","coordinates":[38.38602,48.93415]}},
{"type":"Feature","id":"148112944","properties":{"josm":"w148112944","name":"Щорса вулиця (стор. пос.Дослідної ст.), Степова ввулиця (стор. с.Вигода)","nameuk":"Щорса вулиця"},"geometry":{"type":"Point","coordinates":[30.39234,46.60883]}},
{"type":"Feature","id":"150431029","properties":{"josm":"w150431029","name":"20 років Міліції вулиця","nameuk":"20 років міліції вулиця"},"geometry":{"type":"Point","coordinates":[32.26616,48.49446]}},
{"type":"Feature","id":"153315417","properties":{"josm":"w153315417","name":"Тараса Шевченка вулиця","nameuk":"Шевченка"},"geometry":{"type":"Point","coordinates":[23.35489,49.22104]}},
{"type":"Feature","id":"155861824","properties":{"josm":"w155861824","name":"ул. Ленина","nameuk":"вул. Леніна"},"geometry":{"type":"Point","coordinates":[30.55065,46.48445]}},
{"type":"Feature","id":"171633340","properties":{"josm":"w171633340","name":"Верхньошевченківський провулок","nameuk":"Верхнешевченківский провулок"},"geometry":{"type":"Point","coordinates":[37.17433,48.41055]}},
{"type":"Feature","id":"177229958","properties":{"josm":"w177229958","name":"Зиґзаґ вулиця","nameuk":"Зигзаг вулиця"},"geometry":{"type":"Point","coordinates":[23.98225,49.83129]}},
{"type":"Feature","id":"188152176","properties":{"josm":"w188152176","name":"Журавлинна вулиця","nameuk":"Журавлина вулиця"},"geometry":{"type":"Point","coordinates":[23.86944,49.83496]}},
{"type":"Feature","id":"188287368","properties":{"josm":"w188287368","name":"ул. 2-я Сортоиспытательная","nameuk":"вул. 2-я Сортовипробувальна"},"geometry":{"type":"Point","coordinates":[30.56051,46.45858]}},
{"type":"Feature","id":"188287407","properties":{"josm":"w188287407","name":"ул. Черноморская","nameuk":"вул. Чорноморська"},"geometry":{"type":"Point","coordinates":[30.55858,46.45833]}},
{"type":"Feature","id":"188289299","properties":{"josm":"w188289299","name":"ул. Шевченко","nameuk":"вул. Шевченко"},"geometry":{"type":"Point","coordinates":[30.57788,46.44246]}},
{"type":"Feature","id":"210554239","properties":{"josm":"w210554239","name":"Магеллана Ф. вулиця","nameuk":"Магеллана вулиця"},"geometry":{"type":"Point","coordinates":[37.99315,48.06218]}},
{"type":"Feature","id":"220543980","properties":{"josm":"w220543980","name":"Hegy utca","nameuk":"Гірська вулиця"},"geometry":{"type":"Point","coordinates":[22.67743,48.34111]}},
{"type":"Feature","id":"227460040","properties":{"josm":"w227460040","name":"ул. Черноморская","nameuk":"вул. Чорноморська"},"geometry":{"type":"Point","coordinates":[30.5602,46.45419]}},
{"type":"Feature","id":"227460043","properties":{"josm":"w227460043","name":"ул. Профсоюзная","nameuk":"вул. Профспілкова"},"geometry":{"type":"Point","coordinates":[30.56245,46.4524]}},
{"type":"Feature","id":"246785143","properties":{"josm":"w246785143","name":"Béke utca","nameuk":"Миру вулиця"},"geometry":{"type":"Point","coordinates":[22.75757,48.16324]}},
{"type":"Feature","id":"246802439","properties":{"josm":"w246802439","name":"Erdő utca","nameuk":"Лісова вулиця"},"geometry":{"type":"Point","coordinates":[22.72179,48.12813]}},
{"type":"Feature","id":"246802477","properties":{"josm":"w246802477","name":"Béke utca","nameuk":"Миру вулиця"},"geometry":{"type":"Point","coordinates":[22.71738,48.12355]}},
{"type":"Feature","id":"246802486","properties":{"josm":"w246802486","name":"Erdő utca","nameuk":"Лісова вулиця"},"geometry":{"type":"Point","coordinates":[22.72371,48.12745]}},
{"type":"Feature","id":"263736875","properties":{"josm":"w263736875","name":"Sport út","nameuk":"Спортивна вулиця"},"geometry":{"type":"Point","coordinates":[22.39319,48.42632]}},
{"type":"Feature","id":"291438576","properties":{"josm":"w291438576","name":"улица Дмитрия Ульянова","nameuk":"Дмитра Ульянова вулиця"},"geometry":{"type":"Point","coordinates":[33.49367,44.60429]}},
{"type":"Feature","id":"315917350","properties":{"josm":"w315917350","name":"ул. Шевченко","nameuk":"вул. Шевченко"},"geometry":{"type":"Point","coordinates":[30.57709,46.44972]}},
{"type":"Feature","id":"315917992","properties":{"josm":"w315917992","name":"ул. Шевченко","nameuk":"вул. Шевченко"},"geometry":{"type":"Point","coordinates":[30.5795,46.43511]}},
{"type":"Feature"}
]}
