{
"type": "FeatureCollection",
"errorDescr": "Incorrect <b>name</b>-tag value",
"features": [
{"type":"Feature","id":"23549668","properties":{"josm":"w23549668","name":"Соборний проспект","nameuk":"Вознесенівський узвіз"},"geometry":{"type":"Point","coordinates":[35.14774,47.83434]}},
{"type":"Feature","id":"23746914","properties":{"josm":"w23746914","name":"Кузинський міст","nameuk":"Озерянська вулиця"},"geometry":{"type":"Point","coordinates":[36.20181,49.99719]}},
{"type":"Feature","id":"28472062","properties":{"josm":"w28472062","name":"Щёлкина улица","nameuk":"Щолкіна вулиця"},"geometry":{"type":"Point","coordinates":[35.82334,45.42965]}},
{"type":"Feature","id":"28486564","properties":{"josm":"w28486564","name":"аллея №2","nameuk":"алея №1"},"geometry":{"type":"Point","coordinates":[35.82048,45.43057]}},
{"type":"Feature","id":"29371269","properties":{"josm":"w29371269","name":"M4 – Граница с Украиной","nameuk":"M4 – кордон з Україною"},"geometry":{"type":"Point","coordinates":[29.11512,47.533]}},
{"type":"Feature","id":"29454086","properties":{"josm":"w29454086","name":"M4-Граница с Украиной","nameuk":"M4-кордон з Україною"},"geometry":{"type":"Point","coordinates":[28.90224,47.95107]}},
{"type":"Feature","id":"34203129","properties":{"josm":"w34203129","name":"Копиловська вулиця","nameuk":"Першої Маївки вулиця"},"geometry":{"type":"Point","coordinates":[36.2085,50.00102]}},
{"type":"Feature","id":"34572702","properties":{"josm":"w34572702","name":"Калиновий провулок","nameuk":"Вишневий провулок"},"geometry":{"type":"Point","coordinates":[36.20883,50.03467]}},
{"type":"Feature","id":"34572897","properties":{"josm":"w34572897","name":"Шарівський провулок","nameuk":"Спортивна вулиця"},"geometry":{"type":"Point","coordinates":[36.157,49.9808]}},
{"type":"Feature","id":"34679755","properties":{"josm":"w34679755","name":"Терихівська вулиця","nameuk":"Скорохода вулиця"},"geometry":{"type":"Point","coordinates":[36.18191,49.99515]}},
{"type":"Feature","id":"34839561","properties":{"josm":"w34839561","name":"Стара Озерянка вулиця","nameuk":"Аральська вулиця"},"geometry":{"type":"Point","coordinates":[36.33507,50.04493]}},
{"type":"Feature","id":"37718518","properties":{"josm":"w37718518","name":"Орджонікідзе вулица","nameuk":"Орджонікідзе вулиця"},"geometry":{"type":"Point","coordinates":[33.50505,44.59062]}},
{"type":"Feature","id":"39273509","properties":{"josm":"w39273509","name":"Розы Люксембург улица","nameuk":"Рози Люксембург вулиця"},"geometry":{"type":"Point","coordinates":[33.54284,44.60959]}},
{"type":"Feature","id":"42976870","properties":{"josm":"w42976870","name":"Щёлкина улица","nameuk":"Щолкіна вулиця"},"geometry":{"type":"Point","coordinates":[35.82638,45.4275]}},
{"type":"Feature","id":"52500708","properties":{"josm":"w52500708","name":"Тещин язык","nameuk":"Тещин язик"},"geometry":{"type":"Point","coordinates":[35.18806,47.81729]}},
{"type":"Feature","id":"57989472","properties":{"josm":"w57989472","name":"Podul Prieteniei","nameuk":"Дружба міст"},"geometry":{"type":"Point","coordinates":[27.78948,48.44349]}},
{"type":"Feature","id":"67218886","properties":{"josm":"w67218886","name":"МІжозерна вулиця","nameuk":"Міжозерна вулиця"},"geometry":{"type":"Point","coordinates":[30.61595,50.36514]}},
{"type":"Feature","id":"71865992","properties":{"josm":"w71865992","name":"Братьев Айвазовских","nameuk":"Братів Айвазовських вулиця"},"geometry":{"type":"Point","coordinates":[34.13894,44.9848]}},
{"type":"Feature","id":"77180061","properties":{"josm":"w77180061","name":"Князя Святослава вулиця","nameuk":"Островського вулиця"},"geometry":{"type":"Point","coordinates":[31.45865,49.73683]}},
{"type":"Feature","id":"86463430","properties":{"josm":"w86463430","name":"Терихівська вулиця","nameuk":"Скорохода вулиця"},"geometry":{"type":"Point","coordinates":[36.18417,49.99402]}},
{"type":"Feature","id":"96170403","properties":{"josm":"w96170403","name":"улица","nameuk":"Брянська вулиця"},"geometry":{"type":"Point","coordinates":[34.30125,45.0426]}},
{"type":"Feature","id":"96330098","properties":{"josm":"w96330098","name":"Тенистая улица","nameuk":"Промисловий провулок"},"geometry":{"type":"Point","coordinates":[33.86362,45.71902]}},
{"type":"Feature","id":"98413770","properties":{"josm":"w98413770","name":"Верхне-Продольная улица","nameuk":"Верхньоподовжня вулиця"},"geometry":{"type":"Point","coordinates":[33.61889,45.1126]}},
{"type":"Feature","id":"100604217","properties":{"josm":"w100604217","name":"улица Куприна","nameuk":"Рубцова вулиця"},"geometry":{"type":"Point","coordinates":[33.6017,44.49859]}},
{"type":"Feature","id":"100991460","properties":{"josm":"w100991460","name":"Кузнечная вулиця","nameuk":"Кузнечна вулиця"},"geometry":{"type":"Point","coordinates":[30.43905,50.63331]}},
{"type":"Feature","id":"101248203","properties":{"josm":"w101248203","name":"улица Вели Ибрагимова","nameuk":"Велі Ібрагімова вулиця"},"geometry":{"type":"Point","coordinates":[33.87062,44.74094]}},
{"type":"Feature","id":"101325196","properties":{"josm":"w101325196","name":"Гайова вулиця","nameuk":"Гайдара вулиця"},"geometry":{"type":"Point","coordinates":[38.2348,49.04595]}},
{"type":"Feature","id":"104134992","properties":{"josm":"w104134992","name":"улица Космонавта Волкова","nameuk":"Вінницька вулиця"},"geometry":{"type":"Point","coordinates":[33.64679,44.58403]}},
{"type":"Feature","id":"106292883","properties":{"josm":"w106292883","name":"Слобожанская улица","nameuk":"Слобожанська вулиця"},"geometry":{"type":"Point","coordinates":[36.11834,49.88965]}},
{"type":"Feature","id":"106549356","properties":{"josm":"w106549356","name":"улица Полины Осипенко","nameuk":"Поліни Осипенко вулиця"},"geometry":{"type":"Point","coordinates":[36.44104,45.30282]}},
{"type":"Feature","id":"107972062","properties":{"josm":"w107972062","name":"улица Ашик Умера","nameuk":"Ашик Умера вулиця"},"geometry":{"type":"Point","coordinates":[34.9942,44.84843]}},
{"type":"Feature","id":"108539169","properties":{"josm":"w108539169","name":"Бедненко улица","nameuk":"Бедненко набережна"},"geometry":{"type":"Point","coordinates":[34.5973,44.77039]}},
{"type":"Feature","id":"108539180","properties":{"josm":"w108539180","name":"Новосёлов улица","nameuk":"Новоселів вулиця"},"geometry":{"type":"Point","coordinates":[34.59126,44.7733]}},
{"type":"Feature","id":"110359328","properties":{"josm":"w110359328","name":"улица Игнатенко","nameuk":"Графський проїзд"},"geometry":{"type":"Point","coordinates":[34.17059,44.49676]}},
{"type":"Feature","id":"117903194","properties":{"josm":"w117903194","name":"Кленовий провулок","nameuk":"Суворова вулиця"},"geometry":{"type":"Point","coordinates":[34.36991,48.55028]}},
{"type":"Feature","id":"118564748","properties":{"josm":"w118564748","name":"4-а Садова вулиця","nameuk":"1-а Лісова вулиця"},"geometry":{"type":"Point","coordinates":[30.28428,50.25915]}},
{"type":"Feature","id":"118815573","properties":{"josm":"w118815573","name":"Хрустальний переулок","nameuk":"Хрустальний провулок"},"geometry":{"type":"Point","coordinates":[37.86369,48.04667]}},
{"type":"Feature","id":"119438235","properties":{"josm":"w119438235","name":"Весёлый тупик","nameuk":"Веселий тупик"},"geometry":{"type":"Point","coordinates":[36.09454,49.88005]}},
{"type":"Feature","id":"119438300","properties":{"josm":"w119438300","name":"Слесарный переулок","nameuk":"Слюсарний провулок"},"geometry":{"type":"Point","coordinates":[36.11262,49.89658]}},
{"type":"Feature","id":"120547614","properties":{"josm":"w120547614","name":"переулок Степной","nameuk":"Черняховського провулок"},"geometry":{"type":"Point","coordinates":[36.57243,45.35199]}},
{"type":"Feature","id":"122460153","properties":{"josm":"w122460153","name":"Веселкова вулиця","nameuk":"Ворошилова вулиця"},"geometry":{"type":"Point","coordinates":[39.22246,48.73511]}},
{"type":"Feature","id":"127023719","properties":{"josm":"w127023719","name":"Друга Галатовка вулиця","nameuk":"Коротка вулиця"},"geometry":{"type":"Point","coordinates":[34.32508,48.6511]}},
{"type":"Feature","id":"127025648","properties":{"josm":"w127025648","name":"Дніпровська вулиця","nameuk":"Крупської вулиця"},"geometry":{"type":"Point","coordinates":[34.32211,48.65072]}},
{"type":"Feature","id":"127029394","properties":{"josm":"w127029394","name":"Львівська вулиця","nameuk":"Морська вулиця"},"geometry":{"type":"Point","coordinates":[34.31745,48.6512]}},
{"type":"Feature","id":"127029395","properties":{"josm":"w127029395","name":"Верхньодніпровська вулиця","nameuk":"Харківська вулиця"},"geometry":{"type":"Point","coordinates":[34.31753,48.65012]}},
{"type":"Feature","id":"127029399","properties":{"josm":"w127029399","name":"Галатовський провулок","nameuk":"Базарна вулиця"},"geometry":{"type":"Point","coordinates":[34.32656,48.65062]}},
{"type":"Feature","id":"127670675","properties":{"josm":"w127670675","name":"Горяна вулиця","nameuk":"Горянська вулиця"},"geometry":{"type":"Point","coordinates":[34.31496,48.54109]}},
{"type":"Feature","id":"130569711","properties":{"josm":"w130569711","name":"Приозёрная улица 43","nameuk":"Приозерна вулиця"},"geometry":{"type":"Point","coordinates":[35.4392,45.1]}},
{"type":"Feature","id":"131751075","properties":{"josm":"w131751075","name":"Кооперативная улица","nameuk":"Елеваторна вулиця"},"geometry":{"type":"Point","coordinates":[34.28975,45.48976]}},
{"type":"Feature","id":"131860045","properties":{"josm":"w131860045","name":"Соняшникова вулиця","nameuk":"Балашівська вулиця"},"geometry":{"type":"Point","coordinates":[38.36616,48.94954]}},
{"type":"Feature","id":"132277339","properties":{"josm":"w132277339","name":"Артемівська вулиця","nameuk":"Бахмутська вулиця"},"geometry":{"type":"Point","coordinates":[37.69152,48.54374]}},
{"type":"Feature","id":"134690294","properties":{"josm":"w134690294","name":"Соняшникова вулиця","nameuk":"Балашівська вулиця"},"geometry":{"type":"Point","coordinates":[38.36767,48.94871]}},
{"type":"Feature","id":"135196195","properties":{"josm":"w135196195","name":"Мостова вулиця","nameuk":"Слизкоухого вулиця"},"geometry":{"type":"Point","coordinates":[34.31372,48.65874]}},
{"type":"Feature","id":"135459425","properties":{"josm":"w135459425","name":"Шкільний провулок","nameuk":"Гоголя вулиця"},"geometry":{"type":"Point","coordinates":[34.29189,48.65689]}},
{"type":"Feature","id":"136199617","properties":{"josm":"w136199617","name":"Маяковського провулок","nameuk":"Маяковського вулиця"},"geometry":{"type":"Point","coordinates":[38.43244,48.91899]}},
{"type":"Feature","id":"136240219","properties":{"josm":"w136240219","name":"Носаль Є. І. вулиця","nameuk":"Носаль вулиця"},"geometry":{"type":"Point","coordinates":[35.29515,47.37319]}},
{"type":"Feature","id":"142456424","properties":{"josm":"w142456424","name":"Переможний провулок","nameuk":"Привокзальна вулиця"},"geometry":{"type":"Point","coordinates":[34.37849,48.55418]}},
{"type":"Feature","id":"143766909","properties":{"josm":"w143766909","name":"Молодежная","nameuk":"Польова вулиця"},"geometry":{"type":"Point","coordinates":[33.60582,45.14944]}},
{"type":"Feature","id":"143769863","properties":{"josm":"w143769863","name":"улица Челеби-Джихана","nameuk":"Челебі Джихана вулиця"},"geometry":{"type":"Point","coordinates":[33.62767,45.1429]}},
{"type":"Feature","id":"147689465","properties":{"josm":"w147689465","name":"Комарова переулок","nameuk":"Комарова провулок"},"geometry":{"type":"Point","coordinates":[36.34464,49.66865]}},
{"type":"Feature","id":"151407092","properties":{"josm":"w151407092","name":"Придніпровська вулиця","nameuk":"Темпівська вулиця"},"geometry":{"type":"Point","coordinates":[34.88612,48.52504]}},
{"type":"Feature","id":"152450576","properties":{"josm":"w152450576","name":"Гагарина вулиця","nameuk":"Гагаріна вулиця"},"geometry":{"type":"Point","coordinates":[38.02482,47.41109]}},
{"type":"Feature","id":"162818480","properties":{"josm":"w162818480","name":"Щаслива вулиця","nameuk":"Красноармійська вулиця"},"geometry":{"type":"Point","coordinates":[34.47238,48.57655]}},
{"type":"Feature","id":"162818482","properties":{"josm":"w162818482","name":"Щаслива вулиця","nameuk":"Красноармійська вулиця"},"geometry":{"type":"Point","coordinates":[34.47235,48.58008]}},
{"type":"Feature","id":"164425286","properties":{"josm":"w164425286","name":"Незалежності майдан","nameuk":"Майдан Незалежності"},"geometry":{"type":"Point","coordinates":[25.85005,51.34735]}},
{"type":"Feature","id":"165194760","properties":{"josm":"w165194760","name":"улица Степана Разина","nameuk":"1-го Травня вулиця"},"geometry":{"type":"Point","coordinates":[36.53493,45.35912]}},
{"type":"Feature","id":"166898206","properties":{"josm":"w166898206","name":"Андрія Борулі вулиця","nameuk":"Andriy Borula street"},"geometry":{"type":"Point","coordinates":[26.50339,48.50409]}},
{"type":"Feature","id":"168460300","properties":{"josm":"w168460300","name":"Незалежності майдан","nameuk":"Майдан Незалежності"},"geometry":{"type":"Point","coordinates":[25.8494,51.34865]}},
{"type":"Feature","id":"168727056","properties":{"josm":"w168727056","name":"улица Валиуллы Муртазаева","nameuk":"Валіулли Муртазаєва вулиця"},"geometry":{"type":"Point","coordinates":[33.86485,44.73724]}},
{"type":"Feature","id":"178852477","properties":{"josm":"w178852477","name":"Червонопрапорна вулиця","nameuk":"Медова вулиця"},"geometry":{"type":"Point","coordinates":[37.99951,48.57368]}},
{"type":"Feature","id":"181264317","properties":{"josm":"w181264317","name":"Ванди Біневськой провулок","nameuk":"Джерельний провулок"},"geometry":{"type":"Point","coordinates":[36.35264,49.97136]}},
{"type":"Feature","id":"184965916","properties":{"josm":"w184965916","name":"Чаадаева въезд","nameuk":"Чаадаєва в'їзд"},"geometry":{"type":"Point","coordinates":[36.15583,49.92505]}},
{"type":"Feature","id":"190055919","properties":{"josm":"w190055919","name":"Соломії Крушельницької вулиця (Войкова)","nameuk":"Соломії Крушельницької вулиця"},"geometry":{"type":"Point","coordinates":[37.51876,48.7321]}},
{"type":"Feature","id":"193152518","properties":{"josm":"w193152518","name":"Свято-Покровська вулиця","nameuk":"Чернівецька вулиця"},"geometry":{"type":"Point","coordinates":[26.4787,48.49587]}},
{"type":"Feature","id":"205144613","properties":{"josm":"w205144613","name":"Красносільська вулиця","nameuk":"Степова вулиця"},"geometry":{"type":"Point","coordinates":[30.76927,46.57225]}},
{"type":"Feature","id":"205185209","properties":{"josm":"w205185209","name":"Мелітопольска вулиця","nameuk":"Жоліо Кюрі вулиця"},"geometry":{"type":"Point","coordinates":[30.7731,46.56735]}},
{"type":"Feature","id":"205186147","properties":{"josm":"w205186147","name":"13-а Суворівська вулиця","nameuk":"12-а Суворівська вулиця"},"geometry":{"type":"Point","coordinates":[30.77652,46.57341]}},
{"type":"Feature","id":"205955545","properties":{"josm":"w205955545","name":"улица Маламута Муссы","nameuk":"Маламута Мусси вулиця"},"geometry":{"type":"Point","coordinates":[35.19483,45.18246]}},
{"type":"Feature","id":"206663187","properties":{"josm":"w206663187","name":"Светлый переулок","nameuk":"Бузкова вулиця"},"geometry":{"type":"Point","coordinates":[33.34098,45.21787]}},
{"type":"Feature","id":"208190722","properties":{"josm":"w208190722","name":"Незалежності майдан","nameuk":"Майдан Незалежності"},"geometry":{"type":"Point","coordinates":[25.84882,51.34949]}},
{"type":"Feature","id":"209027701","properties":{"josm":"w209027701","name":"23-ша Лінія вулиця","nameuk":"21-ша Лінія вулиця"},"geometry":{"type":"Point","coordinates":[31.91172,46.96248]}},
{"type":"Feature","id":"209027712","properties":{"josm":"w209027712","name":"22-га Лінія вулиця","nameuk":"21-ша Лінія вулиця"},"geometry":{"type":"Point","coordinates":[31.91299,46.96505]}},
{"type":"Feature","id":"215256557","properties":{"josm":"w215256557","name":"Николаева","nameuk":"Ніколаева"},"geometry":{"type":"Point","coordinates":[28.92806,47.97793]}},
{"type":"Feature","id":"215256560","properties":{"josm":"w215256560","name":"Грушевского вулиця","nameuk":"Грушевського вулиця"},"geometry":{"type":"Point","coordinates":[28.92848,47.9814]}},
{"type":"Feature","id":"215256565","properties":{"josm":"w215256565","name":"Б. Колесника","nameuk":"Б. Колесніка"},"geometry":{"type":"Point","coordinates":[28.92539,47.99211]}},
{"type":"Feature","id":"215256566","properties":{"josm":"w215256566","name":"Мичурина","nameuk":"Мічуріна вулиця"},"geometry":{"type":"Point","coordinates":[28.93456,47.99823]}},
{"type":"Feature","id":"215256569","properties":{"josm":"w215256569","name":"Терешковой","nameuk":"Терешкової вулиця"},"geometry":{"type":"Point","coordinates":[28.93131,47.99622]}},
{"type":"Feature","id":"215256570","properties":{"josm":"w215256570","name":"Леси Украинки","nameuk":"Лесі Українки вулиця"},"geometry":{"type":"Point","coordinates":[28.91973,47.99215]}},
{"type":"Feature","id":"223216626","properties":{"josm":"w223216626","name":"улица Мусы Мамута","nameuk":"Муси Мамута вулиця"},"geometry":{"type":"Point","coordinates":[33.99424,44.79057]}},
{"type":"Feature","id":"223346705","properties":{"josm":"w223346705","name":"улица Мусы Мамута","nameuk":"Муси Мамута вулиця"},"geometry":{"type":"Point","coordinates":[33.99439,44.79006]}},
{"type":"Feature","id":"224212382","properties":{"josm":"w224212382","name":"№1 провулок","nameuk":"№2 провулок"},"geometry":{"type":"Point","coordinates":[38.64343,48.14672]}},
{"type":"Feature","id":"224747271","properties":{"josm":"w224747271","name":"улица Симиренко","nameuk":"Симеренка вулиця"},"geometry":{"type":"Point","coordinates":[34.86838,45.27785]}},
{"type":"Feature","id":"225931419","properties":{"josm":"w225931419","name":"улица Шевченко","nameuk":"Шевченка вулиця"},"geometry":{"type":"Point","coordinates":[33.99461,44.78689]}},
{"type":"Feature","id":"227823236","properties":{"josm":"w227823236","name":"Кабаний перевал","nameuk":"Голубинка — Передове — Широке"},"geometry":{"type":"Point","coordinates":[33.85137,44.52127]}},
{"type":"Feature","id":"227823236","properties":{"josm":"w227823236","name":"Кабаний перевал","nameuk":"Голубинка — Передове — Широке"},"geometry":{"type":"Point","coordinates":[33.85137,44.52127]}},
{"type":"Feature","id":"228997249","properties":{"josm":"w228997249","name":"Слобідська вулиця","nameuk":"Колгоспна вулиця"},"geometry":{"type":"Point","coordinates":[27.39978,49.44295]}},
{"type":"Feature","id":"230102083","properties":{"josm":"w230102083","name":"улица Николаева","nameuk":"Фрунзе вулиця"},"geometry":{"type":"Point","coordinates":[33.976,44.81919]}},
{"type":"Feature","id":"230804362","properties":{"josm":"w230804362","name":"Рудничный проезд","nameuk":"Рудничний проїзд"},"geometry":{"type":"Point","coordinates":[33.58611,44.51302]}},
{"type":"Feature","id":"231101684","properties":{"josm":"w231101684","name":"вулиця Проектна бічна","nameuk":"Богата вулиця"},"geometry":{"type":"Point","coordinates":[25.66467,49.55174]}},
{"type":"Feature","id":"231820222","properties":{"josm":"w231820222","name":"Таврiйська вулиця","nameuk":"Таврійська вулиця"},"geometry":{"type":"Point","coordinates":[32.02107,46.83733]}},
{"type":"Feature","id":"235109191","properties":{"josm":"w235109191","name":"M5-Граница с Украиной","nameuk":"M5-кордон з Україною"},"geometry":{"type":"Point","coordinates":[29.74979,46.86103]}},
{"type":"Feature","id":"239162603","properties":{"josm":"w239162603","name":"Саркісова вулиця","nameuk":"Курганський провулок"},"geometry":{"type":"Point","coordinates":[37.59867,48.7653]}},
{"type":"Feature","id":"241720836","properties":{"josm":"w241720836","name":"Вишнева вулица","nameuk":"Вишнева вулиця"},"geometry":{"type":"Point","coordinates":[33.62117,44.89959]}},
{"type":"Feature","id":"242337057","properties":{"josm":"w242337057","name":"Шкільна вулиця","nameuk":"Чкалова вулиця"},"geometry":{"type":"Point","coordinates":[39.45048,48.67179]}},
{"type":"Feature","id":"242940229","properties":{"josm":"w242940229","name":"Слесарная улица","nameuk":"Кузнечна вулиця"},"geometry":{"type":"Point","coordinates":[33.53347,44.59176]}},
{"type":"Feature","id":"246867425","properties":{"josm":"w246867425","name":"улица Водохранилище","nameuk":"Водосховище вулиця"},"geometry":{"type":"Point","coordinates":[35.12103,45.0414]}},
{"type":"Feature","id":"248791530","properties":{"josm":"w248791530","name":"Новосёлов улица","nameuk":"Новоселів вулиця"},"geometry":{"type":"Point","coordinates":[34.59426,44.77015]}},
{"type":"Feature","id":"250527536","properties":{"josm":"w250527536","name":"Тиха вулиця","nameuk":"Центральна вулиця"},"geometry":{"type":"Point","coordinates":[34.01819,48.79832]}},
{"type":"Feature","id":"252888573","properties":{"josm":"w252888573","name":"Дорошенка вулиця","nameuk":"Петра Дорошенка вулиця"},"geometry":{"type":"Point","coordinates":[24.57404,48.64492]}},
{"type":"Feature","id":"253014257","properties":{"josm":"w253014257","name":"Григорія Сковороди вулиця","nameuk":"Сковороди вулиця"},"geometry":{"type":"Point","coordinates":[24.57072,48.64171]}},
{"type":"Feature","id":"254928598","properties":{"josm":"w254928598","name":"Первомайская улица","nameuk":"Первомайська вулиця"},"geometry":{"type":"Point","coordinates":[36.39944,49.78818]}},
{"type":"Feature","id":"254975135","properties":{"josm":"w254975135","name":"Шолом Алейхема вулиця","nameuk":"Шолом-Алейхема вулиця"},"geometry":{"type":"Point","coordinates":[28.80228,51.31636]}},
{"type":"Feature","id":"265091648","properties":{"josm":"w265091648","name":"Крайний переулок","nameuk":"Крайня вулиця"},"geometry":{"type":"Point","coordinates":[34.95539,45.18745]}},
{"type":"Feature","id":"266497179","properties":{"josm":"w266497179","name":"Перштравнева вулиця","nameuk":"Першотравнева вулиця"},"geometry":{"type":"Point","coordinates":[36.24934,47.46753]}},
{"type":"Feature","id":"267064327","properties":{"josm":"w267064327","name":"5-й Кавказький проїзд","nameuk":"Ранкова вулиця"},"geometry":{"type":"Point","coordinates":[26.99478,49.38967]}},
{"type":"Feature","id":"268234342","properties":{"josm":"w268234342","name":"дорога к озеру","nameuk":"Єврейська стежка"},"geometry":{"type":"Point","coordinates":[34.02046,44.42073]}},
{"type":"Feature","id":"272266082","properties":{"josm":"w272266082","name":"переулок 23 Мая 1919 Года","nameuk":"23 Травня 1919 Року провулок"},"geometry":{"type":"Point","coordinates":[36.46963,45.35381]}},
{"type":"Feature","id":"278609046","properties":{"josm":"w278609046","name":"Івана Котляревського вулиця","nameuk":"Котляревського вулиця"},"geometry":{"type":"Point","coordinates":[24.56501,48.63577]}},
{"type":"Feature","id":"278622583","properties":{"josm":"w278622583","name":"Михайла Коцюбинського вулиця","nameuk":"Коцюбинського вулиця"},"geometry":{"type":"Point","coordinates":[24.5708,48.64]}},
{"type":"Feature","id":"279145563","properties":{"josm":"w279145563","name":"улица Чубинского","nameuk":"Чубинського вулиця"},"geometry":{"type":"Point","coordinates":[31.10183,50.43958]}},
{"type":"Feature","id":"279145568","properties":{"josm":"w279145568","name":"улица Чубинского","nameuk":"Чубинського вулиця"},"geometry":{"type":"Point","coordinates":[31.09191,50.43997]}},
{"type":"Feature","id":"293912067","properties":{"josm":"w293912067","name":"Зелёная улица","nameuk":"Зелений провулок"},"geometry":{"type":"Point","coordinates":[36.45284,45.35428]}},
{"type":"Feature","id":"302895063","properties":{"josm":"w302895063","name":"Советская улица","nameuk":"Радянська вулиця"},"geometry":{"type":"Point","coordinates":[29.27366,47.88552]}},
{"type":"Feature","id":"308343495","properties":{"josm":"w308343495","name":"Грушевского вулиця","nameuk":"Грушевського вулиця"},"geometry":{"type":"Point","coordinates":[28.9251,47.98417]}},
{"type":"Feature","id":"308454787","properties":{"josm":"w308454787","name":"улица Ешиль Ада","nameuk":"Мирна вулиця"},"geometry":{"type":"Point","coordinates":[34.9888,44.83914]}},
{"type":"Feature","id":"316526103","properties":{"josm":"w316526103","name":"Тетяни Федорової вулиця","nameuk":"Шкільна вулиця"},"geometry":{"type":"Point","coordinates":[35.92405,48.50295]}},
{"type":"Feature","id":"319671081","properties":{"josm":"w319671081","name":"Терешкова вулиця","nameuk":"Мічуріна вулиця"},"geometry":{"type":"Point","coordinates":[29.85431,47.07752]}},
{"type":"Feature","id":"331146707","properties":{"josm":"w331146707","name":"Автопаркова вулиця","nameuk":"Автомобільна вулиця"},"geometry":{"type":"Point","coordinates":[38.21737,49.06469]}},
{"type":"Feature","id":"333545976","properties":{"josm":"w333545976","name":"улица Милании Мусиенко","nameuk":"Меланії Мусієнко вулиця"},"geometry":{"type":"Point","coordinates":[36.56242,45.36011]}},
{"type":"Feature","id":"334425168","properties":{"josm":"w334425168","name":"Парижской Коммуны улица","nameuk":"Леніна вулиця"},"geometry":{"type":"Point","coordinates":[38.13349,48.0271]}},
{"type":"Feature","id":"360701762","properties":{"josm":"w360701762","name":"Хвойна вулиця","nameuk":"Прорізна вулиця"},"geometry":{"type":"Point","coordinates":[30.30358,50.27461]}},
{"type":"Feature","id":"366809369","properties":{"josm":"w366809369","name":"Макаренко улица","nameuk":"Макаренка вулиця"},"geometry":{"type":"Point","coordinates":[34.9436,50.83234]}},
{"type":"Feature","id":"395269031","properties":{"josm":"w395269031","name":"Носаль Є. І. вулиця","nameuk":"Носаль вулиця"},"geometry":{"type":"Point","coordinates":[35.31032,47.37529]}},
{"type":"Feature","id":"400220181","properties":{"josm":"w400220181","name":"Грищенка провулок","nameuk":"Грищенко вулиця"},"geometry":{"type":"Point","coordinates":[36.39105,49.98682]}},
{"type":"Feature","id":"404015264","properties":{"josm":"w404015264","name":"Калиновий проїзд","nameuk":"Калиновий провулок"},"geometry":{"type":"Point","coordinates":[35.84227,48.53973]}},
{"type":"Feature","id":"404015266","properties":{"josm":"w404015266","name":"Тополиний проїзд","nameuk":"Тополиний провулок"},"geometry":{"type":"Point","coordinates":[35.83985,48.53954]}},
{"type":"Feature","id":"416216359","properties":{"josm":"w416216359","name":"Глеба Успенского улица","nameuk":"Гліба Успенського вулиця"},"geometry":{"type":"Point","coordinates":[33.42682,44.567]}},
{"type":"Feature","id":"424772339","properties":{"josm":"w424772339","name":"1-й Заорільський провулок","nameuk":"3-й Заорільський провулок"},"geometry":{"type":"Point","coordinates":[34.52025,48.93094]}},
{"type":"Feature","id":"443777999","properties":{"josm":"w443777999","name":"Скрябіна вулиця","nameuk":"Центральна вулиця"},"geometry":{"type":"Point","coordinates":[33.23483,47.99077]}},
{"type":"Feature","id":"451010945","properties":{"josm":"w451010945","name":"Робітничий провулок","nameuk":"Робітнича вулиця"},"geometry":{"type":"Point","coordinates":[34.40073,48.54415]}},
{"type":"Feature","id":"451878361","properties":{"josm":"w451878361","name":"Дружби Народів вулиця","nameuk":"Гоголя вулиця"},"geometry":{"type":"Point","coordinates":[34.29163,48.65757]}},
{"type":"Feature","id":"451879315","properties":{"josm":"w451879315","name":"Підгірна вулиця","nameuk":"Шкільна вулиця"},"geometry":{"type":"Point","coordinates":[34.29288,48.65848]}},
{"type":"Feature","id":"488048782","properties":{"josm":"w488048782","name":"Берізоньки вулиця","nameuk":"вулиця Берізоньки"},"geometry":{"type":"Point","coordinates":[30.62047,50.36134]}},
{"type":"Feature","id":"488194623","properties":{"josm":"w488194623","name":"Кооперативная вулиця","nameuk":"Кооперативна вулиця"},"geometry":{"type":"Point","coordinates":[36.01216,49.89414]}},
{"type":"Feature","id":"489335300","properties":{"josm":"w489335300","name":"Стара Озерянка вулиця","nameuk":"Аральська вулиця"},"geometry":{"type":"Point","coordinates":[36.34184,50.03789]}},
{"type":"Feature","id":"489335304","properties":{"josm":"w489335304","name":"Стара Озерянка вулиця","nameuk":"Аральська вулиця"},"geometry":{"type":"Point","coordinates":[36.33688,50.04103]}},
{"type":"Feature","id":"489922450","properties":{"josm":"w489922450","name":"улица Строителей","nameuk":"Титова вулиця"},"geometry":{"type":"Point","coordinates":[34.28637,45.48676]}},
{"type":"Feature","id":"545216384","properties":{"josm":"w545216384","name":"Б. Полевого","nameuk":"Б. Польового"},"geometry":{"type":"Point","coordinates":[28.9256,47.97941]}},
{"type":"Feature","id":"545325526","properties":{"josm":"w545325526","name":"пер. Титова","nameuk":"Тітова провулок"},"geometry":{"type":"Point","coordinates":[28.92226,47.97989]}},
{"type":"Feature","id":"545331157","properties":{"josm":"w545331157","name":"А. Кошевого","nameuk":"О. Кошевого"},"geometry":{"type":"Point","coordinates":[28.92349,47.99073]}},
{"type":"Feature","id":"545337181","properties":{"josm":"w545337181","name":"пер. Титова","nameuk":"Тітова провулок"},"geometry":{"type":"Point","coordinates":[28.92162,47.97892]}},
{"type":"Feature","id":"549028954","properties":{"josm":"w549028954","name":"Шевченка вулиця","nameuk":"Незалежності вулиця"},"geometry":{"type":"Point","coordinates":[32.16965,48.05377]}},
{"type":"Feature","id":"606110208","properties":{"josm":"w606110208","name":"Парникова вулиця","nameuk":"Марії Демченко вулиця"},"geometry":{"type":"Point","coordinates":[30.71848,46.37385]}},
{"type":"Feature","id":"606768229","properties":{"josm":"w606768229","name":"Полевая улица","nameuk":"Польова вулиця"},"geometry":{"type":"Point","coordinates":[36.03579,49.81935]}},
{"type":"Feature","id":"609034187","properties":{"josm":"w609034187","name":"Кирова улица","nameuk":"Кірова вулиця"},"geometry":{"type":"Point","coordinates":[33.60069,44.50138]}},
{"type":"Feature","id":"611592286","properties":{"josm":"w611592286","name":"Перемоги площа","nameuk":"Микити Головка вулиця"},"geometry":{"type":"Point","coordinates":[35.26191,48.62707]}},
{"type":"Feature","id":"611735010","properties":{"josm":"w611735010","name":"улица Чуба","nameuk":"Чуба вулиця"},"geometry":{"type":"Point","coordinates":[36.05393,45.30983]}},
{"type":"Feature","id":"658395018","properties":{"josm":"w658395018","name":"Гирьовий провулок","nameuk":"Калініна вулиця"},"geometry":{"type":"Point","coordinates":[38.21985,49.04229]}},
{"type":"Feature","id":"660881300","properties":{"josm":"w660881300","name":"Данила Шингірій вулиця","nameuk":"Данила Шингирій вулиця"},"geometry":{"type":"Point","coordinates":[38.38613,48.63578]}},
{"type":"Feature","id":"662343659","properties":{"josm":"w662343659","name":"Незалежності майдан","nameuk":"Майдан Незалежності"},"geometry":{"type":"Point","coordinates":[25.84933,51.34804]}},
{"type":"Feature","id":"674940856","properties":{"josm":"w674940856","name":"Промышленный переулок","nameuk":"Польова вулиця"},"geometry":{"type":"Point","coordinates":[33.86395,45.71493]}},
{"type":"Feature","id":"674940857","properties":{"josm":"w674940857","name":"Промышленный переулок","nameuk":"Польова вулиця"},"geometry":{"type":"Point","coordinates":[33.86557,45.71524]}},
{"type":"Feature","id":"679312207","properties":{"josm":"w679312207","name":"Чуба улица","nameuk":"Чуба вулиця"},"geometry":{"type":"Point","coordinates":[36.39978,49.78667]}},
{"type":"Feature","id":"679312211","properties":{"josm":"w679312211","name":"Школьная улица","nameuk":"Шкільна вулиця"},"geometry":{"type":"Point","coordinates":[36.38879,49.7868]}},
{"type":"Feature","id":"680741049","properties":{"josm":"w680741049","name":"бульвар Ленина","nameuk":"Гагаріна вулиця"},"geometry":{"type":"Point","coordinates":[34.08771,44.96492]}},
{"type":"Feature","id":"714070512","properties":{"josm":"w714070512","name":"M3 – drumul de acces spre frontiera cu Ucraina","nameuk":"M3 – під'їзд до кордону з Україною"},"geometry":{"type":"Point","coordinates":[28.50041,45.69771]}},
{"type":"Feature","id":"729104734","properties":{"josm":"w729104734","name":"улица Дружбы","nameuk":"вулиця Дружби"},"geometry":{"type":"Point","coordinates":[29.27346,47.87952]}},
{"type":"Feature","id":"738041625","properties":{"josm":"w738041625","name":"Гравійна велодоріжка (Лікарняи","nameuk":"Гравійна велодоріжка (Лікарня)"},"geometry":{"type":"Point","coordinates":[36.24146,50.04256]}},
{"type":"Feature","id":"751739327","properties":{"josm":"w751739327","name":"Symona Petlury","nameuk":"Симона Петлюри вулиця"},"geometry":{"type":"Point","coordinates":[30.95746,50.33814]}},
{"type":"Feature","id":"754259569","properties":{"josm":"w754259569","name":"пер. Виноградный","nameuk":"Виноградний провулок"},"geometry":{"type":"Point","coordinates":[28.92218,47.98162]}},
{"type":"Feature","id":"763089202","properties":{"josm":"w763089202","name":"Моторобуд вулиця","nameuk":"8-го Березня вулиця"},"geometry":{"type":"Point","coordinates":[35.2015,47.83828]}},
{"type":"Feature","id":"770922486","properties":{"josm":"w770922486","name":"Лучистая улица","nameuk":"Набережна вулиця"},"geometry":{"type":"Point","coordinates":[34.60352,44.77446]}},
{"type":"Feature","id":"775341493","properties":{"josm":"w775341493","name":"Шевченка вулиця","nameuk":"Білгород-Дністровська вулиця"},"geometry":{"type":"Point","coordinates":[28.83101,45.35396]}},
{"type":"Feature","id":"788241374","properties":{"josm":"w788241374","name":"Зелёная улица","nameuk":"Зелена вулиця"},"geometry":{"type":"Point","coordinates":[30.19263,46.6006]}},
{"type":"Feature","id":"804211990","properties":{"josm":"w804211990","name":"Леонида Гайдая улица","nameuk":"Гірська вулиця"},"geometry":{"type":"Point","coordinates":[34.40121,44.74241]}},
{"type":"Feature","id":"806877732","properties":{"josm":"w806877732","name":"Добролюбова провулок","nameuk":"Сурікова вулиця"},"geometry":{"type":"Point","coordinates":[32.60418,46.66244]}},
{"type":"Feature","id":"818896412","properties":{"josm":"w818896412","name":"Промышленная улица","nameuk":"Промислова вулиця"},"geometry":{"type":"Point","coordinates":[34.28659,45.5048]}},
{"type":"Feature","id":"826531552","properties":{"josm":"w826531552","name":"Электрическая улица","nameuk":"Електрична вулиця"},"geometry":{"type":"Point","coordinates":[36.17503,49.97507]}},
{"type":"Feature","id":"827679016","properties":{"josm":"w827679016","name":"Кирова улица","nameuk":"Кірова вулиця"},"geometry":{"type":"Point","coordinates":[33.60216,44.49883]}},
{"type":"Feature","id":"827679017","properties":{"josm":"w827679017","name":"Кирова улица","nameuk":"Кірова вулиця"},"geometry":{"type":"Point","coordinates":[33.60147,44.50077]}},
{"type":"Feature","id":"828270037","properties":{"josm":"w828270037","name":"Чехова переулок","nameuk":"Чехова провулок"},"geometry":{"type":"Point","coordinates":[36.34611,49.66896]}},
{"type":"Feature","id":"828270038","properties":{"josm":"w828270038","name":"Комарова переулок","nameuk":"Комарова провулок"},"geometry":{"type":"Point","coordinates":[36.34228,49.66877]}},
{"type":"Feature","id":"835309768","properties":{"josm":"w835309768","name":"Котляревского улица","nameuk":"Котляревского вулиця"},"geometry":{"type":"Point","coordinates":[37.96738,47.85335]}},
{"type":"Feature","id":"836516660","properties":{"josm":"w836516660","name":"Свято-Покровська вулиця","nameuk":"Свято- Покровська вулиця"},"geometry":{"type":"Point","coordinates":[26.49775,48.51185]}},
{"type":"Feature","id":"846700362","properties":{"josm":"w846700362","name":"Цветочная улица","nameuk":"Квіткова вулиця"},"geometry":{"type":"Point","coordinates":[31.10144,50.44302]}},
{"type":"Feature","id":"846700367","properties":{"josm":"w846700367","name":"Экотропа имени Маркуса Кирилловича","nameuk":"Екостежка імені Маркуса Кириловича"},"geometry":{"type":"Point","coordinates":[31.10085,50.44547]}},
{"type":"Feature","id":"846700401","properties":{"josm":"w846700401","name":"Октябрьская улица","nameuk":"Жовтнева вулиця"},"geometry":{"type":"Point","coordinates":[31.09169,50.44607]}},
{"type":"Feature","id":"846866886","properties":{"josm":"w846866886","name":"Куликовская экотропа","nameuk":"Куликівська екостежка"},"geometry":{"type":"Point","coordinates":[31.09672,50.44024]}},
{"type":"Feature","id":"850862899","properties":{"josm":"w850862899","name":"Кооперативная вулиця","nameuk":"Кооперативна вулиця"},"geometry":{"type":"Point","coordinates":[36.01308,49.8946]}},
{"type":"Feature","id":"852629767","properties":{"josm":"w852629767","name":"Гагарина вулиця","nameuk":"Гагаріна вулиця"},"geometry":{"type":"Point","coordinates":[28.9275,47.99827]}},
{"type":"Feature","id":"852629768","properties":{"josm":"w852629768","name":"А. Кошевого","nameuk":"О. Кошевого"},"geometry":{"type":"Point","coordinates":[28.92528,47.98746]}},
{"type":"Feature","id":"852629769","properties":{"josm":"w852629769","name":"Котовского","nameuk":"Котовсього"},"geometry":{"type":"Point","coordinates":[28.92727,47.99066]}},
{"type":"Feature","id":"852633399","properties":{"josm":"w852633399","name":"Леси Украинки","nameuk":"Лесі Українки вулиця"},"geometry":{"type":"Point","coordinates":[28.91727,47.99285]}},
{"type":"Feature","id":"852633400","properties":{"josm":"w852633400","name":"Леси Украинки","nameuk":"Лесі Українки вулиця"},"geometry":{"type":"Point","coordinates":[28.91843,47.99236]}},
{"type":"Feature","id":"852985145","properties":{"josm":"w852985145","name":"А. Кошевого","nameuk":"О. Кошевого"},"geometry":{"type":"Point","coordinates":[28.92384,47.98938]}},
{"type":"Feature","id":"852997792","properties":{"josm":"w852997792","name":"Мичурина","nameuk":"Мічуріна вулиця"},"geometry":{"type":"Point","coordinates":[28.93242,47.9998]}},
{"type":"Feature","id":"853041353","properties":{"josm":"w853041353","name":"Андрія Борулі вулиця","nameuk":"Andriy Borula street"},"geometry":{"type":"Point","coordinates":[26.50086,48.50824]}},
{"type":"Feature","id":"853321368","properties":{"josm":"w853321368","name":"Николаева","nameuk":"Ніколаева"},"geometry":{"type":"Point","coordinates":[28.93197,47.98006]}},
{"type":"Feature","id":"853321369","properties":{"josm":"w853321369","name":"Николаева","nameuk":"Ніколаева"},"geometry":{"type":"Point","coordinates":[28.92461,47.97615]}},
{"type":"Feature"}
]}
