{
"type": "FeatureCollection",
"errorDescr": "Incorrect <b>name</b>-tag value",
"features": [
{"type":"Feature","id":"24933435","properties":{"josm":"w24933435","name":"Площадь Комбата Неустроева","nameuk":"Комбата Неустроєва площа"},"geometry":{"type":"Point","coordinates":[33.45198,44.59577]}},
{"type":"Feature","id":"24933436","properties":{"josm":"w24933436","name":"Площадь Комбата Неустроева","nameuk":"Комбата Неустроєва площа"},"geometry":{"type":"Point","coordinates":[33.45232,44.59526]}},
{"type":"Feature","id":"24933437","properties":{"josm":"w24933437","name":"Площадь Комбата Неустроева","nameuk":"Комбата Неустроєва площа"},"geometry":{"type":"Point","coordinates":[33.4521,44.59516]}},
{"type":"Feature","id":"24933459","properties":{"josm":"w24933459","name":"Площадь Комбата Неустроева","nameuk":"Комбата Неустроєва площа"},"geometry":{"type":"Point","coordinates":[33.45103,44.59557]}},
{"type":"Feature","id":"24933482","properties":{"josm":"w24933482","name":"Площадь Комбата Неустроева","nameuk":"Комбата Неустроєва площа"},"geometry":{"type":"Point","coordinates":[33.45108,44.59538]}},
{"type":"Feature","id":"25048969","properties":{"josm":"w25048969","name":"Площадь Лазарева","nameuk":"Лазарева площа"},"geometry":{"type":"Point","coordinates":[33.52012,44.61147]}},
{"type":"Feature","id":"28619107","properties":{"josm":"w28619107","name":"Площадь Комбата Неустроева","nameuk":"Комбата Неустроєва площа"},"geometry":{"type":"Point","coordinates":[33.45262,44.59599]}},
{"type":"Feature","id":"28619108","properties":{"josm":"w28619108","name":"Площадь Комбата Неустроева","nameuk":"Комбата Неустроєва площа"},"geometry":{"type":"Point","coordinates":[33.45238,44.5961]}},
{"type":"Feature","id":"36781585","properties":{"josm":"w36781585","name":"улица Героев Сталинграда","nameuk":"Героїв Сталінграда вулиця"},"geometry":{"type":"Point","coordinates":[34.06333,44.93836]}},
{"type":"Feature","id":"36781586","properties":{"josm":"w36781586","name":"улица Героев Сталинграда","nameuk":"Героїв Сталінграда вулиця"},"geometry":{"type":"Point","coordinates":[34.06563,44.93842]}},
{"type":"Feature","id":"39754948","properties":{"josm":"w39754948","name":"переулок Новикова","nameuk":"Новікова провулок"},"geometry":{"type":"Point","coordinates":[33.55465,44.52708]}},
{"type":"Feature","id":"83296600","properties":{"josm":"w83296600","name":"Чонгарский мост","nameuk":"Чонгарський міст"},"geometry":{"type":"Point","coordinates":[34.55253,45.98796]}},
{"type":"Feature","id":"85648613","properties":{"josm":"w85648613","name":"улица Героев Сталинграда","nameuk":"Героїв Сталінграда вулиця"},"geometry":{"type":"Point","coordinates":[34.05147,44.93721]}},
{"type":"Feature","id":"88208769","properties":{"josm":"w88208769","name":"улица Февральская","nameuk":"Лютнева вулиця"},"geometry":{"type":"Point","coordinates":[34.10895,44.96241]}},
{"type":"Feature","id":"97509104","properties":{"josm":"w97509104","name":"улица Героев Сталинграда","nameuk":"Героїв Сталінграда вулиця"},"geometry":{"type":"Point","coordinates":[34.05504,44.9381]}},
{"type":"Feature","id":"107935273","properties":{"josm":"w107935273","name":"Симоненко улица","nameuk":"Симеренка вулиця"},"geometry":{"type":"Point","coordinates":[34.98392,44.84909]}},
{"type":"Feature","id":"108127184","properties":{"josm":"w108127184","name":"Селянська вулиця (15-я линия)","nameuk":"Селянська вулиця"},"geometry":{"type":"Point","coordinates":[30.33725,50.55382]}},
{"type":"Feature","id":"108339076","properties":{"josm":"w108339076","name":"шоссе Дражинского","nameuk":"Дражинського шосе"},"geometry":{"type":"Point","coordinates":[34.22205,44.5084]}},
{"type":"Feature","id":"116930612","properties":{"josm":"w116930612","name":"улица Сапунагорская","nameuk":"Сапунгорська вулиця"},"geometry":{"type":"Point","coordinates":[33.55737,44.53089]}},
{"type":"Feature","id":"122389855","properties":{"josm":"w122389855","name":"улица Героев Сталинграда","nameuk":"Героїв Сталінграда вулиця"},"geometry":{"type":"Point","coordinates":[34.0584,44.93745]}},
{"type":"Feature","id":"129743641","properties":{"josm":"w129743641","name":"улица Козлова","nameuk":"Козлова вулиця"},"geometry":{"type":"Point","coordinates":[34.09653,44.941]}},
{"type":"Feature","id":"135112556","properties":{"josm":"w135112556","name":"Магеллана Ф. вулиця","nameuk":"Магеллана вулиця"},"geometry":{"type":"Point","coordinates":[33.56765,48.13948]}},
{"type":"Feature","id":"135746706","properties":{"josm":"w135746706","name":"Дежнєва вулиця","nameuk":"Дежньова вулиця"},"geometry":{"type":"Point","coordinates":[38.38602,48.93415]}},
{"type":"Feature","id":"137595275","properties":{"josm":"w137595275","name":"Опитна вулиця","nameuk":"Опитна вулиця /Досвідчена?/"},"geometry":{"type":"Point","coordinates":[34.54256,49.60748]}},
{"type":"Feature","id":"148112944","properties":{"josm":"w148112944","name":"Щорса вулиця (стор. пос.Дослідної ст.), Степова ввулиця (стор. с.Вигода)","nameuk":"Щорса вулиця"},"geometry":{"type":"Point","coordinates":[30.39234,46.60883]}},
{"type":"Feature","id":"155861824","properties":{"josm":"w155861824","name":"ул. Ленина","nameuk":"вул. Леніна"},"geometry":{"type":"Point","coordinates":[30.55065,46.48445]}},
{"type":"Feature","id":"188287368","properties":{"josm":"w188287368","name":"ул. 2-я Сортоиспытательная","nameuk":"вул. 2-я Сортовипробувальна"},"geometry":{"type":"Point","coordinates":[30.56051,46.45858]}},
{"type":"Feature","id":"188287407","properties":{"josm":"w188287407","name":"ул. Черноморская","nameuk":"вул. Чорноморська"},"geometry":{"type":"Point","coordinates":[30.55858,46.45833]}},
{"type":"Feature","id":"188289299","properties":{"josm":"w188289299","name":"ул. Шевченко","nameuk":"вул. Шевченко"},"geometry":{"type":"Point","coordinates":[30.57788,46.44246]}},
{"type":"Feature","id":"193536502","properties":{"josm":"w193536502","name":"Опитна вулиця","nameuk":"Опитна вулиця /Досвідчена?/"},"geometry":{"type":"Point","coordinates":[38.01253,48.56787]}},
{"type":"Feature","id":"210554239","properties":{"josm":"w210554239","name":"Магеллана Ф. вулиця","nameuk":"Магеллана вулиця"},"geometry":{"type":"Point","coordinates":[37.99315,48.06218]}},
{"type":"Feature","id":"211412837","properties":{"josm":"w211412837","name":"переулок Шевкопляса","nameuk":"Шевкопляса провулок"},"geometry":{"type":"Point","coordinates":[33.61131,44.61709]}},
{"type":"Feature","id":"220543980","properties":{"josm":"w220543980","name":"Hegy utca","nameuk":"Гірська вулиця"},"geometry":{"type":"Point","coordinates":[22.67743,48.34111]}},
{"type":"Feature","id":"227460040","properties":{"josm":"w227460040","name":"ул. Черноморская","nameuk":"вул. Чорноморська"},"geometry":{"type":"Point","coordinates":[30.5602,46.45419]}},
{"type":"Feature","id":"227460043","properties":{"josm":"w227460043","name":"ул. Профсоюзная","nameuk":"вул. Профспілкова"},"geometry":{"type":"Point","coordinates":[30.56245,46.4524]}},
{"type":"Feature","id":"243866526","properties":{"josm":"w243866526","name":"аллея Декабристов","nameuk":"Декабристів алея"},"geometry":{"type":"Point","coordinates":[34.40983,44.66357]}},
{"type":"Feature","id":"246785143","properties":{"josm":"w246785143","name":"Béke utca","nameuk":"Миру вулиця"},"geometry":{"type":"Point","coordinates":[22.75757,48.16324]}},
{"type":"Feature","id":"246802439","properties":{"josm":"w246802439","name":"Erdő utca","nameuk":"Лісова вулиця"},"geometry":{"type":"Point","coordinates":[22.72179,48.12813]}},
{"type":"Feature","id":"246802477","properties":{"josm":"w246802477","name":"Béke utca","nameuk":"Миру вулиця"},"geometry":{"type":"Point","coordinates":[22.71738,48.12355]}},
{"type":"Feature","id":"246802486","properties":{"josm":"w246802486","name":"Erdő utca","nameuk":"Лісова вулиця"},"geometry":{"type":"Point","coordinates":[22.72371,48.12745]}},
{"type":"Feature","id":"263736875","properties":{"josm":"w263736875","name":"Sport út","nameuk":"Спортивна вулиця"},"geometry":{"type":"Point","coordinates":[22.39319,48.42632]}},
{"type":"Feature","id":"273656229","properties":{"josm":"w273656229","name":"улица Воли","nameuk":"Волі вулиця"},"geometry":{"type":"Point","coordinates":[34.57448,45.59416]}},
{"type":"Feature","id":"273656230","properties":{"josm":"w273656230","name":"улица Надежды","nameuk":"Надії вулиця"},"geometry":{"type":"Point","coordinates":[34.57342,45.59466]}},
{"type":"Feature","id":"291320992","properties":{"josm":"w291320992","name":"Площадь Комбата Неустроева","nameuk":"Комбата Неустроєва площа"},"geometry":{"type":"Point","coordinates":[33.45202,44.59535]}},
{"type":"Feature","id":"291320993","properties":{"josm":"w291320993","name":"Площадь Комбата Неустроева","nameuk":"Комбата Неустроєва площа"},"geometry":{"type":"Point","coordinates":[33.45154,44.59552]}},
{"type":"Feature","id":"315917350","properties":{"josm":"w315917350","name":"ул. Шевченко","nameuk":"вул. Шевченко"},"geometry":{"type":"Point","coordinates":[30.57709,46.44972]}},
{"type":"Feature","id":"315917992","properties":{"josm":"w315917992","name":"ул. Шевченко","nameuk":"вул. Шевченко"},"geometry":{"type":"Point","coordinates":[30.5795,46.43511]}},
{"type":"Feature"}
]}
