{
"type": "FeatureCollection",
"errorDescr": "Incorrect <b>name</b>-tag value",
"features": [
{"type":"Feature","id":"31505264","properties":{"josm":"w31505264","name":"Куприна вулиця","nameuk":"Купріна вулиця"},"geometry":{"type":"Point","coordinates":[30.74692,46.41052]}},
{"type":"Feature","id":"33762100","properties":{"josm":"w33762100","name":"Лукияна Січинського вулиця","nameuk":"Лукіяна Січинського вулиця"},"geometry":{"type":"Point","coordinates":[23.79938,49.83054]}},
{"type":"Feature","id":"33868373","properties":{"josm":"w33868373","name":"Мирона Тарновського вулиця","nameuk":"Мирона Тарнавського вулиця"},"geometry":{"type":"Point","coordinates":[23.83795,49.83292]}},
{"type":"Feature","id":"38813348","properties":{"josm":"w38813348","name":"Рубанівська вулиця","nameuk":"Клапцова вулиця"},"geometry":{"type":"Point","coordinates":[36.19559,49.98244]}},
{"type":"Feature","id":"42257997","properties":{"josm":"w42257997","name":"Сабарівське шосе","nameuk":"Сабаровське шосе"},"geometry":{"type":"Point","coordinates":[28.43548,49.2082]}},
{"type":"Feature","id":"42487081","properties":{"josm":"w42487081","name":"вулиця Жовтнева","nameuk":"Жовтнева вулиця"},"geometry":{"type":"Point","coordinates":[31.43698,49.28695]}},
{"type":"Feature","id":"43513830","properties":{"josm":"w43513830","name":"Совєтська вулиця","nameuk":"Радянська вулиця"},"geometry":{"type":"Point","coordinates":[38.22075,49.04596]}},
{"type":"Feature","id":"76858025","properties":{"josm":"w76858025","name":"1-я лінія","nameuk":"1-а лінія"},"geometry":{"type":"Point","coordinates":[30.81517,50.61811]}},
{"type":"Feature","id":"76858269","properties":{"josm":"w76858269","name":"2-я лінія","nameuk":"2-а лінія"},"geometry":{"type":"Point","coordinates":[30.81434,50.61843]}},
{"type":"Feature","id":"108127184","properties":{"josm":"w108127184","name":"Селянська вулиця (15-я линия)","nameuk":"Селянська вулиця"},"geometry":{"type":"Point","coordinates":[30.33725,50.55382]}},
{"type":"Feature","id":"110452945","properties":{"josm":"w110452945","name":"Попова улица","nameuk":"Польова вулиця"},"geometry":{"type":"Point","coordinates":[38.48815,48.04222]}},
{"type":"Feature","id":"111810910","properties":{"josm":"w111810910","name":"Жуковського вулиця","nameuk":"Желєзнякова вулиця"},"geometry":{"type":"Point","coordinates":[35.38866,46.8751]}},
{"type":"Feature","id":"132089682","properties":{"josm":"w132089682","name":"Попова улица","nameuk":"Польова вулиця"},"geometry":{"type":"Point","coordinates":[38.48242,48.04322]}},
{"type":"Feature","id":"132416317","properties":{"josm":"w132416317","name":"Червоноармейский переулок","nameuk":"Червоноармійський провулок"},"geometry":{"type":"Point","coordinates":[37.54526,47.94666]}},
{"type":"Feature","id":"135746706","properties":{"josm":"w135746706","name":"Дежнєва вулиця","nameuk":"Дежньова вулиця"},"geometry":{"type":"Point","coordinates":[38.38602,48.93415]}},
{"type":"Feature","id":"148112944","properties":{"josm":"w148112944","name":"Щорса вулиця (стор. пос.Дослідної ст.), Степова ввулиця (стор. с.Вигода)","nameuk":"Щорса вулиця"},"geometry":{"type":"Point","coordinates":[30.39234,46.60883]}},
{"type":"Feature","id":"150408204","properties":{"josm":"w150408204","name":"Буцикова вулиця","nameuk":"Некрасова вулиця"},"geometry":{"type":"Point","coordinates":[29.91511,50.08317]}},
{"type":"Feature","id":"150431029","properties":{"josm":"w150431029","name":"20 років Міліції вулиця","nameuk":"20 років міліції вулиця"},"geometry":{"type":"Point","coordinates":[32.26615,48.49447]}},
{"type":"Feature","id":"159316376","properties":{"josm":"w159316376","name":"вулиця 1-го Травня","nameuk":"1-го Травня вулиця"},"geometry":{"type":"Point","coordinates":[35.63787,49.83142]}},
{"type":"Feature","id":"171633340","properties":{"josm":"w171633340","name":"Верхньошевченківський провулок","nameuk":"Верхнешевченківский провулок"},"geometry":{"type":"Point","coordinates":[37.17433,48.41055]}},
{"type":"Feature","id":"173873647","properties":{"josm":"w173873647","name":"вулиця Жовтнева","nameuk":"Жовтнева вулиця"},"geometry":{"type":"Point","coordinates":[31.4351,49.27205]}},
{"type":"Feature","id":"175083114","properties":{"josm":"w175083114","name":"Рози Люксембург переулок","nameuk":"Рози Люксембург вулиця"},"geometry":{"type":"Point","coordinates":[38.56009,48.85844]}},
{"type":"Feature","id":"177229958","properties":{"josm":"w177229958","name":"Зиґзаґ вулиця","nameuk":"Зигзаг вулиця"},"geometry":{"type":"Point","coordinates":[23.98225,49.83129]}},
{"type":"Feature","id":"188152176","properties":{"josm":"w188152176","name":"Журавлинна вулиця","nameuk":"Журавлина вулиця"},"geometry":{"type":"Point","coordinates":[23.86944,49.83497]}},
{"type":"Feature","id":"210554239","properties":{"josm":"w210554239","name":"Магеллана Ф. вулиця","nameuk":"Магеллана вулиця"},"geometry":{"type":"Point","coordinates":[37.99315,48.06218]}},
{"type":"Feature","id":"228045928","properties":{"josm":"w228045928","name":"Карпатська провулок","nameuk":"Карпатський провулок"},"geometry":{"type":"Point","coordinates":[32.30956,48.52201]}},
{"type":"Feature","id":"259065916","properties":{"josm":"w259065916","name":"Набержный провулок","nameuk":"Набережний провулок"},"geometry":{"type":"Point","coordinates":[29.57952,50.69099]}},
{"type":"Feature","id":"259065920","properties":{"josm":"w259065920","name":"Карла Макргса вулиця","nameuk":"Карла Маркса вулиця"},"geometry":{"type":"Point","coordinates":[29.59481,50.69473]}},
{"type":"Feature","id":"260647558","properties":{"josm":"w260647558","name":"Коммунальная улица","nameuk":"Комунальна вулиця"},"geometry":{"type":"Point","coordinates":[34.73338,45.44689]}},
{"type":"Feature","id":"261219038","properties":{"josm":"w261219038","name":"вулиця Леніна","nameuk":"Леніна вулиця"},"geometry":{"type":"Point","coordinates":[35.62569,49.82995]}},
{"type":"Feature","id":"272840147","properties":{"josm":"w272840147","name":"Крутой переулок","nameuk":"Гірський провулок"},"geometry":{"type":"Point","coordinates":[33.86956,44.75213]}},
{"type":"Feature","id":"272840153","properties":{"josm":"w272840153","name":"Горный переулок","nameuk":"Крутий провулок"},"geometry":{"type":"Point","coordinates":[33.87487,44.75126]}},
{"type":"Feature","id":"272921005","properties":{"josm":"w272921005","name":"Матяхина переулок","nameuk":"Матяхіна провулок"},"geometry":{"type":"Point","coordinates":[34.93156,45.33989]}},
{"type":"Feature","id":"294867595","properties":{"josm":"w294867595","name":"вулиця Жовтнева","nameuk":"Жовтнева вулиця"},"geometry":{"type":"Point","coordinates":[31.43651,49.2794]}},
{"type":"Feature","id":"315289552","properties":{"josm":"w315289552","name":"вулиця Колгоспна","nameuk":"Колгоспна вулиця"},"geometry":{"type":"Point","coordinates":[35.62656,49.82536]}},
{"type":"Feature","id":"315289554","properties":{"josm":"w315289554","name":"вулиця Леніна","nameuk":"Леніна вулиця"},"geometry":{"type":"Point","coordinates":[35.61874,49.83234]}},
{"type":"Feature","id":"334778269","properties":{"josm":"w334778269","name":"Червоноармейский переулок","nameuk":"Червоноармійський провулок"},"geometry":{"type":"Point","coordinates":[37.54187,47.94707]}},
{"type":"Feature","id":"336559661","properties":{"josm":"w336559661","name":"Горького улица","nameuk":"Горького вулиця"},"geometry":{"type":"Point","coordinates":[38.57684,47.82714]}},
{"type":"Feature","id":"337792156","properties":{"josm":"w337792156","name":"Терешкова","nameuk":"Терешкова вулиця"},"geometry":{"type":"Point","coordinates":[25.84263,48.69351]}},
{"type":"Feature","id":"338941249","properties":{"josm":"w338941249","name":"Санаторная улица","nameuk":"Шкільна вулиця"},"geometry":{"type":"Point","coordinates":[33.62067,45.02752]}},
{"type":"Feature"}
]}
