{
"type": "FeatureCollection",
"errorDescr": "Incorrect <b>name</b>-tag value",
"features": [
{"type":"Feature","id":"23757595","properties":{"josm":"w23757595","name":"майдан Павловський","nameuk":"Павловська площа"},"geometry":{"type":"Point","coordinates":[36.22773,49.98743]}},
{"type":"Feature","id":"23861941","properties":{"josm":"w23861941","name":"майдан Павловський","nameuk":"Павловська площа"},"geometry":{"type":"Point","coordinates":[36.23152,49.98804]}},
{"type":"Feature","id":"34679755","properties":{"josm":"w34679755","name":"Терихівська вулиця","nameuk":"Скорохода вулиця"},"geometry":{"type":"Point","coordinates":[36.18191,49.99515]}},
{"type":"Feature","id":"34699688","properties":{"josm":"w34699688","name":"Андріївська вулиця","nameuk":"Кубасова вулиця"},"geometry":{"type":"Point","coordinates":[36.19547,50.0011]}},
{"type":"Feature","id":"34702212","properties":{"josm":"w34702212","name":"Велика Панасівська вулиця","nameuk":"Котлова вулиця"},"geometry":{"type":"Point","coordinates":[36.20518,49.99829]}},
{"type":"Feature","id":"34838612","properties":{"josm":"w34838612","name":"Юрія Кондратюка провулок","nameuk":"Івана Кулика в’їзд"},"geometry":{"type":"Point","coordinates":[36.29206,50.04103]}},
{"type":"Feature","id":"38169952","properties":{"josm":"w38169952","name":"Симферопольское шоссе 2","nameuk":"Сімферопольське шосе"},"geometry":{"type":"Point","coordinates":[34.20098,44.51376]}},
{"type":"Feature","id":"38240751","properties":{"josm":"w38240751","name":"майдан Павловський","nameuk":"Павловська площа"},"geometry":{"type":"Point","coordinates":[36.22857,49.98722]}},
{"type":"Feature","id":"86463430","properties":{"josm":"w86463430","name":"Терихівська вулиця","nameuk":"Скорохода вулиця"},"geometry":{"type":"Point","coordinates":[36.18417,49.99402]}},
{"type":"Feature","id":"89529678","properties":{"josm":"w89529678","name":"Велика Панасівська вулиця","nameuk":"Котлова вулиця"},"geometry":{"type":"Point","coordinates":[36.17757,50.03779]}},
{"type":"Feature","id":"106089998","properties":{"josm":"w106089998","name":"11-а Лінія","nameuk":"11-а лінія"},"geometry":{"type":"Point","coordinates":[30.27181,50.54138]}},
{"type":"Feature","id":"120418169","properties":{"josm":"w120418169","name":"Велика Панасівська вулиця","nameuk":"Котлова вулиця"},"geometry":{"type":"Point","coordinates":[36.18907,50.0215]}},
{"type":"Feature","id":"120418172","properties":{"josm":"w120418172","name":"Бориса Шрамка вулиця","nameuk":"Дацька вулиця"},"geometry":{"type":"Point","coordinates":[36.19789,50.00453]}},
{"type":"Feature","id":"120418930","properties":{"josm":"w120418930","name":"Велика Панасівська вулиця","nameuk":"Котлова вулиця"},"geometry":{"type":"Point","coordinates":[36.21509,49.99366]}},
{"type":"Feature","id":"131630898","properties":{"josm":"w131630898","name":"Велика Панасівська вулиця","nameuk":"Котлова вулиця"},"geometry":{"type":"Point","coordinates":[36.21102,49.99644]}},
{"type":"Feature","id":"131630899","properties":{"josm":"w131630899","name":"Велика Панасівська вулиця","nameuk":"Котлова вулиця"},"geometry":{"type":"Point","coordinates":[36.20172,50.00273]}},
{"type":"Feature","id":"131630900","properties":{"josm":"w131630900","name":"Велика Панасівська вулиця","nameuk":"Котлова вулиця"},"geometry":{"type":"Point","coordinates":[36.20572,49.99775]}},
{"type":"Feature","id":"131670492","properties":{"josm":"w131670492","name":"Велика Панасівська вулиця","nameuk":"Котлова вулиця"},"geometry":{"type":"Point","coordinates":[36.21064,49.99661]}},
{"type":"Feature","id":"131860045","properties":{"josm":"w131860045","name":"Соняшникова вулиця","nameuk":"Балашівська вулиця"},"geometry":{"type":"Point","coordinates":[38.36614,48.94955]}},
{"type":"Feature","id":"134690294","properties":{"josm":"w134690294","name":"Соняшникова вулиця","nameuk":"Балашівська вулиця"},"geometry":{"type":"Point","coordinates":[38.36765,48.94872]}},
{"type":"Feature","id":"135289283","properties":{"josm":"w135289283","name":"Бахмутская вулиця","nameuk":"Артема вулиця"},"geometry":{"type":"Point","coordinates":[38.3677,48.62063]}},
{"type":"Feature","id":"136240219","properties":{"josm":"w136240219","name":"Носаль Є. І. вулиця","nameuk":"Носаль вулиця"},"geometry":{"type":"Point","coordinates":[35.29509,47.37318]}},
{"type":"Feature","id":"137572682","properties":{"josm":"w137572682","name":"Молодежная улица","nameuk":"Молодіжна вулиця"},"geometry":{"type":"Point","coordinates":[38.10788,47.11351]}},
{"type":"Feature","id":"145109061","properties":{"josm":"w145109061","name":"Бакинских Комисаров улица","nameuk":"Бакинських Комісарів вулиця"},"geometry":{"type":"Point","coordinates":[38.46601,48.03765]}},
{"type":"Feature","id":"148112944","properties":{"josm":"w148112944","name":"Щорса вулиця (стор. пос.Дослідної ст.), Степова ввулиця (стор. с.Вигода)","nameuk":"Щорса вулиця"},"geometry":{"type":"Point","coordinates":[30.39234,46.60883]}},
{"type":"Feature","id":"148890730","properties":{"josm":"w148890730","name":"Chekhov street","nameuk":"Чехова"},"geometry":{"type":"Point","coordinates":[29.05186,50.30726]}},
{"type":"Feature","id":"159981419","properties":{"josm":"w159981419","name":"майдан Павловський","nameuk":"Павловська площа"},"geometry":{"type":"Point","coordinates":[36.23287,49.98833]}},
{"type":"Feature","id":"169332202","properties":{"josm":"w169332202","name":"Братів Савченків вулиця","nameuk":"Савченка вулиця"},"geometry":{"type":"Point","coordinates":[31.97926,49.48713]}},
{"type":"Feature","id":"175083114","properties":{"josm":"w175083114","name":"Рози Люксембург переулок","nameuk":"Рози Люксембург вулиця"},"geometry":{"type":"Point","coordinates":[38.56009,48.85844]}},
{"type":"Feature","id":"185802436","properties":{"josm":"w185802436","name":"1-й Ігоря Муратова провулок","nameuk":"1-й Тіняковський провулок"},"geometry":{"type":"Point","coordinates":[36.14971,49.98269]}},
{"type":"Feature","id":"185853212","properties":{"josm":"w185853212","name":"2-й Ігоря Муратова провулок","nameuk":"2-й Тіняковський провулок"},"geometry":{"type":"Point","coordinates":[36.14956,49.98184]}},
{"type":"Feature","id":"188636038","properties":{"josm":"w188636038","name":"Велика Панасівська вулиця","nameuk":"Котлова вулиця"},"geometry":{"type":"Point","coordinates":[36.20591,49.99782]}},
{"type":"Feature","id":"197843257","properties":{"josm":"w197843257","name":"майдан Павловський","nameuk":"Павловська площа"},"geometry":{"type":"Point","coordinates":[36.22929,49.9877]}},
{"type":"Feature","id":"198082110","properties":{"josm":"w198082110","name":"майдан Павловський","nameuk":"Павловська площа"},"geometry":{"type":"Point","coordinates":[36.23,49.98734]}},
{"type":"Feature","id":"198082111","properties":{"josm":"w198082111","name":"майдан Павловський","nameuk":"Павловська площа"},"geometry":{"type":"Point","coordinates":[36.23148,49.98784]}},
{"type":"Feature","id":"202938490","properties":{"josm":"w202938490","name":"Об’їздна вулиця","nameuk":"Об’їзна вулиця"},"geometry":{"type":"Point","coordinates":[33.72367,46.99864]}},
{"type":"Feature","id":"204094857","properties":{"josm":"w204094857","name":"Велика Панасівська вулиця","nameuk":"Котлова вулиця"},"geometry":{"type":"Point","coordinates":[36.20498,49.99822]}},
{"type":"Feature","id":"208446072","properties":{"josm":"w208446072","name":"майдан Павловський","nameuk":"Павловська площа"},"geometry":{"type":"Point","coordinates":[36.22773,49.98706]}},
{"type":"Feature","id":"262721205","properties":{"josm":"w262721205","name":"Чайкиної вулиця","nameuk":"Чайкіної вулиця"},"geometry":{"type":"Point","coordinates":[37.52005,47.5843]}},
{"type":"Feature","id":"304386665","properties":{"josm":"w304386665","name":"Молодежная улица","nameuk":"Молодіжна вулиця"},"geometry":{"type":"Point","coordinates":[38.07073,47.67644]}},
{"type":"Feature","id":"304386676","properties":{"josm":"w304386676","name":"Молодежная улица","nameuk":"Молодіжна вулиця"},"geometry":{"type":"Point","coordinates":[38.07138,47.67776]}},
{"type":"Feature","id":"333432096","properties":{"josm":"w333432096","name":"Молодежная улица","nameuk":"Молодіжна вулиця"},"geometry":{"type":"Point","coordinates":[38.07158,47.67763]}},
{"type":"Feature","id":"336116218","properties":{"josm":"w336116218","name":"Озерная улица","nameuk":"Озерна вулиця"},"geometry":{"type":"Point","coordinates":[37.44875,48.57493]}},
{"type":"Feature","id":"371304903","properties":{"josm":"w371304903","name":"Площа Миру","nameuk":"Площа Мира"},"geometry":{"type":"Point","coordinates":[37.58573,48.73752]}},
{"type":"Feature","id":"383036880","properties":{"josm":"w383036880","name":"Велика Панасівська вулиця","nameuk":"Котлова вулиця"},"geometry":{"type":"Point","coordinates":[36.20185,50.00278]}},
{"type":"Feature","id":"384988192","properties":{"josm":"w384988192","name":"Olehivska Street","nameuk":"Олегівська вулиця"},"geometry":{"type":"Point","coordinates":[30.50858,50.46428]}},
{"type":"Feature","id":"395269031","properties":{"josm":"w395269031","name":"Носаль Є. І. вулиця","nameuk":"Носаль вулиця"},"geometry":{"type":"Point","coordinates":[35.3103,47.37529]}},
{"type":"Feature","id":"396763280","properties":{"josm":"w396763280","name":"улица Ленина","nameuk":"Леніна вулиця"},"geometry":{"type":"Point","coordinates":[39.27501,48.49452]}},
{"type":"Feature"}
]}
