{
"type": "FeatureCollection",
"errorDescr": "Incorrect <b>name</b>-tag value",
"features": [
{"type":"Feature","id":"33792915","properties":{"josm":"w33792915","name":"Площадь Ленина","nameuk":"Площа Леніна"},"geometry":{"type":"Point","coordinates":[35.25616,48.63399]}},
{"type":"Feature","id":"76858025","properties":{"josm":"w76858025","name":"1-я лінія","nameuk":"1-а лінія"},"geometry":{"type":"Point","coordinates":[30.81517,50.61811]}},
{"type":"Feature","id":"83296600","properties":{"josm":"w83296600","name":"Чонгарский мост","nameuk":"Чонгарський міст"},"geometry":{"type":"Point","coordinates":[34.55253,45.98796]}},
{"type":"Feature","id":"102687592","properties":{"josm":"w102687592","name":"Солікамська вулиця","nameuk":"Соликамская вулиця"},"geometry":{"type":"Point","coordinates":[37.87854,47.98574]}},
{"type":"Feature","id":"105706597","properties":{"josm":"w105706597","name":"Каляева улица","nameuk":"Каляєва вулиця"},"geometry":{"type":"Point","coordinates":[36.69209,49.84241]}},
{"type":"Feature","id":"106089998","properties":{"josm":"w106089998","name":"11-а Лінія","nameuk":"11-а лінія"},"geometry":{"type":"Point","coordinates":[30.27181,50.54138]}},
{"type":"Feature","id":"106271624","properties":{"josm":"w106271624","name":"Кожедуба улица","nameuk":"Кожедуба вулиця"},"geometry":{"type":"Point","coordinates":[36.68808,49.84178]}},
{"type":"Feature","id":"112682964","properties":{"josm":"w112682964","name":"Желанна вулиця","nameuk":"Бажана вулиця"},"geometry":{"type":"Point","coordinates":[37.60074,47.97009]}},
{"type":"Feature","id":"114522645","properties":{"josm":"w114522645","name":"Хлібодарна вулиця","nameuk":"Хлебодарная вулиця"},"geometry":{"type":"Point","coordinates":[37.77355,48.00927]}},
{"type":"Feature","id":"114523373","properties":{"josm":"w114523373","name":"Хлібодарна вулиця","nameuk":"Хлебодарная вулиця"},"geometry":{"type":"Point","coordinates":[37.77172,48.01348]}},
{"type":"Feature","id":"114523799","properties":{"josm":"w114523799","name":"Хлібодарна вулиця","nameuk":"Хлебодарная вулиця"},"geometry":{"type":"Point","coordinates":[37.76268,48.01411]}},
{"type":"Feature","id":"114928585","properties":{"josm":"w114928585","name":"Центральна вулиця","nameuk":"Леніна вулиця"},"geometry":{"type":"Point","coordinates":[31.65206,48.82675]}},
{"type":"Feature","id":"115554203","properties":{"josm":"w115554203","name":"Юр’єва вулиця","nameuk":"Юрійова вулиця"},"geometry":{"type":"Point","coordinates":[37.80535,48.06259]}},
{"type":"Feature","id":"116569276","properties":{"josm":"w116569276","name":"Юрія Смирнова вулиця","nameuk":"Юрія Смірнова вулиця"},"geometry":{"type":"Point","coordinates":[37.7662,48.02867]}},
{"type":"Feature","id":"122835271","properties":{"josm":"w122835271","name":"Молодежная улица","nameuk":"Молодіжна вулиця"},"geometry":{"type":"Point","coordinates":[38.44755,47.85554]}},
{"type":"Feature","id":"126632935","properties":{"josm":"w126632935","name":"Магнiтогорська вулиця","nameuk":"Магнітогорська вулиця"},"geometry":{"type":"Point","coordinates":[37.5917,48.75062]}},
{"type":"Feature","id":"129835863","properties":{"josm":"w129835863","name":"Хлібодарна вулиця","nameuk":"Хлебодарная вулиця"},"geometry":{"type":"Point","coordinates":[37.77402,48.00254]}},
{"type":"Feature","id":"134103486","properties":{"josm":"w134103486","name":"Молодежная улица","nameuk":"Молодіжна вулиця"},"geometry":{"type":"Point","coordinates":[37.40126,46.9681]}},
{"type":"Feature","id":"136438191","properties":{"josm":"w136438191","name":"Желанна вулиця","nameuk":"Бажана вулиця"},"geometry":{"type":"Point","coordinates":[37.58953,47.97192]}},
{"type":"Feature","id":"137572045","properties":{"josm":"w137572045","name":"50-лет СССР улица","nameuk":"50 років СРСР вулиця"},"geometry":{"type":"Point","coordinates":[38.10461,47.1149]}},
{"type":"Feature","id":"137572047","properties":{"josm":"w137572047","name":"60-лет СССР улица","nameuk":"60 років СРСР вулиця"},"geometry":{"type":"Point","coordinates":[38.08159,47.11838]}},
{"type":"Feature","id":"137572300","properties":{"josm":"w137572300","name":"50-лет СССР улица","nameuk":"50 років СРСР вулиця"},"geometry":{"type":"Point","coordinates":[38.10274,47.10808]}},
{"type":"Feature","id":"137572682","properties":{"josm":"w137572682","name":"Молодежная улица","nameuk":"Молодіжна вулиця"},"geometry":{"type":"Point","coordinates":[38.10788,47.11351]}},
{"type":"Feature","id":"142957877","properties":{"josm":"w142957877","name":"8 Сьезда Советов улица","nameuk":"8-го З’їзду Рад вулиця"},"geometry":{"type":"Point","coordinates":[38.48762,47.78849]}},
{"type":"Feature","id":"143065329","properties":{"josm":"w143065329","name":"Тобілевичів провулок","nameuk":"Бабушкіна провулок"},"geometry":{"type":"Point","coordinates":[31.6544,48.7935]}},
{"type":"Feature","id":"143065331","properties":{"josm":"w143065331","name":"Євгенія Присяжного вулиця","nameuk":"Карла Маркса вулиця"},"geometry":{"type":"Point","coordinates":[31.65124,48.79176]}},
{"type":"Feature","id":"143068808","properties":{"josm":"w143068808","name":"Левшиних вулиця","nameuk":"Свердлова вулиця"},"geometry":{"type":"Point","coordinates":[31.66554,48.78216]}},
{"type":"Feature","id":"143068813","properties":{"josm":"w143068813","name":"Ганни Дмитрян вулиця","nameuk":"Воровського вулиця"},"geometry":{"type":"Point","coordinates":[31.64689,48.78975]}},
{"type":"Feature","id":"143068816","properties":{"josm":"w143068816","name":"Білоглинська вулиця","nameuk":"Калініна вулиця"},"geometry":{"type":"Point","coordinates":[31.65774,48.7798]}},
{"type":"Feature","id":"143068820","properties":{"josm":"w143068820","name":"Котляревського вулиця","nameuk":"Баумана вулиця"},"geometry":{"type":"Point","coordinates":[31.65295,48.795]}},
{"type":"Feature","id":"143068826","properties":{"josm":"w143068826","name":"Зарічна вулиця","nameuk":"Котовського вулиця"},"geometry":{"type":"Point","coordinates":[31.65876,48.78197]}},
{"type":"Feature","id":"143068832","properties":{"josm":"w143068832","name":"Василя Стуса провулок","nameuk":"Маяковського вулиця"},"geometry":{"type":"Point","coordinates":[31.64267,48.79166]}},
{"type":"Feature","id":"143085458","properties":{"josm":"w143085458","name":"Маланюка вулиця","nameuk":"Ворошилова вулиця"},"geometry":{"type":"Point","coordinates":[31.66739,48.78952]}},
{"type":"Feature","id":"143085467","properties":{"josm":"w143085467","name":"Петра Біби вулиця","nameuk":"Дзержинського вулиця"},"geometry":{"type":"Point","coordinates":[31.6635,48.79147]}},
{"type":"Feature","id":"143085468","properties":{"josm":"w143085468","name":"Гайова вулиця","nameuk":"Боженка вулиця"},"geometry":{"type":"Point","coordinates":[31.66044,48.79009]}},
{"type":"Feature","id":"143085482","properties":{"josm":"w143085482","name":"Хутірська вулиця","nameuk":"Фрунзе вулиця"},"geometry":{"type":"Point","coordinates":[31.65963,48.79054]}},
{"type":"Feature","id":"143085483","properties":{"josm":"w143085483","name":"Євгенія Присяжного вулиця","nameuk":"Карла Маркса вулиця"},"geometry":{"type":"Point","coordinates":[31.65479,48.7956]}},
{"type":"Feature","id":"143085495","properties":{"josm":"w143085495","name":"Яновського вулиця","nameuk":"70-річчя Жовтня вулиця"},"geometry":{"type":"Point","coordinates":[31.66383,48.79327]}},
{"type":"Feature","id":"143085517","properties":{"josm":"w143085517","name":"Гайова вулиця","nameuk":"Боженка вулиця"},"geometry":{"type":"Point","coordinates":[31.66742,48.7902]}},
{"type":"Feature","id":"143085529","properties":{"josm":"w143085529","name":"Хутірська вулиця","nameuk":"Фрунзе вулиця"},"geometry":{"type":"Point","coordinates":[31.66743,48.79088]}},
{"type":"Feature","id":"143085533","properties":{"josm":"w143085533","name":"Михайла Коцюбинського вулиця","nameuk":"Коцюбинського вулиця"},"geometry":{"type":"Point","coordinates":[31.66469,48.79549]}},
{"type":"Feature","id":"143085535","properties":{"josm":"w143085535","name":"Степана Кожум'яки вулиця","nameuk":"Рози Люксембург вулиця"},"geometry":{"type":"Point","coordinates":[31.64382,48.78856]}},
{"type":"Feature","id":"143098594","properties":{"josm":"w143098594","name":"Бессарабська вулиця","nameuk":"Ватутіна вулиця"},"geometry":{"type":"Point","coordinates":[31.65485,48.7771]}},
{"type":"Feature","id":"143098658","properties":{"josm":"w143098658","name":"Подолинського провулок","nameuk":"Рози Люксембург провулок"},"geometry":{"type":"Point","coordinates":[31.64228,48.78801]}},
{"type":"Feature","id":"143220901","properties":{"josm":"w143220901","name":"Валянський провулок","nameuk":"Щорса провулок"},"geometry":{"type":"Point","coordinates":[31.62718,48.78388]}},
{"type":"Feature","id":"143220935","properties":{"josm":"w143220935","name":"Павла Афанасьєва вулиця","nameuk":"Енгельса вулиця"},"geometry":{"type":"Point","coordinates":[31.63859,48.78158]}},
{"type":"Feature","id":"143220940","properties":{"josm":"w143220940","name":"Архієрейський провулок","nameuk":"Ватутіна провулок"},"geometry":{"type":"Point","coordinates":[31.65326,48.7758]}},
{"type":"Feature","id":"143220943","properties":{"josm":"w143220943","name":"Вищевигінна вулиця","nameuk":"Колгоспна вулиця"},"geometry":{"type":"Point","coordinates":[31.61912,48.77818]}},
{"type":"Feature","id":"143220957","properties":{"josm":"w143220957","name":"Павла Афанасьєва вулиця","nameuk":"Енгельса вулиця"},"geometry":{"type":"Point","coordinates":[31.63016,48.78516]}},
{"type":"Feature","id":"143220962","properties":{"josm":"w143220962","name":"Чорногорська вулиця","nameuk":"Будьонного вулиця"},"geometry":{"type":"Point","coordinates":[31.63192,48.77971]}},
{"type":"Feature","id":"143220973","properties":{"josm":"w143220973","name":"Гептурський провулок","nameuk":"Комсомольський провулок"},"geometry":{"type":"Point","coordinates":[31.63737,48.81879]}},
{"type":"Feature","id":"143221031","properties":{"josm":"w143221031","name":"Карпенка-Карого вулиця","nameuk":"Щорса вулиця"},"geometry":{"type":"Point","coordinates":[31.63668,48.77953]}},
{"type":"Feature","id":"143221034","properties":{"josm":"w143221034","name":"Гептурський провулок","nameuk":"Комсомольський провулок"},"geometry":{"type":"Point","coordinates":[31.63919,48.81783]}},
{"type":"Feature","id":"143221039","properties":{"josm":"w143221039","name":"Вищевигінна вулиця","nameuk":"Колгоспна вулиця"},"geometry":{"type":"Point","coordinates":[31.62407,48.77601]}},
{"type":"Feature","id":"143221040","properties":{"josm":"w143221040","name":"Перемоги вулиця","nameuk":"40-річчя Перемоги вулиця"},"geometry":{"type":"Point","coordinates":[31.66801,48.79476]}},
{"type":"Feature","id":"143234524","properties":{"josm":"w143234524","name":"Автомобілістів провулок","nameuk":"Петровського провулок"},"geometry":{"type":"Point","coordinates":[31.6514,48.82553]}},
{"type":"Feature","id":"143234529","properties":{"josm":"w143234529","name":"Гуляйпільський тупик","nameuk":"Луначарського тупик"},"geometry":{"type":"Point","coordinates":[31.64016,48.81488]}},
{"type":"Feature","id":"143234533","properties":{"josm":"w143234533","name":"Холодноярська вулиця","nameuk":"Чапаєва вулиця"},"geometry":{"type":"Point","coordinates":[31.65464,48.81663]}},
{"type":"Feature","id":"143234559","properties":{"josm":"w143234559","name":"Ілінська вулиця","nameuk":"Жовтнева вулиця"},"geometry":{"type":"Point","coordinates":[31.63802,48.78313]}},
{"type":"Feature","id":"143234561","properties":{"josm":"w143234561","name":"Бродських вулиця","nameuk":"Комсомольська вулиця"},"geometry":{"type":"Point","coordinates":[31.65806,48.81775]}},
{"type":"Feature","id":"143234567","properties":{"josm":"w143234567","name":"Широка вулиця","nameuk":"Петровського вулиця"},"geometry":{"type":"Point","coordinates":[31.65396,48.82262]}},
{"type":"Feature","id":"143234568","properties":{"josm":"w143234568","name":"Єврейська вулиця","nameuk":"Артема вулиця"},"geometry":{"type":"Point","coordinates":[31.66031,48.81515]}},
{"type":"Feature","id":"143234571","properties":{"josm":"w143234571","name":"Лятошинського провулок","nameuk":"Артема провулок"},"geometry":{"type":"Point","coordinates":[31.65756,48.81379]}},
{"type":"Feature","id":"143234579","properties":{"josm":"w143234579","name":"Бродських вулиця","nameuk":"Комсомольська вулиця"},"geometry":{"type":"Point","coordinates":[31.63919,48.81955]}},
{"type":"Feature","id":"143234584","properties":{"josm":"w143234584","name":"Костьольний провулок","nameuk":"Чапаєва провулок"},"geometry":{"type":"Point","coordinates":[31.65219,48.81276]}},
{"type":"Feature","id":"143234588","properties":{"josm":"w143234588","name":"Івана Бойка провулок","nameuk":"Луначарського провулок"},"geometry":{"type":"Point","coordinates":[31.65299,48.8138]}},
{"type":"Feature","id":"144071007","properties":{"josm":"w144071007","name":"БАМ","nameuk":"БАМ вулиця"},"geometry":{"type":"Point","coordinates":[31.6576,48.78424]}},
{"type":"Feature","id":"144113419","properties":{"josm":"w144113419","name":"Андрія Гурічева вулиця","nameuk":"Кірова вулиця"},"geometry":{"type":"Point","coordinates":[31.65545,48.79435]}},
{"type":"Feature","id":"145109061","properties":{"josm":"w145109061","name":"Бакинских Комисаров улица","nameuk":"Бакинських Комісарів вулиця"},"geometry":{"type":"Point","coordinates":[38.46601,48.03765]}},
{"type":"Feature","id":"148067325","properties":{"josm":"w148067325","name":"Златопольська вулиця","nameuk":"Златопільська вулиця"},"geometry":{"type":"Point","coordinates":[32.21317,48.48166]}},
{"type":"Feature","id":"148112944","properties":{"josm":"w148112944","name":"Щорса вулиця (стор. пос.Дослідної ст.), Степова ввулиця (стор. с.Вигода)","nameuk":"Щорса вулиця"},"geometry":{"type":"Point","coordinates":[30.39234,46.60883]}},
{"type":"Feature","id":"152450581","properties":{"josm":"w152450581","name":"50-лет Победы улица","nameuk":"50 років Перемоги вулиця"},"geometry":{"type":"Point","coordinates":[38.03026,47.41327]}},
{"type":"Feature","id":"153686590","properties":{"josm":"w153686590","name":"Бродських вулиця","nameuk":"Комсомольська вулиця"},"geometry":{"type":"Point","coordinates":[31.64875,48.81918]}},
{"type":"Feature","id":"155861824","properties":{"josm":"w155861824","name":"ул. Ленина","nameuk":"вул. Леніна"},"geometry":{"type":"Point","coordinates":[30.55065,46.48445]}},
{"type":"Feature","id":"161710135","properties":{"josm":"w161710135","name":"Центральна вулиця","nameuk":"Леніна вулиця"},"geometry":{"type":"Point","coordinates":[31.64388,48.78111]}},
{"type":"Feature","id":"162131890","properties":{"josm":"w162131890","name":"Центральна вулиця","nameuk":"Леніна вулиця"},"geometry":{"type":"Point","coordinates":[31.65103,48.82024]}},
{"type":"Feature","id":"167455343","properties":{"josm":"w167455343","name":"Турунська вулиця","nameuk":"Турунская вулиця"},"geometry":{"type":"Point","coordinates":[37.67136,47.92072]}},
{"type":"Feature","id":"167458567","properties":{"josm":"w167458567","name":"Проїжджа вулиця","nameuk":"Проїздна вулиця"},"geometry":{"type":"Point","coordinates":[37.67472,47.91954]}},
{"type":"Feature","id":"167459059","properties":{"josm":"w167459059","name":"Бринька вулиця","nameuk":"Бринько вулиця"},"geometry":{"type":"Point","coordinates":[37.6785,47.92013]}},
{"type":"Feature","id":"169566576","properties":{"josm":"w169566576","name":"Лип'янська вулиця","nameuk":"Ганни Дмитришиної вулиця"},"geometry":{"type":"Point","coordinates":[26.02729,50.55492]}},
{"type":"Feature","id":"171633340","properties":{"josm":"w171633340","name":"Верхньошевченківський провулок","nameuk":"Верхньошевченківский провулок"},"geometry":{"type":"Point","coordinates":[37.17433,48.41055]}},
{"type":"Feature","id":"175083114","properties":{"josm":"w175083114","name":"Рози Люксембург переулок","nameuk":"Рози Люксембург вулиця"},"geometry":{"type":"Point","coordinates":[38.56009,48.85844]}},
{"type":"Feature","id":"179312419","properties":{"josm":"w179312419","name":"Озерная улица","nameuk":"Озерна вулиця"},"geometry":{"type":"Point","coordinates":[37.98966,48.27831]}},
{"type":"Feature","id":"183666170","properties":{"josm":"w183666170","name":"Скелевая улица","nameuk":"Смирнова вулиця"},"geometry":{"type":"Point","coordinates":[38.47919,47.89175]}},
{"type":"Feature","id":"188287368","properties":{"josm":"w188287368","name":"ул. 2-я Сортоиспытательная","nameuk":"вул. 2-я Сортовипробувальна"},"geometry":{"type":"Point","coordinates":[30.56051,46.45858]}},
{"type":"Feature","id":"188287407","properties":{"josm":"w188287407","name":"ул. Черноморская","nameuk":"вул. Чорноморська"},"geometry":{"type":"Point","coordinates":[30.55858,46.45833]}},
{"type":"Feature","id":"188289299","properties":{"josm":"w188289299","name":"ул. Шевченко","nameuk":"вул. Шевченко"},"geometry":{"type":"Point","coordinates":[30.57788,46.44246]}},
{"type":"Feature","id":"188318498","properties":{"josm":"w188318498","name":"Молодежная улица","nameuk":"Молодіжна вулиця"},"geometry":{"type":"Point","coordinates":[37.91232,48.18959]}},
{"type":"Feature","id":"188318545","properties":{"josm":"w188318545","name":"Молодежная улица","nameuk":"Молодіжна вулиця"},"geometry":{"type":"Point","coordinates":[37.9188,48.18716]}},
{"type":"Feature","id":"188318552","properties":{"josm":"w188318552","name":"Молодежная улица","nameuk":"Молодіжна вулиця"},"geometry":{"type":"Point","coordinates":[37.91265,48.1889]}},
{"type":"Feature","id":"200763050","properties":{"josm":"w200763050","name":"Южная дорога","nameuk":"Південна дорога"},"geometry":{"type":"Point","coordinates":[30.78038,46.56134]}},
{"type":"Feature","id":"205185203","properties":{"josm":"w205185203","name":"Южная дорога","nameuk":"Південна дорога"},"geometry":{"type":"Point","coordinates":[30.78052,46.56124]}},
{"type":"Feature","id":"210554239","properties":{"josm":"w210554239","name":"Магеллана Ф. вулиця","nameuk":"Магеллана вулиця"},"geometry":{"type":"Point","coordinates":[37.99315,48.06218]}},
{"type":"Feature","id":"221866353","properties":{"josm":"w221866353","name":"Кухарева вулиця","nameuk":"23 Кухарева вулиця"},"geometry":{"type":"Point","coordinates":[31.76853,47.31415]}},
{"type":"Feature","id":"227460040","properties":{"josm":"w227460040","name":"ул. Черноморская","nameuk":"вул. Чорноморська"},"geometry":{"type":"Point","coordinates":[30.5602,46.45419]}},
{"type":"Feature","id":"227460043","properties":{"josm":"w227460043","name":"ул. Профсоюзная","nameuk":"вул. Профспілкова"},"geometry":{"type":"Point","coordinates":[30.56245,46.4524]}},
{"type":"Feature","id":"247789161","properties":{"josm":"w247789161","name":"Молодежная улица","nameuk":"Молодіжна вулиця"},"geometry":{"type":"Point","coordinates":[37.91648,48.18842]}},
{"type":"Feature","id":"251255495","properties":{"josm":"w251255495","name":"Зеленая улица","nameuk":"Зелена вулиця"},"geometry":{"type":"Point","coordinates":[33.3093,51.7711]}},
{"type":"Feature","id":"260620816","properties":{"josm":"w260620816","name":"улица Матросова","nameuk":"Матросова вулиця"},"geometry":{"type":"Point","coordinates":[34.74448,45.44781]}},
{"type":"Feature","id":"260620840","properties":{"josm":"w260620840","name":"улица Матросова","nameuk":"Матросова вулиця"},"geometry":{"type":"Point","coordinates":[34.74344,45.4481]}},
{"type":"Feature","id":"260620841","properties":{"josm":"w260620841","name":"улица Матросова","nameuk":"Матросова вулиця"},"geometry":{"type":"Point","coordinates":[34.74159,45.44861]}},
{"type":"Feature","id":"260620851","properties":{"josm":"w260620851","name":"улица Матросова","nameuk":"Матросова вулиця"},"geometry":{"type":"Point","coordinates":[34.73895,45.44863]}},
{"type":"Feature","id":"262721205","properties":{"josm":"w262721205","name":"Чайкиної вулиця","nameuk":"Чайкіної вулиця"},"geometry":{"type":"Point","coordinates":[37.52005,47.5843]}},
{"type":"Feature","id":"268115760","properties":{"josm":"w268115760","name":"Златопольська вулиця","nameuk":"Златопільська вулиця"},"geometry":{"type":"Point","coordinates":[32.21048,48.48023]}},
{"type":"Feature","id":"268115762","properties":{"josm":"w268115762","name":"Златопольська вулиця","nameuk":"Златопільська вулиця"},"geometry":{"type":"Point","coordinates":[32.20853,48.47917]}},
{"type":"Feature","id":"272921005","properties":{"josm":"w272921005","name":"Матяхина переулок","nameuk":"Матяхіна провулок"},"geometry":{"type":"Point","coordinates":[34.93156,45.33989]}},
{"type":"Feature","id":"279537294","properties":{"josm":"w279537294","name":"Бринька вулиця","nameuk":"Бринько вулиця"},"geometry":{"type":"Point","coordinates":[37.67722,47.91894]}},
{"type":"Feature","id":"290926379","properties":{"josm":"w290926379","name":"Холодноярська вулиця","nameuk":"Чапаєва вулиця"},"geometry":{"type":"Point","coordinates":[31.65516,48.82338]}},
{"type":"Feature","id":"294654872","properties":{"josm":"w294654872","name":"Катовицька вулиця","nameuk":"Катовіцька вулиця"},"geometry":{"type":"Point","coordinates":[37.66677,47.93108]}},
{"type":"Feature","id":"294813883","properties":{"josm":"w294813883","name":"Черняхівського вулиця","nameuk":"Черняховського вулиця"},"geometry":{"type":"Point","coordinates":[38.01292,48.3559]}},
{"type":"Feature","id":"294867594","properties":{"josm":"w294867594","name":"Центральна вулиця","nameuk":"Леніна вулиця"},"geometry":{"type":"Point","coordinates":[31.65078,48.80603]}},
{"type":"Feature","id":"295281340","properties":{"josm":"w295281340","name":"Чкалова улица","nameuk":"Садова вулиця"},"geometry":{"type":"Point","coordinates":[30.24314,46.44675]}},
{"type":"Feature","id":"300862645","properties":{"josm":"w300862645","name":"Молодежная улица","nameuk":"Молодіжна вулиця"},"geometry":{"type":"Point","coordinates":[37.39127,47.23169]}},
{"type":"Feature","id":"304386665","properties":{"josm":"w304386665","name":"Молодежная улица","nameuk":"Молодіжна вулиця"},"geometry":{"type":"Point","coordinates":[38.07073,47.67644]}},
{"type":"Feature","id":"304386676","properties":{"josm":"w304386676","name":"Молодежная улица","nameuk":"Молодіжна вулиця"},"geometry":{"type":"Point","coordinates":[38.07138,47.67776]}},
{"type":"Feature","id":"315917350","properties":{"josm":"w315917350","name":"ул. Шевченко","nameuk":"вул. Шевченко"},"geometry":{"type":"Point","coordinates":[30.57709,46.44972]}},
{"type":"Feature","id":"315917992","properties":{"josm":"w315917992","name":"ул. Шевченко","nameuk":"вул. Шевченко"},"geometry":{"type":"Point","coordinates":[30.5795,46.43511]}},
{"type":"Feature","id":"323550643","properties":{"josm":"w323550643","name":"Дворецька вулиця","nameuk":"17 вересня вулиця"},"geometry":{"type":"Point","coordinates":[26.03028,50.54351]}},
{"type":"Feature","id":"324619787","properties":{"josm":"w324619787","name":"Мирна вулиця","nameuk":"вулиця Мирна"},"geometry":{"type":"Point","coordinates":[30.50731,50.46409]}},
{"type":"Feature","id":"333432096","properties":{"josm":"w333432096","name":"Молодежная улица","nameuk":"Молодіжна вулиця"},"geometry":{"type":"Point","coordinates":[38.07158,47.67763]}},
{"type":"Feature","id":"335392530","properties":{"josm":"w335392530","name":"Молодежная улица","nameuk":"Молодіжна вулиця"},"geometry":{"type":"Point","coordinates":[37.17476,47.98792]}},
{"type":"Feature","id":"335673623","properties":{"josm":"w335673623","name":"60-лет СССР улица","nameuk":"60 років СРСР вулиця"},"geometry":{"type":"Point","coordinates":[37.19007,47.0544]}},
{"type":"Feature","id":"335976624","properties":{"josm":"w335976624","name":"Молодежная улица","nameuk":"Молодіжна вулиця"},"geometry":{"type":"Point","coordinates":[38.94028,47.92131]}},
{"type":"Feature","id":"336116218","properties":{"josm":"w336116218","name":"Озерная улица","nameuk":"Озерна вулиця"},"geometry":{"type":"Point","coordinates":[37.44875,48.57493]}},
{"type":"Feature","id":"336603463","properties":{"josm":"w336603463","name":"Молодежная улица","nameuk":"Молодіжна вулиця"},"geometry":{"type":"Point","coordinates":[38.17663,47.94606]}},
{"type":"Feature","id":"364393518","properties":{"josm":"w364393518","name":"8 Сьезда Советов улица","nameuk":"8-го З’їзду Рад вулиця"},"geometry":{"type":"Point","coordinates":[38.49673,47.78851]}},
{"type":"Feature","id":"374272911","properties":{"josm":"w374272911","name":"Зеленая улица","nameuk":"Зелена вулиця"},"geometry":{"type":"Point","coordinates":[33.30461,51.76865]}},
{"type":"Feature"}
]}
