{
"type": "FeatureCollection",
"errorDescr": "Incorrect <b>name</b>-tag value",
"features": [
{"type":"Feature","id":"23757595","properties":{"josm":"w23757595","name":"майдан Павловський","nameuk":"Павловська площа"},"geometry":{"type":"Point","coordinates":[36.22767,49.98741]}},
{"type":"Feature","id":"23861941","properties":{"josm":"w23861941","name":"майдан Павловський","nameuk":"Павловська площа"},"geometry":{"type":"Point","coordinates":[36.23152,49.98804]}},
{"type":"Feature","id":"30173400","properties":{"josm":"w30173400","name":"Лозовеньківський проспект","nameuk":"Окружна дорога"},"geometry":{"type":"Point","coordinates":[36.18046,50.05363]}},
{"type":"Feature","id":"31236417","properties":{"josm":"w31236417","name":"Мінський проспект","nameuk":"Мінське шосе"},"geometry":{"type":"Point","coordinates":[30.45122,50.5238]}},
{"type":"Feature","id":"31526969","properties":{"josm":"w31526969","name":"Измаильская улица","nameuk":"Ізмаїльська вулиця"},"geometry":{"type":"Point","coordinates":[30.69979,46.37175]}},
{"type":"Feature","id":"31526975","properties":{"josm":"w31526975","name":"Институтская улица","nameuk":"Інститутська вулиця"},"geometry":{"type":"Point","coordinates":[30.70066,46.37729]}},
{"type":"Feature","id":"31526977","properties":{"josm":"w31526977","name":"Берёзовая улица","nameuk":"Березова вулиця"},"geometry":{"type":"Point","coordinates":[30.70058,46.38127]}},
{"type":"Feature","id":"31527008","properties":{"josm":"w31527008","name":"Татарбунарская улица","nameuk":"Татарбунарська вулиця"},"geometry":{"type":"Point","coordinates":[30.69769,46.37228]}},
{"type":"Feature","id":"31527021","properties":{"josm":"w31527021","name":"Арцизская улица","nameuk":"Арцизька вулиця"},"geometry":{"type":"Point","coordinates":[30.69995,46.37142]}},
{"type":"Feature","id":"31527031","properties":{"josm":"w31527031","name":"Овидиопольская улица","nameuk":"Овідіопольська вулиця"},"geometry":{"type":"Point","coordinates":[30.70114,46.37154]}},
{"type":"Feature","id":"33684480","properties":{"josm":"w33684480","name":"Руслана Плоходька вулиця","nameuk":"Роберта Ейдемана вулиця"},"geometry":{"type":"Point","coordinates":[36.35081,49.99435]}},
{"type":"Feature","id":"34203129","properties":{"josm":"w34203129","name":"Копиловська вулиця","nameuk":"Першої Маївки вулиця"},"geometry":{"type":"Point","coordinates":[36.2085,50.00102]}},
{"type":"Feature","id":"34497738","properties":{"josm":"w34497738","name":"3-й Зерновой проезд","nameuk":"3-й Зерновий проїзд"},"geometry":{"type":"Point","coordinates":[36.27116,49.95139]}},
{"type":"Feature","id":"34572897","properties":{"josm":"w34572897","name":"провулок Шарівський","nameuk":"Спортивна вулиця"},"geometry":{"type":"Point","coordinates":[36.157,49.9808]}},
{"type":"Feature","id":"34679755","properties":{"josm":"w34679755","name":"Терихівська вулиця","nameuk":"Скорохода вулиця"},"geometry":{"type":"Point","coordinates":[36.18191,49.99515]}},
{"type":"Feature","id":"34838730","properties":{"josm":"w34838730","name":"Сільський в’їзд","nameuk":"Колгоспний в’їзд"},"geometry":{"type":"Point","coordinates":[36.30029,50.05467]}},
{"type":"Feature","id":"34839561","properties":{"josm":"w34839561","name":"Стара Озерянка вулиця","nameuk":"Аральська вулиця"},"geometry":{"type":"Point","coordinates":[36.33871,50.04067]}},
{"type":"Feature","id":"35478586","properties":{"josm":"w35478586","name":"Козацкий переулок","nameuk":"Будівельна вулиця"},"geometry":{"type":"Point","coordinates":[33.64273,47.56743]}},
{"type":"Feature","id":"36813327","properties":{"josm":"w36813327","name":"Весняна вулиця","nameuk":"Дзержинського вулиця"},"geometry":{"type":"Point","coordinates":[30.92993,50.25435]}},
{"type":"Feature","id":"37159697","properties":{"josm":"w37159697","name":"Петропавлівська  вулиця","nameuk":"Будівельна вулиця"},"geometry":{"type":"Point","coordinates":[33.6425,47.56962]}},
{"type":"Feature","id":"38169952","properties":{"josm":"w38169952","name":"Симферопольское шоссе 2","nameuk":"Сімферопольське шосе"},"geometry":{"type":"Point","coordinates":[34.20098,44.51376]}},
{"type":"Feature","id":"38207727","properties":{"josm":"w38207727","name":"Революційна вулиця","nameuk":"Степана Тільги вулиця"},"geometry":{"type":"Point","coordinates":[33.41367,47.89836]}},
{"type":"Feature","id":"38240751","properties":{"josm":"w38240751","name":"майдан Павловський","nameuk":"Павловська площа"},"geometry":{"type":"Point","coordinates":[36.22856,49.98729]}},
{"type":"Feature","id":"40369703","properties":{"josm":"w40369703","name":"Героїв Майдану вулиця","nameuk":"Героїв Майдан вулиця"},"geometry":{"type":"Point","coordinates":[26.34388,49.00966]}},
{"type":"Feature","id":"42897767","properties":{"josm":"w42897767","name":"Кирова вулиця","nameuk":"Кірова вулиця"},"geometry":{"type":"Point","coordinates":[38.23497,49.05216]}},
{"type":"Feature","id":"43968392","properties":{"josm":"w43968392","name":"2-й Парковий проїзд","nameuk":"2-я Парковий проїзд"},"geometry":{"type":"Point","coordinates":[34.82685,50.8898]}},
{"type":"Feature","id":"50848921","properties":{"josm":"w50848921","name":"вулиця Садовий бульвар","nameuk":"Садовий бульвар"},"geometry":{"type":"Point","coordinates":[33.47599,51.86586]}},
{"type":"Feature","id":"61009925","properties":{"josm":"w61009925","name":"Лычака вулиця","nameuk":"Личака вулиця"},"geometry":{"type":"Point","coordinates":[30.24545,50.51365]}},
{"type":"Feature","id":"66862263","properties":{"josm":"w66862263","name":"Січових Стрільців вулиця","nameuk":"Січових стрільців вулиця"},"geometry":{"type":"Point","coordinates":[30.12832,49.77636]}},
{"type":"Feature","id":"69253381","properties":{"josm":"w69253381","name":"Волошкова вулиця","nameuk":"Василькова вулиця"},"geometry":{"type":"Point","coordinates":[34.75931,50.93465]}},
{"type":"Feature","id":"72860071","properties":{"josm":"w72860071","name":"Гостинна вулиця","nameuk":"Тарасівська вулиця"},"geometry":{"type":"Point","coordinates":[37.25311,49.21208]}},
{"type":"Feature","id":"79817063","properties":{"josm":"w79817063","name":"П. Морозова вулиця","nameuk":"П.Морозова вулиця"},"geometry":{"type":"Point","coordinates":[37.29987,48.13853]}},
{"type":"Feature","id":"81204334","properties":{"josm":"w81204334","name":"Морозова вулиця","nameuk":"Степана Мазурця вулиця"},"geometry":{"type":"Point","coordinates":[25.36354,50.74829]}},
{"type":"Feature","id":"83296600","properties":{"josm":"w83296600","name":"Чонгарский мост","nameuk":"Чонгарський міст"},"geometry":{"type":"Point","coordinates":[34.55253,45.98796]}},
{"type":"Feature","id":"86463430","properties":{"josm":"w86463430","name":"Терихівська вулиця","nameuk":"Скорохода вулиця"},"geometry":{"type":"Point","coordinates":[36.18417,49.99402]}},
{"type":"Feature","id":"86859486","properties":{"josm":"w86859486","name":"Колійний провулок","nameuk":"Піщаний провулок"},"geometry":{"type":"Point","coordinates":[36.24212,49.95272]}},
{"type":"Feature","id":"95857371","properties":{"josm":"w95857371","name":"Road to central square (museum)","nameuk":"Дорога до центральної площі (музею)"},"geometry":{"type":"Point","coordinates":[30.05834,49.81334]}},
{"type":"Feature","id":"95857375","properties":{"josm":"w95857375","name":"Spruce Avenue","nameuk":"Ялинкова алея"},"geometry":{"type":"Point","coordinates":[30.06434,49.81329]}},
{"type":"Feature","id":"96562257","properties":{"josm":"w96562257","name":"Балтийская улица","nameuk":"Балтійська вулиця"},"geometry":{"type":"Point","coordinates":[33.34176,47.89339]}},
{"type":"Feature","id":"98728048","properties":{"josm":"w98728048","name":"Героїв 55-ї бригади вулиця","nameuk":"Уральська вулиця"},"geometry":{"type":"Point","coordinates":[35.20264,47.83405]}},
{"type":"Feature","id":"99170146","properties":{"josm":"w99170146","name":"Киевская улица","nameuk":"Балукова вулиця"},"geometry":{"type":"Point","coordinates":[30.33793,50.35441]}},
{"type":"Feature","id":"99176484","properties":{"josm":"w99176484","name":"Набережная улица","nameuk":"Набережна вулиця"},"geometry":{"type":"Point","coordinates":[30.38033,50.32272]}},
{"type":"Feature","id":"99556211","properties":{"josm":"w99556211","name":"Киевская улица","nameuk":"Київська вулиця"},"geometry":{"type":"Point","coordinates":[30.3257,50.43527]}},
{"type":"Feature","id":"99915518","properties":{"josm":"w99915518","name":"Центральної ради вулиця","nameuk":"Центральної Ради вулиця"},"geometry":{"type":"Point","coordinates":[26.27274,50.62444]}},
{"type":"Feature","id":"101176826","properties":{"josm":"w101176826","name":"Ковпака улица","nameuk":"Ковпака вулиця"},"geometry":{"type":"Point","coordinates":[30.37403,50.31848]}},
{"type":"Feature","id":"101176828","properties":{"josm":"w101176828","name":"Шевченко улица","nameuk":"Шевченка вулиця"},"geometry":{"type":"Point","coordinates":[30.37636,50.31905]}},
{"type":"Feature","id":"101176835","properties":{"josm":"w101176835","name":"Мичурина улица","nameuk":"Мічуріна вулиця"},"geometry":{"type":"Point","coordinates":[30.37512,50.31704]}},
{"type":"Feature","id":"101176839","properties":{"josm":"w101176839","name":"Полевая улица","nameuk":"Польова вулиця"},"geometry":{"type":"Point","coordinates":[30.37611,50.30979]}},
{"type":"Feature","id":"101176844","properties":{"josm":"w101176844","name":"Прорезная улица","nameuk":"Прорізна вулиця"},"geometry":{"type":"Point","coordinates":[30.37537,50.31815]}},
{"type":"Feature","id":"101337862","properties":{"josm":"w101337862","name":"Бібліотечний провулок","nameuk":"Библіотечний провулок"},"geometry":{"type":"Point","coordinates":[35.9285,49.94416]}},
{"type":"Feature","id":"102008331","properties":{"josm":"w102008331","name":"улица Инам","nameuk":"Інан вулиця"},"geometry":{"type":"Point","coordinates":[34.0918,44.89976]}},
{"type":"Feature","id":"102008347","properties":{"josm":"w102008347","name":"улица Инам","nameuk":"Інан вулиця"},"geometry":{"type":"Point","coordinates":[34.09265,44.89678]}},
{"type":"Feature","id":"102327272","properties":{"josm":"w102327272","name":"Руслана Плоходька вулиця","nameuk":"Роберта Ейдемана вулиця"},"geometry":{"type":"Point","coordinates":[36.35014,49.99119]}},
{"type":"Feature","id":"104438109","properties":{"josm":"w104438109","name":"Яновського провулок","nameuk":"Яновського вулиця"},"geometry":{"type":"Point","coordinates":[30.92932,50.3432]}},
{"type":"Feature","id":"106089998","properties":{"josm":"w106089998","name":"11-а Лінія","nameuk":"11-а лінія"},"geometry":{"type":"Point","coordinates":[30.27181,50.54138]}},
{"type":"Feature","id":"109013094","properties":{"josm":"w109013094","name":"Віталія Дульчика вулиця","nameuk":"Дульчика"},"geometry":{"type":"Point","coordinates":[28.58487,49.89445]}},
{"type":"Feature","id":"109582437","properties":{"josm":"w109582437","name":"Восьмого Березня вулиця","nameuk":"Першої Маївки вулиця"},"geometry":{"type":"Point","coordinates":[36.20954,49.99917]}},
{"type":"Feature","id":"110278132","properties":{"josm":"w110278132","name":"Каштанова вулиця","nameuk":"Щорса вулиця"},"geometry":{"type":"Point","coordinates":[34.37369,48.55719]}},
{"type":"Feature","id":"111377462","properties":{"josm":"w111377462","name":"ул. Мичурина","nameuk":"Мiчуріна вулиця"},"geometry":{"type":"Point","coordinates":[30.25494,49.91267]}},
{"type":"Feature","id":"111802482","properties":{"josm":"w111802482","name":"Кірова вулиця","nameuk":"Кірова"},"geometry":{"type":"Point","coordinates":[38.3884,48.88603]}},
{"type":"Feature","id":"111828675","properties":{"josm":"w111828675","name":"Героїв Крут вулиця","nameuk":"Піонерська вулиця"},"geometry":{"type":"Point","coordinates":[35.39706,46.8598]}},
{"type":"Feature","id":"113812430","properties":{"josm":"w113812430","name":"Скіфська вулиця","nameuk":"Скыфська вулиця"},"geometry":{"type":"Point","coordinates":[35.35432,46.8648]}},
{"type":"Feature","id":"114023912","properties":{"josm":"w114023912","name":"Приветливая (Петровского) улица","nameuk":"Привітна вулиця"},"geometry":{"type":"Point","coordinates":[36.09489,49.8893]}},
{"type":"Feature","id":"114023949","properties":{"josm":"w114023949","name":"Циолковского улица","nameuk":"Ціолковського вулиця"},"geometry":{"type":"Point","coordinates":[36.09581,49.88957]}},
{"type":"Feature","id":"115443464","properties":{"josm":"w115443464","name":"Лесі Українки","nameuk":"Терешкової вулиця"},"geometry":{"type":"Point","coordinates":[34.36953,48.56469]}},
{"type":"Feature","id":"115448945","properties":{"josm":"w115448945","name":"Козацької слави вулиця","nameuk":"Октябрьська вулиця"},"geometry":{"type":"Point","coordinates":[34.38243,48.54329]}},
{"type":"Feature","id":"115449359","properties":{"josm":"w115449359","name":"Святковий провулок","nameuk":"Дзержинського провулок"},"geometry":{"type":"Point","coordinates":[34.38062,48.54787]}},
{"type":"Feature","id":"115477215","properties":{"josm":"w115477215","name":"Школьная ул.","nameuk":"Шкільна вул."},"geometry":{"type":"Point","coordinates":[30.29556,50.16494]}},
{"type":"Feature","id":"115477235","properties":{"josm":"w115477235","name":"Школьная ул.","nameuk":"Шкільна вул."},"geometry":{"type":"Point","coordinates":[30.29165,50.16478]}},
{"type":"Feature","id":"116939876","properties":{"josm":"w116939876","name":"Благодатна вулиця","nameuk":"Комсомольська вулиця"},"geometry":{"type":"Point","coordinates":[33.52607,47.96144]}},
{"type":"Feature","id":"117517380","properties":{"josm":"w117517380","name":"Молодёжная улица","nameuk":"Молодіжна вулиця"},"geometry":{"type":"Point","coordinates":[30.21835,50.21241]}},
{"type":"Feature","id":"117893526","properties":{"josm":"w117893526","name":"Космічна  вулиця","nameuk":"Ватутіна вулиця"},"geometry":{"type":"Point","coordinates":[34.37145,48.56474]}},
{"type":"Feature","id":"117894084","properties":{"josm":"w117894084","name":"Тиха вулиця","nameuk":"Чапаєва вулиця"},"geometry":{"type":"Point","coordinates":[34.36311,48.56021]}},
{"type":"Feature","id":"117903194","properties":{"josm":"w117903194","name":"Кленовий  провулок","nameuk":"Суворова вулиця"},"geometry":{"type":"Point","coordinates":[34.36991,48.55028]}},
{"type":"Feature","id":"118062446","properties":{"josm":"w118062446","name":"Кошового вулиця","nameuk":"вулиця Кошового"},"geometry":{"type":"Point","coordinates":[30.239,50.22959]}},
{"type":"Feature","id":"118077204","properties":{"josm":"w118077204","name":"Нова вулиця","nameuk":"Гагаріна вулиця"},"geometry":{"type":"Point","coordinates":[35.94533,48.49189]}},
{"type":"Feature","id":"118421843","properties":{"josm":"w118421843","name":"Черноморская улица","nameuk":"Чорноморська вулиця"},"geometry":{"type":"Point","coordinates":[30.46371,46.06965]}},
{"type":"Feature","id":"119438320","properties":{"josm":"w119438320","name":"Ясна (Тельмана) вулиця","nameuk":"Тельмана вулиця"},"geometry":{"type":"Point","coordinates":[36.11802,49.9046]}},
{"type":"Feature","id":"121115896","properties":{"josm":"w121115896","name":"провулок","nameuk":"Калініна вулиця"},"geometry":{"type":"Point","coordinates":[33.12329,48.65869]}},
{"type":"Feature","id":"121117051","properties":{"josm":"w121117051","name":"Кам'яна вулиця","nameuk":"Сакко і Ванцетті вулиця; Мурманський провулок"},"geometry":{"type":"Point","coordinates":[33.1038,48.68824]}},
{"type":"Feature","id":"121117054","properties":{"josm":"w121117054","name":"Покровська площа","nameuk":"Кірова площа"},"geometry":{"type":"Point","coordinates":[33.11163,48.68636]}},
{"type":"Feature","id":"123382097","properties":{"josm":"w123382097","name":"Соборна  вулиця","nameuk":"Соборна вулиця"},"geometry":{"type":"Point","coordinates":[34.25816,48.48113]}},
{"type":"Feature","id":"124197826","properties":{"josm":"w124197826","name":"Мар'ївський провулок","nameuk":"Котовського провулок"},"geometry":{"type":"Point","coordinates":[33.10445,48.68996]}},
{"type":"Feature","id":"124892288","properties":{"josm":"w124892288","name":"Леси Украинки улица","nameuk":"Лесі Українки вулиця"},"geometry":{"type":"Point","coordinates":[30.37245,50.31824]}},
{"type":"Feature","id":"124892290","properties":{"josm":"w124892290","name":"Кооперативная улица","nameuk":"Кооперативна вулиця"},"geometry":{"type":"Point","coordinates":[30.3833,50.32348]}},
{"type":"Feature","id":"124990636","properties":{"josm":"w124990636","name":"Восточная","nameuk":"Східна вулиця"},"geometry":{"type":"Point","coordinates":[32.7486,46.62477]}},
{"type":"Feature","id":"126136085","properties":{"josm":"w126136085","name":"Фрунзе вулиця","nameuk":"Незалежності вулиця"},"geometry":{"type":"Point","coordinates":[37.81244,48.97799]}},
{"type":"Feature","id":"126735022","properties":{"josm":"w126735022","name":"Соборна вулиця","nameuk":"Центральна вулиця"},"geometry":{"type":"Point","coordinates":[30.45719,48.38906]}},
{"type":"Feature","id":"126776302","properties":{"josm":"w126776302","name":"Затишна вулиця","nameuk":"Будьонного вулиця"},"geometry":{"type":"Point","coordinates":[30.44948,48.38732]}},
{"type":"Feature","id":"126998341","properties":{"josm":"w126998341","name":"Пірогова вулиця","nameuk":"Пирогова вулиця"},"geometry":{"type":"Point","coordinates":[30.4728,48.38245]}},
{"type":"Feature","id":"127002390","properties":{"josm":"w127002390","name":"Ватутіна вулиця","nameuk":"Глінки вулиця"},"geometry":{"type":"Point","coordinates":[34.34208,48.65073]}},
{"type":"Feature","id":"127002392","properties":{"josm":"w127002392","name":"Герцена  вулиця","nameuk":"Автопаркова вулиця"},"geometry":{"type":"Point","coordinates":[34.3415,48.64927]}},
{"type":"Feature","id":"127023719","properties":{"josm":"w127023719","name":"Друга Галатовка вулиця","nameuk":"Коротка вулиця"},"geometry":{"type":"Point","coordinates":[34.32508,48.6511]}},
{"type":"Feature","id":"127023720","properties":{"josm":"w127023720","name":"Сапеляка Владики вулиця","nameuk":"Щорса вулиця"},"geometry":{"type":"Point","coordinates":[34.33406,48.64821]}},
{"type":"Feature","id":"127025642","properties":{"josm":"w127025642","name":"Перша Галатовка вулиця","nameuk":"1-а Галатовка вулиця"},"geometry":{"type":"Point","coordinates":[34.32464,48.65001]}},
{"type":"Feature","id":"127025646","properties":{"josm":"w127025646","name":"Матросова перевулок","nameuk":"Матросова вулиця"},"geometry":{"type":"Point","coordinates":[34.32135,48.65105]}},
{"type":"Feature","id":"127025648","properties":{"josm":"w127025648","name":"Дніпровська вулиця","nameuk":"Крупської вулиця"},"geometry":{"type":"Point","coordinates":[34.32211,48.65072]}},
{"type":"Feature","id":"127029389","properties":{"josm":"w127029389","name":"Лісна вулиця","nameuk":"Лісова вулиця"},"geometry":{"type":"Point","coordinates":[34.31856,48.65183]}},
{"type":"Feature","id":"127029392","properties":{"josm":"w127029392","name":"Лісна вулиця","nameuk":"Лісова вулиця"},"geometry":{"type":"Point","coordinates":[34.31896,48.65281]}},
{"type":"Feature","id":"127029394","properties":{"josm":"w127029394","name":"Львівська вулиця","nameuk":"Морська вулиця"},"geometry":{"type":"Point","coordinates":[34.31745,48.6512]}},
{"type":"Feature","id":"127029395","properties":{"josm":"w127029395","name":"Верхньодніпровська  вулиця","nameuk":"Харківська вулиця"},"geometry":{"type":"Point","coordinates":[34.31755,48.65011]}},
{"type":"Feature","id":"127029399","properties":{"josm":"w127029399","name":"Галатовський провулок","nameuk":"Базарна вулиця"},"geometry":{"type":"Point","coordinates":[34.32656,48.65062]}},
{"type":"Feature","id":"127628449","properties":{"josm":"w127628449","name":"Богдана Хмельницького вулиця","nameuk":"Леніна вулиця"},"geometry":{"type":"Point","coordinates":[34.37441,48.55064]}},
{"type":"Feature","id":"127628645","properties":{"josm":"w127628645","name":"Ново Степова вулиця","nameuk":"Степова вулиця"},"geometry":{"type":"Point","coordinates":[34.37564,48.54783]}},
{"type":"Feature","id":"127632636","properties":{"josm":"w127632636","name":"Яблунева  вулиця","nameuk":"Островського вулиця"},"geometry":{"type":"Point","coordinates":[34.36637,48.55798]}},
{"type":"Feature","id":"127635363","properties":{"josm":"w127635363","name":"Дорожна вулиця","nameuk":"Совхозна вулиця"},"geometry":{"type":"Point","coordinates":[34.37743,48.56258]}},
{"type":"Feature","id":"127670675","properties":{"josm":"w127670675","name":"Горяна вулиця","nameuk":"Горянська вулиця"},"geometry":{"type":"Point","coordinates":[34.31496,48.54109]}},
{"type":"Feature","id":"128505290","properties":{"josm":"w128505290","name":"Юрія Паращука вулиця","nameuk":"Івана Минайленка вулиця"},"geometry":{"type":"Point","coordinates":[36.18228,49.97959]}},
{"type":"Feature","id":"128976367","properties":{"josm":"w128976367","name":"Коцюбинского","nameuk":"Коцюбинського"},"geometry":{"type":"Point","coordinates":[32.73893,46.68151]}},
{"type":"Feature","id":"129911445","properties":{"josm":"w129911445","name":"Зайця вулиця","nameuk":"Зайцева вулиця"},"geometry":{"type":"Point","coordinates":[33.86699,48.04288]}},
{"type":"Feature","id":"129911527","properties":{"josm":"w129911527","name":"8-го Березня вулиця","nameuk":"8-го безерня вулиця"},"geometry":{"type":"Point","coordinates":[33.86523,48.06255]}},
{"type":"Feature","id":"130659531","properties":{"josm":"w130659531","name":"Чапаєва вулиця","nameuk":"Козацька вулиця"},"geometry":{"type":"Point","coordinates":[33.69316,47.66994]}},
{"type":"Feature","id":"130659533","properties":{"josm":"w130659533","name":"Покровська вулиця","nameuk":"Дзержинського вулиця"},"geometry":{"type":"Point","coordinates":[33.70349,47.66748]}},
{"type":"Feature","id":"131109302","properties":{"josm":"w131109302","name":"Європейська (Радянська) вулиця","nameuk":"Європейська вулиця"},"geometry":{"type":"Point","coordinates":[30.15721,50.54454]}},
{"type":"Feature","id":"131606761","properties":{"josm":"w131606761","name":"Юрія Паращука вулиця","nameuk":"Івана Минайленка вулиця"},"geometry":{"type":"Point","coordinates":[36.18676,49.97667]}},
{"type":"Feature","id":"131860045","properties":{"josm":"w131860045","name":"Соняшникова вулиця","nameuk":"Балашівська вулиця"},"geometry":{"type":"Point","coordinates":[38.36614,48.94955]}},
{"type":"Feature","id":"132610731","properties":{"josm":"w132610731","name":"Соборна вулиця","nameuk":"Леніна вулиця"},"geometry":{"type":"Point","coordinates":[35.28171,47.44308]}},
{"type":"Feature","id":"133293770","properties":{"josm":"w133293770","name":"2-й Ногайський провулок","nameuk":"2-й Цюрупи провулок"},"geometry":{"type":"Point","coordinates":[35.35341,46.86817]}},
{"type":"Feature","id":"134690294","properties":{"josm":"w134690294","name":"Соняшникова вулиця","nameuk":"Балашівська вулиця"},"geometry":{"type":"Point","coordinates":[38.36765,48.94872]}},
{"type":"Feature","id":"135196195","properties":{"josm":"w135196195","name":"Мостова  вулиця","nameuk":"Слизкоухого вулиця"},"geometry":{"type":"Point","coordinates":[34.31373,48.65873]}},
{"type":"Feature","id":"135271038","properties":{"josm":"w135271038","name":"Бригадная вулиця","nameuk":"Бригадна вулиця"},"geometry":{"type":"Point","coordinates":[32.04669,46.87591]}},
{"type":"Feature","id":"135294028","properties":{"josm":"w135294028","name":"Марії Заньковецької вулиця","nameuk":"Канатенка вулиця"},"geometry":{"type":"Point","coordinates":[33.12798,48.68173]}},
{"type":"Feature","id":"135330250","properties":{"josm":"w135330250","name":"Захисників Україний вулиця","nameuk":"Дзержинського вулиця"},"geometry":{"type":"Point","coordinates":[33.12743,48.67949]}},
{"type":"Feature","id":"135364971","properties":{"josm":"w135364971","name":"Івана Головка вулиця","nameuk":"Тихий провулок"},"geometry":{"type":"Point","coordinates":[33.07684,48.6713]}},
{"type":"Feature","id":"135459424","properties":{"josm":"w135459424","name":"Шевченка  вулиця","nameuk":"XVIII З’їзду ВЛКСМ вулиця"},"geometry":{"type":"Point","coordinates":[34.29751,48.64706]}},
{"type":"Feature","id":"135459425","properties":{"josm":"w135459425","name":"Шкільний провулок","nameuk":"Гоголя вулиця"},"geometry":{"type":"Point","coordinates":[34.29187,48.65688]}},
{"type":"Feature","id":"135459437","properties":{"josm":"w135459437","name":"Калинова вулиця","nameuk":"Калініна вулиця"},"geometry":{"type":"Point","coordinates":[34.3008,48.6553]}},
{"type":"Feature","id":"135459442","properties":{"josm":"w135459442","name":"Щастя  вулиця","nameuk":"Ленінського Комсомолу вулиця"},"geometry":{"type":"Point","coordinates":[34.29076,48.65232]}},
{"type":"Feature","id":"135565454","properties":{"josm":"w135565454","name":"Мицкевича переулок","nameuk":"Міцкевича провулок"},"geometry":{"type":"Point","coordinates":[37.59977,49.71286]}},
{"type":"Feature","id":"135567259","properties":{"josm":"w135567259","name":"Визволення площа","nameuk":"Перемоги площа"},"geometry":{"type":"Point","coordinates":[33.09966,48.67356]}},
{"type":"Feature","id":"135684332","properties":{"josm":"w135684332","name":"Івана Піянзіна провулок","nameuk":"Пиянзина провулок; Марини Раскової провулок"},"geometry":{"type":"Point","coordinates":[33.1085,48.6898]}},
{"type":"Feature","id":"135691235","properties":{"josm":"w135691235","name":"Івана Гороновича провулок","nameuk":"Ленінський провулок"},"geometry":{"type":"Point","coordinates":[33.10923,48.66876]}},
{"type":"Feature","id":"135902897","properties":{"josm":"w135902897","name":"Затишна  вулиця","nameuk":"Будьонного вулиця"},"geometry":{"type":"Point","coordinates":[34.29843,48.64837]}},
{"type":"Feature","id":"135902898","properties":{"josm":"w135902898","name":"Затишна  вулиця","nameuk":"Будьонного вулиця"},"geometry":{"type":"Point","coordinates":[34.29619,48.64677]}},
{"type":"Feature","id":"135902900","properties":{"josm":"w135902900","name":"Миру  вулиця","nameuk":"Жукова вулиця"},"geometry":{"type":"Point","coordinates":[34.28037,48.64857]}},
{"type":"Feature","id":"135902901","properties":{"josm":"w135902901","name":"Остапа Вишні  вулиця","nameuk":"Котовського вулиця"},"geometry":{"type":"Point","coordinates":[34.29187,48.6483]}},
{"type":"Feature","id":"135902902","properties":{"josm":"w135902902","name":"І. Франка  вулиця","nameuk":"Лермонтова вулиця"},"geometry":{"type":"Point","coordinates":[34.28377,48.64963]}},
{"type":"Feature","id":"135902905","properties":{"josm":"w135902905","name":"В. Листопад  вулиця","nameuk":"Нечуя-Левицького вулиця"},"geometry":{"type":"Point","coordinates":[34.28796,48.64994]}},
{"type":"Feature","id":"136240219","properties":{"josm":"w136240219","name":"Носаль Є. І. вулиця","nameuk":"Носаль вулиця"},"geometry":{"type":"Point","coordinates":[35.29509,47.37318]}},
{"type":"Feature","id":"136285283","properties":{"josm":"w136285283","name":"Веселкова вулиця","nameuk":"Зелений провулок"},"geometry":{"type":"Point","coordinates":[33.10803,48.66841]}},
{"type":"Feature","id":"138099205","properties":{"josm":"w138099205","name":"Бурковського вулиця","nameuk":"Костюка вулиця"},"geometry":{"type":"Point","coordinates":[27.64529,50.5706]}},
{"type":"Feature","id":"142456424","properties":{"josm":"w142456424","name":"Переможний  провулок","nameuk":"Привокзальна вулиця"},"geometry":{"type":"Point","coordinates":[34.37849,48.55418]}},
{"type":"Feature","id":"142456425","properties":{"josm":"w142456425","name":"Ново Степова вулиця","nameuk":"Степова вулиця"},"geometry":{"type":"Point","coordinates":[34.38265,48.54513]}},
{"type":"Feature","id":"144792776","properties":{"josm":"w144792776","name":"Комарова улица","nameuk":"Комарова вулиця"},"geometry":{"type":"Point","coordinates":[30.3356,50.44396]}},
{"type":"Feature","id":"144792777","properties":{"josm":"w144792777","name":"Комсомольская улица","nameuk":"Комсомольська вулиця"},"geometry":{"type":"Point","coordinates":[30.34515,50.43274]}},
{"type":"Feature","id":"144866982","properties":{"josm":"w144866982","name":"Киевская улица","nameuk":"Київська вулиця"},"geometry":{"type":"Point","coordinates":[30.32341,50.44051]}},
{"type":"Feature","id":"148010118","properties":{"josm":"w148010118","name":"Кар'єрний тупик","nameuk":"Каръерный тупик"},"geometry":{"type":"Point","coordinates":[32.24616,48.47959]}},
{"type":"Feature","id":"148112944","properties":{"josm":"w148112944","name":"Щорса вулиця (стор. пос.Дослідної ст.), Степова ввулиця (стор. с.Вигода)","nameuk":"Щорса вулиця"},"geometry":{"type":"Point","coordinates":[30.39234,46.60883]}},
{"type":"Feature","id":"156441950","properties":{"josm":"w156441950","name":"Садова вулиця","nameuk":"Садова Куліша вулиця"},"geometry":{"type":"Point","coordinates":[26.30925,50.58729]}},
{"type":"Feature","id":"156597060","properties":{"josm":"w156597060","name":"Лозовеньківський проспект","nameuk":"Окружна дорога"},"geometry":{"type":"Point","coordinates":[36.23382,50.08989]}},
{"type":"Feature","id":"158073060","properties":{"josm":"w158073060","name":"Красна вулиця","nameuk":"Червона вулиця"},"geometry":{"type":"Point","coordinates":[34.24092,48.48096]}},
{"type":"Feature","id":"158361441","properties":{"josm":"w158361441","name":"Чаплієвська вулиця","nameuk":"Миру вулиця"},"geometry":{"type":"Point","coordinates":[36.39359,49.98839]}},
{"type":"Feature","id":"158668353","properties":{"josm":"w158668353","name":"Спортивна вулиця","nameuk":"Терешкової вулиця"},"geometry":{"type":"Point","coordinates":[34.41477,48.5932]}},
{"type":"Feature","id":"159139200","properties":{"josm":"w159139200","name":"В. Лобановського  вулиця","nameuk":"В. Лобановського вулиця"},"geometry":{"type":"Point","coordinates":[34.23038,48.47068]}},
{"type":"Feature","id":"159185102","properties":{"josm":"w159185102","name":"Троїцький  провулок","nameuk":"Троїцький провулок"},"geometry":{"type":"Point","coordinates":[34.24735,48.48074]}},
{"type":"Feature","id":"159185118","properties":{"josm":"w159185118","name":"О. Довженка  вулиця","nameuk":"О. Довженка вулиця"},"geometry":{"type":"Point","coordinates":[34.25577,48.47709]}},
{"type":"Feature","id":"159185132","properties":{"josm":"w159185132","name":"Перший Соборний  провулок","nameuk":"Островського провулок"},"geometry":{"type":"Point","coordinates":[34.25,48.48107]}},
{"type":"Feature","id":"159185145","properties":{"josm":"w159185145","name":"Пушкіна  провулок","nameuk":"Пушкіна провулок"},"geometry":{"type":"Point","coordinates":[34.24687,48.48206]}},
{"type":"Feature","id":"159185176","properties":{"josm":"w159185176","name":"Академіка Пріснякова  вулиця","nameuk":"Академіка Пріснякова вулиця"},"geometry":{"type":"Point","coordinates":[34.24493,48.47072]}},
{"type":"Feature","id":"159233378","properties":{"josm":"w159233378","name":"С. Ряженцева вулиця","nameuk":"Тельмана вулиця"},"geometry":{"type":"Point","coordinates":[34.23589,48.48915]}},
{"type":"Feature","id":"159233410","properties":{"josm":"w159233410","name":"Перший Кутузова провулок","nameuk":"Кутузова провулок"},"geometry":{"type":"Point","coordinates":[34.22277,48.4781]}},
{"type":"Feature","id":"159235801","properties":{"josm":"w159235801","name":"Леоніда Бикова  вулиця","nameuk":"Леоніда Бикова вулиця"},"geometry":{"type":"Point","coordinates":[34.22868,48.48521]}},
{"type":"Feature","id":"159813362","properties":{"josm":"w159813362","name":"Лозовеньківський проспект","nameuk":"Окружна дорога"},"geometry":{"type":"Point","coordinates":[36.26322,50.1021]}},
{"type":"Feature","id":"159813363","properties":{"josm":"w159813363","name":"Лозовеньківський проспект","nameuk":"Окружна дорога"},"geometry":{"type":"Point","coordinates":[36.26582,50.1019]}},
{"type":"Feature","id":"159815292","properties":{"josm":"w159815292","name":"Лозовеньківський проспект","nameuk":"Окружна дорога"},"geometry":{"type":"Point","coordinates":[36.1968,50.064]}},
{"type":"Feature","id":"159815293","properties":{"josm":"w159815293","name":"Лозовеньківський проспект","nameuk":"Окружна дорога"},"geometry":{"type":"Point","coordinates":[36.18377,50.05505]}},
{"type":"Feature","id":"159815294","properties":{"josm":"w159815294","name":"Лозовеньківський проспект","nameuk":"Окружна дорога"},"geometry":{"type":"Point","coordinates":[36.18203,50.05422]}},
{"type":"Feature","id":"159981419","properties":{"josm":"w159981419","name":"майдан Павловський","nameuk":"Павловська площа"},"geometry":{"type":"Point","coordinates":[36.23287,49.98833]}},
{"type":"Feature","id":"161808590","properties":{"josm":"w161808590","name":"Семьи Бобринских вулиця","nameuk":"Родини Бобринських вулиця"},"geometry":{"type":"Point","coordinates":[31.8572,49.22554]}},
{"type":"Feature","id":"161853411","properties":{"josm":"w161853411","name":"Феофановская улица","nameuk":"Феофанівська вулиця"},"geometry":{"type":"Point","coordinates":[30.47734,50.33204]}},
{"type":"Feature","id":"161855004","properties":{"josm":"w161855004","name":"Партизанская улица","nameuk":"Партизанська вулиця"},"geometry":{"type":"Point","coordinates":[30.48132,50.32696]}},
{"type":"Feature","id":"162361872","properties":{"josm":"w162361872","name":"Полтавська (Радевича) вулиця","nameuk":"Полтавська вулиця"},"geometry":{"type":"Point","coordinates":[35.09855,49.44263]}},
{"type":"Feature","id":"162361874","properties":{"josm":"w162361874","name":"Полтавська (Радевича) вулиця","nameuk":"Полтавська вулиця"},"geometry":{"type":"Point","coordinates":[35.13742,49.45199]}},
{"type":"Feature","id":"163200999","properties":{"josm":"w163200999","name":"вулиця Садова","nameuk":"Садова вулиця"},"geometry":{"type":"Point","coordinates":[36.95385,49.49147]}},
{"type":"Feature","id":"163270423","properties":{"josm":"w163270423","name":"Чехова вулиця","nameuk":"Чєхова вулиця"},"geometry":{"type":"Point","coordinates":[34.53187,49.82097]}},
{"type":"Feature","id":"164141513","properties":{"josm":"w164141513","name":"Магістральна вулиця","nameuk":"Магістральна  вулиця"},"geometry":{"type":"Point","coordinates":[33.45937,47.90123]}},
{"type":"Feature","id":"164750319","properties":{"josm":"w164750319","name":"Суворова улица","nameuk":"Суворова вулиця"},"geometry":{"type":"Point","coordinates":[30.4603,50.32944]}},
{"type":"Feature","id":"167991159","properties":{"josm":"w167991159","name":"Садова провулок чи вулиця?","nameuk":"Садова провулок"},"geometry":{"type":"Point","coordinates":[33.17754,49.59085]}},
{"type":"Feature","id":"168200938","properties":{"josm":"w168200938","name":"Міліонна вулиця","nameuk":"Паризької Комуни вулиця"},"geometry":{"type":"Point","coordinates":[32.67938,49.074]}},
{"type":"Feature","id":"168201046","properties":{"josm":"w168201046","name":"Фундукліївська вулиця","nameuk":"Горького вулиця"},"geometry":{"type":"Point","coordinates":[32.66987,49.06871]}},
{"type":"Feature","id":"168413718","properties":{"josm":"w168413718","name":"Охотничий пер.","nameuk":"Мисливський пров."},"geometry":{"type":"Point","coordinates":[30.30976,50.19105]}},
{"type":"Feature","id":"168908093","properties":{"josm":"w168908093","name":"Героїв-підпільників вулиця","nameuk":"Ленінської Іскри вулиця"},"geometry":{"type":"Point","coordinates":[37.54655,48.59575]}},
{"type":"Feature","id":"169398903","properties":{"josm":"w169398903","name":"Калинова  вулиця","nameuk":"Калініна вулиця"},"geometry":{"type":"Point","coordinates":[34.27899,48.48223]}},
{"type":"Feature","id":"169566576","properties":{"josm":"w169566576","name":"Лип'янська вулиця","nameuk":"Ганни Дмитришиної вулиця"},"geometry":{"type":"Point","coordinates":[26.02729,50.55492]}},
{"type":"Feature","id":"170317487","properties":{"josm":"w170317487","name":"Замковий (Турецький) міст","nameuk":"Замковий міст"},"geometry":{"type":"Point","coordinates":[26.56585,48.6735]}},
{"type":"Feature","id":"171815253","properties":{"josm":"w171815253","name":"Спортивная улица","nameuk":"Спортивна вулиця"},"geometry":{"type":"Point","coordinates":[35.26739,50.76973]}},
{"type":"Feature","id":"171815270","properties":{"josm":"w171815270","name":"Виноградная улица","nameuk":"Виноградна вулиця"},"geometry":{"type":"Point","coordinates":[35.25723,50.7766]}},
{"type":"Feature","id":"171815273","properties":{"josm":"w171815273","name":"Вишнёвая улица","nameuk":"Вишнева вулиця"},"geometry":{"type":"Point","coordinates":[35.26527,50.77579]}},
{"type":"Feature","id":"171815291","properties":{"josm":"w171815291","name":"Мичурина переулок","nameuk":"Мічуріна провулок"},"geometry":{"type":"Point","coordinates":[35.27446,50.76824]}},
{"type":"Feature","id":"171816215","properties":{"josm":"w171816215","name":"Шевченко улица","nameuk":"Шевченка вулиця"},"geometry":{"type":"Point","coordinates":[35.25667,50.7623]}},
{"type":"Feature","id":"171816217","properties":{"josm":"w171816217","name":"Московская улица","nameuk":"Московська вулиця"},"geometry":{"type":"Point","coordinates":[35.26177,50.76566]}},
{"type":"Feature","id":"171818197","properties":{"josm":"w171818197","name":"Новосёловская улица","nameuk":"Новоселівська вулиця"},"geometry":{"type":"Point","coordinates":[35.26873,50.7939]}},
{"type":"Feature","id":"171823483","properties":{"josm":"w171823483","name":"Гоголя улица","nameuk":"Гоголя вулиця"},"geometry":{"type":"Point","coordinates":[35.2693,50.79598]}},
{"type":"Feature","id":"171823491","properties":{"josm":"w171823491","name":"Луговой переулок","nameuk":"Луговий провулок"},"geometry":{"type":"Point","coordinates":[35.26114,50.78817]}},
{"type":"Feature","id":"172302821","properties":{"josm":"w172302821","name":"Безхлібна (Гребінківська) вулиця","nameuk":"Безхлібна вулиця"},"geometry":{"type":"Point","coordinates":[32.4403,50.10397]}},
{"type":"Feature","id":"174964536","properties":{"josm":"w174964536","name":"Михайла Петренко вулиця","nameuk":"Череватенка вулиця"},"geometry":{"type":"Point","coordinates":[37.15552,48.29623]}},
{"type":"Feature","id":"175083114","properties":{"josm":"w175083114","name":"Рози Люксембург переулок","nameuk":"Рози Люксембург вулиця"},"geometry":{"type":"Point","coordinates":[38.56009,48.85844]}},
{"type":"Feature","id":"175163749","properties":{"josm":"w175163749","name":"Свободи бульвар","nameuk":"Петровського вулиця"},"geometry":{"type":"Point","coordinates":[33.492,48.34499]}},
{"type":"Feature","id":"175324967","properties":{"josm":"w175324967","name":"Залізнична вулиця","nameuk":"Шота вулиця"},"geometry":{"type":"Point","coordinates":[37.16357,48.28704]}},
{"type":"Feature","id":"175802142","properties":{"josm":"w175802142","name":"Залізнична вулиця","nameuk":"Шота вулиця"},"geometry":{"type":"Point","coordinates":[37.15583,48.28773]}},
{"type":"Feature","id":"175802156","properties":{"josm":"w175802156","name":"Залізнична вулиця","nameuk":"Шота вулиця"},"geometry":{"type":"Point","coordinates":[37.17156,48.28534]}},
{"type":"Feature","id":"175802157","properties":{"josm":"w175802157","name":"Залізнична вулиця","nameuk":"Шота вулиця"},"geometry":{"type":"Point","coordinates":[37.14862,48.2872]}},
{"type":"Feature","id":"180746422","properties":{"josm":"w180746422","name":"Черняховского вулиця","nameuk":"Черняховского  вулиця"},"geometry":{"type":"Point","coordinates":[39.37,48.5512]}},
{"type":"Feature","id":"181264317","properties":{"josm":"w181264317","name":"Ванди Біневськой провулок","nameuk":"Джерельний провулок"},"geometry":{"type":"Point","coordinates":[36.35264,49.97136]}},
{"type":"Feature","id":"181264908","properties":{"josm":"w181264908","name":"Івана Богуна вулиця","nameuk":"вулиця Івана Богуна"},"geometry":{"type":"Point","coordinates":[33.49258,48.34131]}},
{"type":"Feature","id":"181990525","properties":{"josm":"w181990525","name":"Дніпровський  провулок","nameuk":"Дніпровський провулок"},"geometry":{"type":"Point","coordinates":[34.24885,48.48469]}},
{"type":"Feature","id":"181990528","properties":{"josm":"w181990528","name":"Кузьми Скрябіна  вулиця","nameuk":"Кузьми Скрябіна вулиця"},"geometry":{"type":"Point","coordinates":[34.25028,48.48349]}},
{"type":"Feature","id":"181990532","properties":{"josm":"w181990532","name":"Центральна вулиця","nameuk":"Леніна вулиця"},"geometry":{"type":"Point","coordinates":[34.24676,48.48633]}},
{"type":"Feature","id":"181990533","properties":{"josm":"w181990533","name":"Другий Дніпровський  провулок","nameuk":"Радянський провулок"},"geometry":{"type":"Point","coordinates":[34.25054,48.48603]}},
{"type":"Feature","id":"181991177","properties":{"josm":"w181991177","name":"Княгині Ольги  провулок","nameuk":"Княгині Ольги провулок"},"geometry":{"type":"Point","coordinates":[34.21672,48.47533]}},
{"type":"Feature","id":"182760159","properties":{"josm":"w182760159","name":"Октябрьская улица","nameuk":"Жовтнева вулиця"},"geometry":{"type":"Point","coordinates":[30.13379,50.48487]}},
{"type":"Feature","id":"183125914","properties":{"josm":"w183125914","name":"Грушевського вулиця","nameuk":"Вишнева вулиця"},"geometry":{"type":"Point","coordinates":[25.99277,51.30871]}},
{"type":"Feature","id":"185143064","properties":{"josm":"w185143064","name":"Варненская улица","nameuk":"Варненська вулиця"},"geometry":{"type":"Point","coordinates":[31.99765,47.03053]}},
{"type":"Feature","id":"185747654","properties":{"josm":"w185747654","name":"Визволителів вулиця","nameuk":"Червоноармійська вулиця"},"geometry":{"type":"Point","coordinates":[36.06263,49.98417]}},
{"type":"Feature","id":"187232537","properties":{"josm":"w187232537","name":"вул. Чкалова","nameuk":"Чкалова вулиця"},"geometry":{"type":"Point","coordinates":[33.27235,48.04107]}},
{"type":"Feature","id":"187676811","properties":{"josm":"w187676811","name":"вулиця Ярослава Мудрого","nameuk":"Комсомольська вулиця"},"geometry":{"type":"Point","coordinates":[30.82809,49.86602]}},
{"type":"Feature","id":"187676829","properties":{"josm":"w187676829","name":"Свято-Троїцька вулиця","nameuk":"Свердлова вулиця"},"geometry":{"type":"Point","coordinates":[30.82145,49.86261]}},
{"type":"Feature","id":"188038701","properties":{"josm":"w188038701","name":"10-а Слобідська вулиця","nameuk":"10-а Слобідська  вулиця"},"geometry":{"type":"Point","coordinates":[32.03226,46.96236]}},
{"type":"Feature","id":"188287368","properties":{"josm":"w188287368","name":"ул. 2-я Сортоиспытательная","nameuk":"вул. 2-я Сортовипробувальна"},"geometry":{"type":"Point","coordinates":[30.56051,46.45858]}},
{"type":"Feature","id":"188744198","properties":{"josm":"w188744198","name":"Боженка вулиця","nameuk":"Ушакова вулиця"},"geometry":{"type":"Point","coordinates":[32.15092,48.37634]}},
{"type":"Feature","id":"188944900","properties":{"josm":"w188944900","name":"Першотравневий провулок","nameuk":"Радянська вулиця"},"geometry":{"type":"Point","coordinates":[34.44048,49.57406]}},
{"type":"Feature","id":"190136595","properties":{"josm":"w190136595","name":"Зелёная улица","nameuk":"Зелена вулиця"},"geometry":{"type":"Point","coordinates":[33.72595,47.5499]}},
{"type":"Feature","id":"191560037","properties":{"josm":"w191560037","name":"Вознесенская улица","nameuk":"Вознесенська вулиця"},"geometry":{"type":"Point","coordinates":[35.75693,46.83415]}},
{"type":"Feature","id":"194159390","properties":{"josm":"w194159390","name":"Kalynova Street","nameuk":"Калинова вулиця"},"geometry":{"type":"Point","coordinates":[34.64633,48.71241]}},
{"type":"Feature","id":"197524354","properties":{"josm":"w197524354","name":"Партизанська вулиця","nameuk":"Паотизанська вулиця"},"geometry":{"type":"Point","coordinates":[35.7416,47.14884]}},
{"type":"Feature","id":"197843257","properties":{"josm":"w197843257","name":"майдан Павловський","nameuk":"Павловська площа"},"geometry":{"type":"Point","coordinates":[36.22929,49.9877]}},
{"type":"Feature","id":"198082110","properties":{"josm":"w198082110","name":"майдан Павловський","nameuk":"Павловська площа"},"geometry":{"type":"Point","coordinates":[36.22999,49.98735]}},
{"type":"Feature","id":"198082111","properties":{"josm":"w198082111","name":"майдан Павловський","nameuk":"Павловська площа"},"geometry":{"type":"Point","coordinates":[36.23148,49.98784]}},
{"type":"Feature","id":"198189137","properties":{"josm":"w198189137","name":"Річковий провулок","nameuk":"Річкоий провулок"},"geometry":{"type":"Point","coordinates":[38.36889,48.63769]}},
{"type":"Feature","id":"199247188","properties":{"josm":"w199247188","name":"Набережна ріки Сумка вулиця","nameuk":"Горького вулиця"},"geometry":{"type":"Point","coordinates":[34.80294,50.91328]}},
{"type":"Feature","id":"200562485","properties":{"josm":"w200562485","name":"Рыночная улица","nameuk":"Ринкова вулиця"},"geometry":{"type":"Point","coordinates":[30.70173,46.38146]}},
{"type":"Feature","id":"200562490","properties":{"josm":"w200562490","name":"Миндальная улица","nameuk":"Мигдальна вулиця"},"geometry":{"type":"Point","coordinates":[30.69308,46.37935]}},
{"type":"Feature","id":"200562493","properties":{"josm":"w200562493","name":"Новосёлов улица","nameuk":"вулиця Новоселів"},"geometry":{"type":"Point","coordinates":[30.69412,46.37952]}},
{"type":"Feature","id":"200562494","properties":{"josm":"w200562494","name":"Ореховая улица","nameuk":"Горіхова вулиця"},"geometry":{"type":"Point","coordinates":[30.6953,46.37965]}},
{"type":"Feature","id":"200562495","properties":{"josm":"w200562495","name":"Абрикосовая улица","nameuk":"Абрикосова вулиця"},"geometry":{"type":"Point","coordinates":[30.69203,46.37972]}},
{"type":"Feature","id":"202938490","properties":{"josm":"w202938490","name":"Об’їздна вулиця","nameuk":"Об’їзна вулиця"},"geometry":{"type":"Point","coordinates":[33.72367,46.99864]}},
{"type":"Feature","id":"205724828","properties":{"josm":"w205724828","name":"Києво-Московська вулиця","nameuk":"Київо-Московська вулиця"},"geometry":{"type":"Point","coordinates":[33.92007,51.67801]}},
{"type":"Feature","id":"205960358","properties":{"josm":"w205960358","name":"вул. Чарівна (Чапаєва)","nameuk":"Чапаєва вулиця"},"geometry":{"type":"Point","coordinates":[34.91332,47.00755]}},
{"type":"Feature","id":"205967981","properties":{"josm":"w205967981","name":"Пушкина улица","nameuk":"Пушкіна вулиця"},"geometry":{"type":"Point","coordinates":[34.55892,46.70978]}},
{"type":"Feature","id":"205976975","properties":{"josm":"w205976975","name":"Мелитопольская улица","nameuk":"Мелітопольська вулиця"},"geometry":{"type":"Point","coordinates":[35.68639,46.9102]}},
{"type":"Feature","id":"205976978","properties":{"josm":"w205976978","name":"Астраханская улица","nameuk":"Астраханська вулиця"},"geometry":{"type":"Point","coordinates":[35.74277,46.83786]}},
{"type":"Feature","id":"205977007","properties":{"josm":"w205977007","name":"Почтовая улица","nameuk":"Поштова вулиця"},"geometry":{"type":"Point","coordinates":[35.76127,46.82988]}},
{"type":"Feature","id":"208446072","properties":{"josm":"w208446072","name":"майдан Павловський","nameuk":"Павловська площа"},"geometry":{"type":"Point","coordinates":[36.22766,49.98704]}},
{"type":"Feature","id":"208488516","properties":{"josm":"w208488516","name":"улица Центральная","nameuk":"вулиця Центральна"},"geometry":{"type":"Point","coordinates":[34.55975,46.59325]}},
{"type":"Feature","id":"208911797","properties":{"josm":"w208911797","name":"Героев Обороны улица","nameuk":"Героїв Оборони вулиця"},"geometry":{"type":"Point","coordinates":[35.12573,50.81561]}},
{"type":"Feature","id":"212894376","properties":{"josm":"w212894376","name":"Свободи бульвар","nameuk":"Петровського вулиця"},"geometry":{"type":"Point","coordinates":[33.49189,48.34551]}},
{"type":"Feature","id":"213434074","properties":{"josm":"w213434074","name":"Спортивна вулиця","nameuk":"Дніпровська вулиця"},"geometry":{"type":"Point","coordinates":[36.0782,48.52675]}},
{"type":"Feature","id":"216092481","properties":{"josm":"w216092481","name":"Покровский переулок","nameuk":"Покровський провулок "},"geometry":{"type":"Point","coordinates":[30.4251,46.26048]}},
{"type":"Feature","id":"219406526","properties":{"josm":"w219406526","name":"Кленовая Долина улица","nameuk":"вул. Кленова Долина"},"geometry":{"type":"Point","coordinates":[30.56055,50.34038]}},
{"type":"Feature","id":"219406527","properties":{"josm":"w219406527","name":"Цветочные Луга улица","nameuk":"вул. Квіткові Луки"},"geometry":{"type":"Point","coordinates":[30.56,50.3412]}},
{"type":"Feature","id":"220260634","properties":{"josm":"w220260634","name":"Виноградна вулиця","nameuk":"Виноградка вулиця"},"geometry":{"type":"Point","coordinates":[34.80556,46.17865]}},
{"type":"Feature","id":"221866315","properties":{"josm":"w221866315","name":"Соборнана вулиця","nameuk":"Червоних Партизан вулиця"},"geometry":{"type":"Point","coordinates":[31.77196,47.30851]}},
{"type":"Feature","id":"223952300","properties":{"josm":"w223952300","name":"Василия Хоменко улица","nameuk":"Василя Хоменка вулиця"},"geometry":{"type":"Point","coordinates":[33.49333,46.81706]}},
{"type":"Feature","id":"223952302","properties":{"josm":"w223952302","name":"Василия Хоменко улица","nameuk":"Василя Хоменка вулиця"},"geometry":{"type":"Point","coordinates":[33.49315,46.81704]}},
{"type":"Feature","id":"225784838","properties":{"josm":"w225784838","name":"Рыбачья улица","nameuk":"Рибальська вулиця"},"geometry":{"type":"Point","coordinates":[30.7444,46.38974]}},
{"type":"Feature","id":"226291266","properties":{"josm":"w226291266","name":"Миколаєнко Юлії вулиця","nameuk":"Миколаєнка вулиця"},"geometry":{"type":"Point","coordinates":[25.72295,49.30203]}},
{"type":"Feature","id":"226717386","properties":{"josm":"w226717386","name":"Северная улица","nameuk":"Північна вулиця"},"geometry":{"type":"Point","coordinates":[30.69989,46.38299]}},
{"type":"Feature","id":"226717390","properties":{"josm":"w226717390","name":"Виноградная улица","nameuk":"Виноградна вулиця"},"geometry":{"type":"Point","coordinates":[30.6995,46.38147]}},
{"type":"Feature","id":"226717391","properties":{"josm":"w226717391","name":"Ёлочный переулок","nameuk":"Ялинковий провулок"},"geometry":{"type":"Point","coordinates":[30.69794,46.38143]}},
{"type":"Feature","id":"226717393","properties":{"josm":"w226717393","name":"Виноградная улица","nameuk":"Виноградна вулиця"},"geometry":{"type":"Point","coordinates":[30.69926,46.37717]}},
{"type":"Feature","id":"229017815","properties":{"josm":"w229017815","name":"Зерова улица","nameuk":"Зерова вулиця"},"geometry":{"type":"Point","coordinates":[31.33377,50.34875]}},
{"type":"Feature","id":"229017820","properties":{"josm":"w229017820","name":"Зерова улица","nameuk":"Зерова вулиця"},"geometry":{"type":"Point","coordinates":[31.33558,50.35201]}},
{"type":"Feature","id":"229017822","properties":{"josm":"w229017822","name":"проулок Червоный","nameuk":"провулок Червоний"},"geometry":{"type":"Point","coordinates":[31.32373,50.34977]}},
{"type":"Feature","id":"229017833","properties":{"josm":"w229017833","name":"Трубежская улица","nameuk":"Трубіжська вулиця"},"geometry":{"type":"Point","coordinates":[31.33445,50.34999]}},
{"type":"Feature","id":"229017834","properties":{"josm":"w229017834","name":"Одесская улица","nameuk":"Одеська вулиця"},"geometry":{"type":"Point","coordinates":[31.33245,50.34917]}},
{"type":"Feature","id":"229018444","properties":{"josm":"w229018444","name":"Ватутина","nameuk":"Ватутіна"},"geometry":{"type":"Point","coordinates":[31.30321,50.36082]}},
{"type":"Feature","id":"229119773","properties":{"josm":"w229119773","name":"Г. Сковороди  вулиця","nameuk":"Комсомольська вулиця"},"geometry":{"type":"Point","coordinates":[34.28148,48.48092]}},
{"type":"Feature","id":"230172835","properties":{"josm":"w230172835","name":"Саксаганського (Пролетарська) вулиця","nameuk":"Пролетарська вулиця"},"geometry":{"type":"Point","coordinates":[32.52625,50.22329]}},
{"type":"Feature","id":"230593943","properties":{"josm":"w230593943","name":"Балтская улица","nameuk":"Балтська вулиця"},"geometry":{"type":"Point","coordinates":[30.69523,46.36997]}},
{"type":"Feature","id":"230593948","properties":{"josm":"w230593948","name":"Килийская улица","nameuk":"Кілійська вулиця"},"geometry":{"type":"Point","coordinates":[30.70155,46.37415]}},
{"type":"Feature","id":"230593951","properties":{"josm":"w230593951","name":"Любашовская улица","nameuk":"Любашівська вулиця"},"geometry":{"type":"Point","coordinates":[30.69392,46.37049]}},
{"type":"Feature","id":"230593954","properties":{"josm":"w230593954","name":"Кодымская улица","nameuk":"Кодимська вулиця"},"geometry":{"type":"Point","coordinates":[30.69659,46.37378]}},
{"type":"Feature","id":"231093804","properties":{"josm":"w231093804","name":"Троянд провулок","nameuk":"2-й Вишневий провулок"},"geometry":{"type":"Point","coordinates":[33.27919,48.04385]}},
{"type":"Feature","id":"231850186","properties":{"josm":"w231850186","name":"Городова вулиця","nameuk":"Польна вулиця"},"geometry":{"type":"Point","coordinates":[25.1448,50.0905]}},
{"type":"Feature","id":"232637004","properties":{"josm":"w232637004","name":"улица Октябрьская","nameuk":"вулиця Жовтнева"},"geometry":{"type":"Point","coordinates":[31.80637,47.20997]}},
{"type":"Feature","id":"232643582","properties":{"josm":"w232643582","name":"улица Октябрьская","nameuk":"вулиця Жовтнева"},"geometry":{"type":"Point","coordinates":[31.82498,47.20016]}},
{"type":"Feature","id":"234110765","properties":{"josm":"w234110765","name":"Калініна вулиця","nameuk":"Калінова вулиця"},"geometry":{"type":"Point","coordinates":[32.67841,48.71275]}},
{"type":"Feature","id":"234249610","properties":{"josm":"w234249610","name":"Набережная улица","nameuk":"Н"},"geometry":{"type":"Point","coordinates":[37.27181,49.17398]}},
{"type":"Feature","id":"234318375","properties":{"josm":"w234318375","name":"Ленина улица","nameuk":"Фрунзе вулиця"},"geometry":{"type":"Point","coordinates":[30.28561,50.1974]}},
{"type":"Feature","id":"235121517","properties":{"josm":"w235121517","name":"Маяковского улица","nameuk":"Маяковського вулиця"},"geometry":{"type":"Point","coordinates":[35.26811,50.85758]}},
{"type":"Feature","id":"235286390","properties":{"josm":"w235286390","name":"Чкалова улица","nameuk":"Чкалова вулиця"},"geometry":{"type":"Point","coordinates":[35.27347,50.86307]}},
{"type":"Feature","id":"235286410","properties":{"josm":"w235286410","name":"Сосновский переулок","nameuk":"Сосновський провулок"},"geometry":{"type":"Point","coordinates":[35.2909,50.86542]}},
{"type":"Feature","id":"235989229","properties":{"josm":"w235989229","name":"Хуторская улица","nameuk":"Хутірська вулиця"},"geometry":{"type":"Point","coordinates":[29.99965,46.61028]}},
{"type":"Feature","id":"235989254","properties":{"josm":"w235989254","name":"Хуторская улица","nameuk":"Хутірська вулиця"},"geometry":{"type":"Point","coordinates":[29.99922,46.60933]}},
{"type":"Feature","id":"237500233","properties":{"josm":"w237500233","name":"ул. 1-ого Мая","nameuk":"вул. 1 Травня"},"geometry":{"type":"Point","coordinates":[30.19084,49.95296]}},
{"type":"Feature","id":"238063400","properties":{"josm":"w238063400","name":"Леніна вулиця","nameuk":"Кленова (Леніна) вулиця"},"geometry":{"type":"Point","coordinates":[30.15085,50.54638]}},
{"type":"Feature","id":"238498877","properties":{"josm":"w238498877","name":"Лермонтова вулиця","nameuk":"Некрасова вулиця"},"geometry":{"type":"Point","coordinates":[26.97718,49.65622]}},
{"type":"Feature","id":"239162603","properties":{"josm":"w239162603","name":"вулиця Саркісова","nameuk":"Курганський провулок"},"geometry":{"type":"Point","coordinates":[37.59868,48.7653]}},
{"type":"Feature","id":"241071665","properties":{"josm":"w241071665","name":"Космонавта Попова бульвар","nameuk":"Попова площа"},"geometry":{"type":"Point","coordinates":[33.11699,48.66341]}},
{"type":"Feature","id":"242337057","properties":{"josm":"w242337057","name":"Шкільна вулиця","nameuk":"Чкалова вулиця"},"geometry":{"type":"Point","coordinates":[39.45045,48.67181]}},
{"type":"Feature","id":"242940229","properties":{"josm":"w242940229","name":"Слесарная улица","nameuk":"Кузнечна вулиця"},"geometry":{"type":"Point","coordinates":[33.53346,44.59177]}},
{"type":"Feature","id":"243030032","properties":{"josm":"w243030032","name":"Улица Куйбышева","nameuk":"Чапаєва вулиця (вулиця Куйбышева)"},"geometry":{"type":"Point","coordinates":[34.34707,46.81979]}},
{"type":"Feature","id":"243051087","properties":{"josm":"w243051087","name":"Калинина улица","nameuk":"Калініна вулиця"},"geometry":{"type":"Point","coordinates":[34.38245,46.83934]}},
{"type":"Feature","id":"246173085","properties":{"josm":"w246173085","name":"Нестора Махно  вулиця","nameuk":"Щорса вулиця"},"geometry":{"type":"Point","coordinates":[34.2158,48.48298]}},
{"type":"Feature","id":"246173087","properties":{"josm":"w246173087","name":"Княгині Ольги  вулиця","nameuk":"Княгинї Ольги вулиця"},"geometry":{"type":"Point","coordinates":[34.21797,48.47861]}},
{"type":"Feature","id":"246272218","properties":{"josm":"w246272218","name":"Yalta Kart","nameuk":"Ялта Карт"},"geometry":{"type":"Point","coordinates":[34.16029,44.48817]}},
{"type":"Feature","id":"247332301","properties":{"josm":"w247332301","name":"Другий  Соборний  провулок","nameuk":"Островського провулок"},"geometry":{"type":"Point","coordinates":[34.2513,48.48079]}},
{"type":"Feature","id":"250527536","properties":{"josm":"w250527536","name":"Тиха  вулиця","nameuk":"Центральна вулиця"},"geometry":{"type":"Point","coordinates":[34.01819,48.79832]}},
{"type":"Feature","id":"251255495","properties":{"josm":"w251255495","name":"Зелёная улица","nameuk":"Зелена вулиця"},"geometry":{"type":"Point","coordinates":[33.3093,51.7711]}},
{"type":"Feature","id":"251256086","properties":{"josm":"w251256086","name":"Запорізька вулиця","nameuk":"Комсомольська вулиця"},"geometry":{"type":"Point","coordinates":[34.40883,48.58882]}},
{"type":"Feature","id":"255683239","properties":{"josm":"w255683239","name":"Петропавлівська вулиця","nameuk":"Будівельна вулиця"},"geometry":{"type":"Point","coordinates":[33.64528,47.57156]}},
{"type":"Feature","id":"258169781","properties":{"josm":"w258169781","name":"Українська  вулиця","nameuk":"Українська вулиця"},"geometry":{"type":"Point","coordinates":[34.12098,48.45155]}},
{"type":"Feature","id":"258465524","properties":{"josm":"w258465524","name":"Південна вулиця","nameuk":"Южна вулиця"},"geometry":{"type":"Point","coordinates":[33.86436,48.04041]}},
{"type":"Feature","id":"258465525","properties":{"josm":"w258465525","name":"Південна вулиця","nameuk":"Южна вулиця"},"geometry":{"type":"Point","coordinates":[33.8709,48.03983]}},
{"type":"Feature","id":"258817069","properties":{"josm":"w258817069","name":"Пролетарская улица","nameuk":"Пролетарська вулиця"},"geometry":{"type":"Point","coordinates":[30.1325,50.52452]}},
{"type":"Feature","id":"259332305","properties":{"josm":"w259332305","name":"Привокзальный провулок","nameuk":"Кірова провулок"},"geometry":{"type":"Point","coordinates":[37.82604,48.96177]}},
{"type":"Feature","id":"262721205","properties":{"josm":"w262721205","name":"Чайкиної вулиця","nameuk":"Чайкіної вулиця"},"geometry":{"type":"Point","coordinates":[37.52005,47.5843]}},
{"type":"Feature","id":"263079319","properties":{"josm":"w263079319","name":"Петропавловская вулиця","nameuk":"Леніна вулиця"},"geometry":{"type":"Point","coordinates":[37.78866,49.00198]}},
{"type":"Feature","id":"265929288","properties":{"josm":"w265929288","name":"Победы улица","nameuk":"Перемоги вулиця"},"geometry":{"type":"Point","coordinates":[30.45766,50.32314]}},
{"type":"Feature","id":"266705833","properties":{"josm":"w266705833","name":"Короленко вулиця","nameuk":"Короленка вулиця"},"geometry":{"type":"Point","coordinates":[34.53535,49.83016]}},
{"type":"Feature","id":"268676749","properties":{"josm":"w268676749","name":"Независимости вулиця","nameuk":"Незалежності вулиця"},"geometry":{"type":"Point","coordinates":[37.81871,48.98071]}},
{"type":"Feature","id":"268676751","properties":{"josm":"w268676751","name":"Независимости вулиця","nameuk":"Незалежності вулиця"},"geometry":{"type":"Point","coordinates":[37.81608,48.97947]}},
{"type":"Feature","id":"269520685","properties":{"josm":"w269520685","name":"Полищука улица","nameuk":"Молодіжна вулиця"},"geometry":{"type":"Point","coordinates":[35.15311,45.14509]}},
{"type":"Feature","id":"274662290","properties":{"josm":"w274662290","name":"Січових Стрільців вулиця","nameuk":"Січових стрільців вулиця"},"geometry":{"type":"Point","coordinates":[30.13324,49.77477]}},
{"type":"Feature","id":"276815260","properties":{"josm":"w276815260","name":"М. Немолота вулиця","nameuk":"М.Немолота вулиця"},"geometry":{"type":"Point","coordinates":[33.22701,51.22548]}},
{"type":"Feature","id":"282579005","properties":{"josm":"w282579005","name":"Тухачевського (Іподромна) вулиця","nameuk":"Тухачевського (Ипподромная) вулиця"},"geometry":{"type":"Point","coordinates":[35.12062,49.46842]}},
{"type":"Feature","id":"282579011","properties":{"josm":"w282579011","name":"Калініна (Дробця) вулиця","nameuk":"Калініна вулиця"},"geometry":{"type":"Point","coordinates":[35.1254,49.46092]}},
{"type":"Feature","id":"289229788","properties":{"josm":"w289229788","name":"Новоселівська вулиця","nameuk":"Щорса вулиця"},"geometry":{"type":"Point","coordinates":[32.64327,50.07593]}},
{"type":"Feature","id":"290359480","properties":{"josm":"w290359480","name":"Петропавловский провулок","nameuk":"Леніна провулок"},"geometry":{"type":"Point","coordinates":[37.78017,49.00161]}},
{"type":"Feature","id":"291096679","properties":{"josm":"w291096679","name":"Івана Багряного вулиця","nameuk":"Ентузіастів вулиця"},"geometry":{"type":"Point","coordinates":[28.5468,49.24647]}},
{"type":"Feature","id":"301072528","properties":{"josm":"w301072528","name":"Отамана Головатого (Леніна) вулиця","nameuk":"Леніна вулиця"},"geometry":{"type":"Point","coordinates":[30.18989,46.49794]}},
{"type":"Feature","id":"301072529","properties":{"josm":"w301072529","name":"Отамана Головатого (Леніна) вулиця","nameuk":"Леніна вулиця"},"geometry":{"type":"Point","coordinates":[30.18953,46.49812]}},
{"type":"Feature","id":"301242063","properties":{"josm":"w301242063","name":"Комсомольський (Максименко) провулок","nameuk":"Комсомольський провулок"},"geometry":{"type":"Point","coordinates":[35.14077,49.45904]}},
{"type":"Feature","id":"302903843","properties":{"josm":"w302903843","name":"Островского улица","nameuk":"Островського вулиця"},"geometry":{"type":"Point","coordinates":[30.37596,50.32015]}},
{"type":"Feature","id":"304386665","properties":{"josm":"w304386665","name":"Молодежная улица","nameuk":"Молодіжна вулиця"},"geometry":{"type":"Point","coordinates":[38.07073,47.67644]}},
{"type":"Feature","id":"304386676","properties":{"josm":"w304386676","name":"Молодежная улица","nameuk":"Молодіжна вулиця"},"geometry":{"type":"Point","coordinates":[38.07138,47.67776]}},
{"type":"Feature","id":"306281266","properties":{"josm":"w306281266","name":"Комсомольський (Максименко) провулок","nameuk":"Комсомольський провулок"},"geometry":{"type":"Point","coordinates":[35.14239,49.45879]}},
{"type":"Feature","id":"307938865","properties":{"josm":"w307938865","name":"Козаченка вулиця","nameuk":"Козаченко вулиця"},"geometry":{"type":"Point","coordinates":[38.43313,48.8914]}},
{"type":"Feature","id":"308454787","properties":{"josm":"w308454787","name":"Ешиль Ада","nameuk":"Мирна вулиця"},"geometry":{"type":"Point","coordinates":[34.98896,44.83923]}},
{"type":"Feature","id":"308959403","properties":{"josm":"w308959403","name":"Северная","nameuk":"Північна"},"geometry":{"type":"Point","coordinates":[30.63795,46.44187]}},
{"type":"Feature","id":"308959404","properties":{"josm":"w308959404","name":"Южная","nameuk":"Південна"},"geometry":{"type":"Point","coordinates":[30.63896,46.43847]}},
{"type":"Feature","id":"308959405","properties":{"josm":"w308959405","name":"Розовая","nameuk":"Рожева"},"geometry":{"type":"Point","coordinates":[30.63747,46.44009]}},
{"type":"Feature","id":"308959406","properties":{"josm":"w308959406","name":"Серая","nameuk":"Сіра"},"geometry":{"type":"Point","coordinates":[30.63773,46.44011]}},
{"type":"Feature","id":"308959407","properties":{"josm":"w308959407","name":"Зелёная","nameuk":"Зелена"},"geometry":{"type":"Point","coordinates":[30.63797,46.44013]}},
{"type":"Feature","id":"308959408","properties":{"josm":"w308959408","name":"Центральная","nameuk":"Центральна"},"geometry":{"type":"Point","coordinates":[30.63815,46.44015]}},
{"type":"Feature","id":"308959409","properties":{"josm":"w308959409","name":"Абрикосовая","nameuk":"Абрикосова"},"geometry":{"type":"Point","coordinates":[30.63839,46.44017]}},
{"type":"Feature","id":"308959410","properties":{"josm":"w308959410","name":"Бежевая","nameuk":"Бежева"},"geometry":{"type":"Point","coordinates":[30.63862,46.44018]}},
{"type":"Feature","id":"308959411","properties":{"josm":"w308959411","name":"Голубая","nameuk":"Блакитна"},"geometry":{"type":"Point","coordinates":[30.63886,46.4402]}},
{"type":"Feature","id":"308959412","properties":{"josm":"w308959412","name":"Синяя","nameuk":"Синя"},"geometry":{"type":"Point","coordinates":[30.6391,46.44022]}},
{"type":"Feature","id":"308959413","properties":{"josm":"w308959413","name":"Рыночная","nameuk":"Ринкова"},"geometry":{"type":"Point","coordinates":[30.63933,46.44025]}},
{"type":"Feature","id":"308959414","properties":{"josm":"w308959414","name":"Авангардная","nameuk":"Авангардна"},"geometry":{"type":"Point","coordinates":[30.63953,46.44027]}},
{"type":"Feature","id":"313254004","properties":{"josm":"w313254004","name":"Пролетарська вулиця","nameuk":"Европейська вулиця"},"geometry":{"type":"Point","coordinates":[33.36657,49.09969]}},
{"type":"Feature","id":"313556680","properties":{"josm":"w313556680","name":"Залізнична вулиця","nameuk":"Шота вулиця"},"geometry":{"type":"Point","coordinates":[37.17813,48.28415]}},
{"type":"Feature","id":"315891608","properties":{"josm":"w315891608","name":"Лісова вулиця","nameuk":"Лісна вулиця"},"geometry":{"type":"Point","coordinates":[33.28573,49.1199]}},
{"type":"Feature","id":"315891608","properties":{"josm":"w315891608","name":"Лісова вулиця","nameuk":"Лісна вулиця"},"geometry":{"type":"Point","coordinates":[33.28573,49.1199]}},
{"type":"Feature","id":"316544561","properties":{"josm":"w316544561","name":"Галузевий проїзд","nameuk":"Галузевий провулок"},"geometry":{"type":"Point","coordinates":[33.45535,49.15754]}},
{"type":"Feature","id":"319671081","properties":{"josm":"w319671081","name":"Терешкова вулиця","nameuk":"Мічуріна вулиця"},"geometry":{"type":"Point","coordinates":[29.85431,47.07752]}},
{"type":"Feature","id":"321111229","properties":{"josm":"w321111229","name":"Школьный переулок","nameuk":"Шкільний провулок"},"geometry":{"type":"Point","coordinates":[33.92651,47.50135]}},
{"type":"Feature","id":"323547122","properties":{"josm":"w323547122","name":"Дружби провулок","nameuk":"Дружби вулиця"},"geometry":{"type":"Point","coordinates":[26.02746,50.54447]}},
{"type":"Feature","id":"325184739","properties":{"josm":"w325184739","name":"вулиця Росавська","nameuk":"Червоноармійська вулиця"},"geometry":{"type":"Point","coordinates":[30.83,49.8657]}},
{"type":"Feature","id":"325200717","properties":{"josm":"w325200717","name":"вулиця Відродження","nameuk":"Дзержинського вулиця"},"geometry":{"type":"Point","coordinates":[30.82548,49.86859]}},
{"type":"Feature","id":"325205931","properties":{"josm":"w325205931","name":"Медова вулиця","nameuk":"60 років СРСР вулиця"},"geometry":{"type":"Point","coordinates":[30.83337,49.87078]}},
{"type":"Feature","id":"327118715","properties":{"josm":"w327118715","name":"Залізнична вулиця","nameuk":"Шота вулиця"},"geometry":{"type":"Point","coordinates":[37.16709,48.28619]}},
{"type":"Feature","id":"327118718","properties":{"josm":"w327118718","name":"Залізнична вулиця","nameuk":"Шота вулиця"},"geometry":{"type":"Point","coordinates":[37.1524,48.28753]}},
{"type":"Feature","id":"328910335","properties":{"josm":"w328910335","name":"Головурівська вулиця","nameuk":"Галавурівська вулиця"},"geometry":{"type":"Point","coordinates":[31.03847,50.22506]}},
{"type":"Feature","id":"333432096","properties":{"josm":"w333432096","name":"Молодежная улица","nameuk":"Молодіжна вулиця"},"geometry":{"type":"Point","coordinates":[38.07158,47.67763]}},
{"type":"Feature","id":"333891437","properties":{"josm":"w333891437","name":"Фундукліївська вулиця","nameuk":"Горького вулиця"},"geometry":{"type":"Point","coordinates":[32.67541,49.0728]}},
{"type":"Feature","id":"334219315","properties":{"josm":"w334219315","name":"Фундукліївська вулиця","nameuk":"Горького вулиця"},"geometry":{"type":"Point","coordinates":[32.67803,49.07477]}},
{"type":"Feature","id":"336116218","properties":{"josm":"w336116218","name":"Озерная улица","nameuk":"Озерна вулиця"},"geometry":{"type":"Point","coordinates":[37.44876,48.57494]}},
{"type":"Feature","id":"336121459","properties":{"josm":"w336121459","name":"Дальний переулок","nameuk":"Дальній провулок"},"geometry":{"type":"Point","coordinates":[30.69628,46.38128]}},
{"type":"Feature","id":"337646962","properties":{"josm":"w337646962","name":"Трейл Канатный","nameuk":"Трейл Канатний"},"geometry":{"type":"Point","coordinates":[36.24159,50.02535]}},
{"type":"Feature","id":"341396869","properties":{"josm":"w341396869","name":"Щастя вулиця","nameuk":"Щастя  вулиця"},"geometry":{"type":"Point","coordinates":[29.83383,49.91494]}},
{"type":"Feature","id":"342018461","properties":{"josm":"w342018461","name":"Кольцевая вулиця","nameuk":"Кільцева вулиця"},"geometry":{"type":"Point","coordinates":[29.80531,49.92523]}},
{"type":"Feature","id":"349243917","properties":{"josm":"w349243917","name":"Komsomol's'ka","nameuk":"Комсомольська"},"geometry":{"type":"Point","coordinates":[33.62548,47.06421]}},
{"type":"Feature","id":"349243919","properties":{"josm":"w349243919","name":"Radyans'ka","nameuk":"Радянська"},"geometry":{"type":"Point","coordinates":[33.62742,47.06491]}},
{"type":"Feature","id":"349244483","properties":{"josm":"w349244483","name":"Gagarina","nameuk":"Гагаріна"},"geometry":{"type":"Point","coordinates":[33.63651,47.06329]}},
{"type":"Feature","id":"349250916","properties":{"josm":"w349250916","name":"Мира улица","nameuk":"Миру вулиця"},"geometry":{"type":"Point","coordinates":[33.91478,47.50197]}},
{"type":"Feature","id":"349252597","properties":{"josm":"w349252597","name":"Дудченко улица","nameuk":"Дудченка вулиця"},"geometry":{"type":"Point","coordinates":[33.90858,47.49229]}},
{"type":"Feature","id":"349260892","properties":{"josm":"w349260892","name":"Ореховая улица","nameuk":"Горіхова вулиця"},"geometry":{"type":"Point","coordinates":[33.91016,47.50148]}},
{"type":"Feature","id":"353833606","properties":{"josm":"w353833606","name":"Надежды улица","nameuk":"Надії вулиця"},"geometry":{"type":"Point","coordinates":[33.91699,47.49024]}},
{"type":"Feature","id":"353839538","properties":{"josm":"w353839538","name":"Невского улица","nameuk":"Невського вулиця"},"geometry":{"type":"Point","coordinates":[33.91212,47.50762]}},
{"type":"Feature","id":"353839543","properties":{"josm":"w353839543","name":"Вишнёвый переулок","nameuk":"Вишневий провулок"},"geometry":{"type":"Point","coordinates":[33.92368,47.51288]}},
{"type":"Feature","id":"353839549","properties":{"josm":"w353839549","name":"Молодёжный переулок","nameuk":"Молодіжний провулок"},"geometry":{"type":"Point","coordinates":[33.91793,47.51121]}},
{"type":"Feature","id":"355665945","properties":{"josm":"w355665945","name":"Пилипа Орлика 1-й провулок","nameuk":"Пилипа Орлика вулиця"},"geometry":{"type":"Point","coordinates":[28.53735,49.26843]}},
{"type":"Feature","id":"357853573","properties":{"josm":"w357853573","name":"Ткаченко вулиця","nameuk":"Лікарняна"},"geometry":{"type":"Point","coordinates":[29.63118,47.92709]}},
{"type":"Feature","id":"359616480","properties":{"josm":"w359616480","name":"Петровського (Магістральна) вулиця","nameuk":"Петровського вулиця"},"geometry":{"type":"Point","coordinates":[32.43332,50.12067]}},
{"type":"Feature","id":"359633473","properties":{"josm":"w359633473","name":"Вишнева  вулиця","nameuk":"Жовтнева вулиця"},"geometry":{"type":"Point","coordinates":[34.24159,48.47322]}},
{"type":"Feature","id":"359633482","properties":{"josm":"w359633482","name":"Дніпровська  вулиця","nameuk":"Дніпровська вулиця"},"geometry":{"type":"Point","coordinates":[34.249,48.48679]}},
{"type":"Feature","id":"363747056","properties":{"josm":"w363747056","name":"На дорогу (старая дорога в Молодово)","nameuk":"На дорогу (стара дорога в Молодове)"},"geometry":{"type":"Point","coordinates":[27.09837,48.5467]}},
{"type":"Feature","id":"363750201","properties":{"josm":"w363750201","name":"Дорога возле леса за огородами","nameuk":"Дорога біля лісу за городами"},"geometry":{"type":"Point","coordinates":[27.12145,48.539]}},
{"type":"Feature","id":"363751941","properties":{"josm":"w363751941","name":"Дорога в лес","nameuk":"Дорога в ліс"},"geometry":{"type":"Point","coordinates":[27.12638,48.53586]}},
{"type":"Feature","id":"364235289","properties":{"josm":"w364235289","name":"Мельхіседека Значко-Яворського провулок","nameuk":"Карла Маркса провулок"},"geometry":{"type":"Point","coordinates":[32.66362,49.07163]}},
{"type":"Feature","id":"366720862","properties":{"josm":"w366720862","name":"Привокзальный провулок","nameuk":"Кірова провулок"},"geometry":{"type":"Point","coordinates":[37.82304,48.95965]}},
{"type":"Feature","id":"374272283","properties":{"josm":"w374272283","name":"Зелёная улица","nameuk":"Зелена вулиця"},"geometry":{"type":"Point","coordinates":[33.30219,51.76598]}},
{"type":"Feature","id":"374272911","properties":{"josm":"w374272911","name":"Зелёная улица","nameuk":"Зелена вулиця"},"geometry":{"type":"Point","coordinates":[33.30461,51.76865]}},
{"type":"Feature","id":"376722503","properties":{"josm":"w376722503","name":"Дабриняна вулиця","nameuk":"вулиця Дарбіняна"},"geometry":{"type":"Point","coordinates":[29.06549,50.31734]}},
{"type":"Feature","id":"382326985","properties":{"josm":"w382326985","name":"Днепровская улица","nameuk":"Дніпровська вулиця "},"geometry":{"type":"Point","coordinates":[33.92912,47.49314]}},
{"type":"Feature","id":"387319577","properties":{"josm":"w387319577","name":"Воронцовская улица","nameuk":"Воронцовская"},"geometry":{"type":"Point","coordinates":[32.73726,46.68197]}},
{"type":"Feature","id":"388243183","properties":{"josm":"w388243183","name":"3-я лінія","nameuk":"3-а лінія"},"geometry":{"type":"Point","coordinates":[30.72738,46.4045]}},
{"type":"Feature","id":"390098801","properties":{"josm":"w390098801","name":"Корниевского","nameuk":"Корнiевського"},"geometry":{"type":"Point","coordinates":[32.24594,51.7791]}},
{"type":"Feature","id":"395269031","properties":{"josm":"w395269031","name":"Носаль Є. І. вулиця","nameuk":"Носаль вулиця"},"geometry":{"type":"Point","coordinates":[35.3103,47.37529]}},
{"type":"Feature","id":"396763280","properties":{"josm":"w396763280","name":"улица Ленина","nameuk":"Леніна вулиця"},"geometry":{"type":"Point","coordinates":[39.27501,48.49452]}},
{"type":"Feature","id":"397952147","properties":{"josm":"w397952147","name":"Заречная улица","nameuk":"Зарічна вулиця"},"geometry":{"type":"Point","coordinates":[30.3024,50.17166]}},
{"type":"Feature","id":"400028785","properties":{"josm":"w400028785","name":"Высокая улица","nameuk":"Висока вулиця"},"geometry":{"type":"Point","coordinates":[35.27854,50.79256]}},
{"type":"Feature","id":"400220181","properties":{"josm":"w400220181","name":"провулок Грищенка","nameuk":"Грищенко вулиця"},"geometry":{"type":"Point","coordinates":[36.39105,49.98682]}},
{"type":"Feature","id":"401182047","properties":{"josm":"w401182047","name":"Житомирская улица","nameuk":"Житомирська вулиця"},"geometry":{"type":"Point","coordinates":[30.32988,50.42628]}},
{"type":"Feature","id":"401215882","properties":{"josm":"w401215882","name":"Карла Маркса улица","nameuk":"Карла Маркса вулиця"},"geometry":{"type":"Point","coordinates":[30.37878,50.31722]}},
{"type":"Feature","id":"403840698","properties":{"josm":"w403840698","name":"Одесская улица","nameuk":"Одеська вулиця"},"geometry":{"type":"Point","coordinates":[30.44596,46.24578]}},
{"type":"Feature","id":"404015264","properties":{"josm":"w404015264","name":"Калиновий проїзд","nameuk":"Калиновий провулок"},"geometry":{"type":"Point","coordinates":[35.84218,48.53974]}},
{"type":"Feature","id":"404015265","properties":{"josm":"w404015265","name":"Вербний проїзд","nameuk":"Вербний провулок"},"geometry":{"type":"Point","coordinates":[35.84098,48.53965]}},
{"type":"Feature","id":"404015266","properties":{"josm":"w404015266","name":"Тополиний проїзд","nameuk":"Тополиний провулок"},"geometry":{"type":"Point","coordinates":[35.83967,48.53954]}},
{"type":"Feature","id":"404862353","properties":{"josm":"w404862353","name":"переулок 1й Гетьмана Сагайдачного","nameuk":"провулок 1й Гетьмана Сагайдачного"},"geometry":{"type":"Point","coordinates":[35.36596,46.85472]}},
{"type":"Feature","id":"405153195","properties":{"josm":"w405153195","name":"Звёздная улица","nameuk":"Зоряна вулиця"},"geometry":{"type":"Point","coordinates":[30.13452,50.48181]}},
{"type":"Feature","id":"405179712","properties":{"josm":"w405179712","name":"Центральная улица","nameuk":"Центральна вулиця"},"geometry":{"type":"Point","coordinates":[30.11977,50.42157]}},
{"type":"Feature","id":"405311501","properties":{"josm":"w405311501","name":"Островского улица","nameuk":"Островського вулиця"},"geometry":{"type":"Point","coordinates":[30.37302,50.32134]}},
{"type":"Feature","id":"405311504","properties":{"josm":"w405311504","name":"Молодёжная улица","nameuk":"Молодіжна вулиця"},"geometry":{"type":"Point","coordinates":[30.3764,50.30852]}},
{"type":"Feature","id":"405311505","properties":{"josm":"w405311505","name":"Парковая улица","nameuk":"Паркова вулиця"},"geometry":{"type":"Point","coordinates":[30.37553,50.30764]}},
{"type":"Feature","id":"412474021","properties":{"josm":"w412474021","name":"Мичурина улица","nameuk":"Мічуріна вулиця"},"geometry":{"type":"Point","coordinates":[33.93311,47.49372]}},
{"type":"Feature","id":"412474025","properties":{"josm":"w412474025","name":"Набережная улица","nameuk":"Набережна вулиця"},"geometry":{"type":"Point","coordinates":[33.92684,47.50773]}},
{"type":"Feature","id":"412474026","properties":{"josm":"w412474026","name":"Парковая улица","nameuk":"Паркова вулиця"},"geometry":{"type":"Point","coordinates":[33.92547,47.50736]}},
{"type":"Feature","id":"412776088","properties":{"josm":"w412776088","name":"Школьный переулок","nameuk":"Шкільний провулок"},"geometry":{"type":"Point","coordinates":[33.92902,47.50142]}},
{"type":"Feature","id":"412776101","properties":{"josm":"w412776101","name":"Горького улица","nameuk":"Горького вулиця"},"geometry":{"type":"Point","coordinates":[33.90828,47.4945]}},
{"type":"Feature","id":"412776105","properties":{"josm":"w412776105","name":"8 Марта переулок","nameuk":"8 Березня провулок"},"geometry":{"type":"Point","coordinates":[33.9103,47.49768]}},
{"type":"Feature","id":"415713504","properties":{"josm":"w415713504","name":"вул. Чапаєва (Чарівна)","nameuk":"Чапаєва вулиця"},"geometry":{"type":"Point","coordinates":[34.89006,47.02314]}},
{"type":"Feature","id":"415713505","properties":{"josm":"w415713505","name":"вул. Жданова","nameuk":"Горького"},"geometry":{"type":"Point","coordinates":[34.87798,47.01619]}},
{"type":"Feature","id":"415761359","properties":{"josm":"w415761359","name":"Кооперативна вулиця","nameuk":"Кооперативна вулиця "},"geometry":{"type":"Point","coordinates":[35.23245,47.28398]}},
{"type":"Feature","id":"416062063","properties":{"josm":"w416062063","name":"вул. Жданова","nameuk":"Чапаєва вулиця"},"geometry":{"type":"Point","coordinates":[34.8767,47.02229]}},
{"type":"Feature","id":"416062544","properties":{"josm":"w416062544","name":"вул. Горького","nameuk":"Горького"},"geometry":{"type":"Point","coordinates":[34.89021,47.01435]}},
{"type":"Feature","id":"416784657","properties":{"josm":"w416784657","name":"Калинова  вулиця","nameuk":"Калініна вулиця"},"geometry":{"type":"Point","coordinates":[34.26936,48.48079]}},
{"type":"Feature","id":"417364964","properties":{"josm":"w417364964","name":"Транспортная улица","nameuk":"вулиця Транспортна"},"geometry":{"type":"Point","coordinates":[36.12876,50.113]}},
{"type":"Feature","id":"417364968","properties":{"josm":"w417364968","name":"Борейская улица","nameuk":"вулиця Борейська"},"geometry":{"type":"Point","coordinates":[36.12861,50.11751]}},
{"type":"Feature","id":"417800569","properties":{"josm":"w417800569","name":"Комсомольський (Максименко) провулок","nameuk":"Комсомольський провулок"},"geometry":{"type":"Point","coordinates":[35.14683,49.4588]}},
{"type":"Feature","id":"420209686","properties":{"josm":"w420209686","name":"улица Пушкина","nameuk":"Жданова вулиця"},"geometry":{"type":"Point","coordinates":[34.38017,46.8265]}},
{"type":"Feature","id":"420214232","properties":{"josm":"w420214232","name":"ул. Карла Маркса","nameuk":"Жданова вулиця"},"geometry":{"type":"Point","coordinates":[34.38481,46.83593]}},
{"type":"Feature","id":"420225685","properties":{"josm":"w420225685","name":"ул. Карла Маркса","nameuk":"Жданова вулиця"},"geometry":{"type":"Point","coordinates":[34.38701,46.83955]}},
{"type":"Feature","id":"420792618","properties":{"josm":"w420792618","name":"Кооперативная улица","nameuk":"Кооперативна вулиця"},"geometry":{"type":"Point","coordinates":[35.75516,46.82599]}},
{"type":"Feature","id":"421240763","properties":{"josm":"w421240763","name":"Улица Цыбаня","nameuk":"Вулиця Цибаня"},"geometry":{"type":"Point","coordinates":[32.49182,50.25392]}},
{"type":"Feature","id":"421243907","properties":{"josm":"w421243907","name":"Аврушенко улица","nameuk":"Аврушенка вулиця"},"geometry":{"type":"Point","coordinates":[32.5035,50.25324]}},
{"type":"Feature","id":"421615811","properties":{"josm":"w421615811","name":"Героев труда улица","nameuk":"Героїв труда вулиця"},"geometry":{"type":"Point","coordinates":[35.00794,47.38561]}},
{"type":"Feature","id":"421774599","properties":{"josm":"w421774599","name":"Пушкина улица","nameuk":"Пушкіна вулиця"},"geometry":{"type":"Point","coordinates":[34.56531,46.70974]}},
{"type":"Feature","id":"421777500","properties":{"josm":"w421777500","name":"Мира улица","nameuk":"Миру вулиця"},"geometry":{"type":"Point","coordinates":[34.5509,46.71783]}},
{"type":"Feature","id":"424481144","properties":{"josm":"w424481144","name":"улица Механизаторов ","nameuk":"Механізаторів вулиця"},"geometry":{"type":"Point","coordinates":[33.73648,44.66893]}},
{"type":"Feature","id":"424772339","properties":{"josm":"w424772339","name":"1-й Заорільський провулок","nameuk":"3-й Заорільський провулок"},"geometry":{"type":"Point","coordinates":[34.52027,48.93094]}},
{"type":"Feature","id":"438551172","properties":{"josm":"w438551172","name":"Независимости Украины улица","nameuk":"Незалежності України вулиця"},"geometry":{"type":"Point","coordinates":[33.91655,47.48831]}},
{"type":"Feature","id":"438808802","properties":{"josm":"w438808802","name":"Магістральна вулиця","nameuk":"Магістральна  вулиця"},"geometry":{"type":"Point","coordinates":[33.45703,47.90778]}},
{"type":"Feature","id":"438808803","properties":{"josm":"w438808803","name":"Магістральна вулиця","nameuk":"Магістральна  вулиця"},"geometry":{"type":"Point","coordinates":[33.45396,47.91161]}},
{"type":"Feature","id":"441611497","properties":{"josm":"w441611497","name":"Фонарная улица","nameuk":"Фонарна вулиця"},"geometry":{"type":"Point","coordinates":[34.47221,49.56818]}},
{"type":"Feature","id":"441614798","properties":{"josm":"w441614798","name":"Леонида Бразова улица","nameuk":"Леоніда Бразова вулиця"},"geometry":{"type":"Point","coordinates":[34.47805,49.57632]}},
{"type":"Feature","id":"441877279","properties":{"josm":"w441877279","name":"Июльская улица","nameuk":"Липнева вулиця"},"geometry":{"type":"Point","coordinates":[34.47857,49.57951]}},
{"type":"Feature","id":"441879042","properties":{"josm":"w441879042","name":"Терновая улица","nameuk":"Тернова вулиця"},"geometry":{"type":"Point","coordinates":[34.47034,49.57454]}},
{"type":"Feature","id":"441880904","properties":{"josm":"w441880904","name":"ИваІванівська вулиця","nameuk":"Іванівська вулиця"},"geometry":{"type":"Point","coordinates":[34.47031,49.57263]}},
{"type":"Feature","id":"441880960","properties":{"josm":"w441880960","name":"Подсолнечная улица","nameuk":"Соняшникова вулиця"},"geometry":{"type":"Point","coordinates":[34.47054,49.5712]}},
{"type":"Feature","id":"444151183","properties":{"josm":"w444151183","name":"Славы переулок","nameuk":"Слави провулок"},"geometry":{"type":"Point","coordinates":[35.2623,50.76276]}},
{"type":"Feature","id":"444151370","properties":{"josm":"w444151370","name":"Тургенева улица","nameuk":"Тургенєва вулиця"},"geometry":{"type":"Point","coordinates":[35.25859,50.76124]}},
{"type":"Feature","id":"444152248","properties":{"josm":"w444152248","name":"Славы улица","nameuk":"Слави вулиця"},"geometry":{"type":"Point","coordinates":[35.26311,50.76167]}},
{"type":"Feature","id":"444152251","properties":{"josm":"w444152251","name":"Ватутина улица","nameuk":"Ватутіна вулиця"},"geometry":{"type":"Point","coordinates":[35.2728,50.76394]}},
{"type":"Feature","id":"444153421","properties":{"josm":"w444153421","name":"Степная улица","nameuk":"Степова вулиця"},"geometry":{"type":"Point","coordinates":[35.2714,50.75939]}},
{"type":"Feature","id":"444571383","properties":{"josm":"w444571383","name":"вулиця Росавська","nameuk":"Шевченка вулиця"},"geometry":{"type":"Point","coordinates":[30.82928,49.86254]}},
{"type":"Feature","id":"445354730","properties":{"josm":"w445354730","name":"Европейский","nameuk":"Дорошенка в’їзд"},"geometry":{"type":"Point","coordinates":[37.28114,49.21606]}},
{"type":"Feature","id":"445935400","properties":{"josm":"w445935400","name":"Донецька вул.","nameuk":"Донецька вулиця"},"geometry":{"type":"Point","coordinates":[35.09003,47.92663]}},
{"type":"Feature","id":"446327863","properties":{"josm":"w446327863","name":"Воронежский переулок","nameuk":"Воронезький провулок"},"geometry":{"type":"Point","coordinates":[36.81222,46.77193]}},
{"type":"Feature","id":"448651370","properties":{"josm":"w448651370","name":"Ворошилова вулиця","nameuk":"Ворошилова улица"},"geometry":{"type":"Point","coordinates":[35.89468,47.25025]}},
{"type":"Feature","id":"450355202","properties":{"josm":"w450355202","name":"Горького  вулиця","nameuk":"Набережна вулиця"},"geometry":{"type":"Point","coordinates":[34.43011,48.60308]}},
{"type":"Feature","id":"450540563","properties":{"josm":"w450540563","name":"Шкільна  вулиця","nameuk":"Комсомольська вулиця"},"geometry":{"type":"Point","coordinates":[34.41187,48.59025]}},
{"type":"Feature","id":"451010945","properties":{"josm":"w451010945","name":"Робітничий провулок","nameuk":"Робітнича вулиця"},"geometry":{"type":"Point","coordinates":[34.40073,48.54415]}},
{"type":"Feature","id":"451878361","properties":{"josm":"w451878361","name":"Дружби  Народів вулиця","nameuk":"Гоголя вулиця"},"geometry":{"type":"Point","coordinates":[34.29167,48.65753]}},
{"type":"Feature","id":"451879315","properties":{"josm":"w451879315","name":"Підгірна вулиця","nameuk":"Шкільна вулиця"},"geometry":{"type":"Point","coordinates":[34.29288,48.65844]}},
{"type":"Feature","id":"452011782","properties":{"josm":"w452011782","name":"Шкільний провулок","nameuk":"Гоголя вулиця"},"geometry":{"type":"Point","coordinates":[34.29093,48.65676]}},
{"type":"Feature","id":"452207366","properties":{"josm":"w452207366","name":"Лісна  вулиця","nameuk":"Харківська вулиця"},"geometry":{"type":"Point","coordinates":[34.31908,48.65329]}},
{"type":"Feature","id":"452383502","properties":{"josm":"w452383502","name":"Вишнева  вулиця","nameuk":"Вишнева вулиця"},"geometry":{"type":"Point","coordinates":[34.23345,48.46803]}},
{"type":"Feature","id":"452383661","properties":{"josm":"w452383661","name":"Г. Сковороди  вулиця","nameuk":"Комсомольська вулиця"},"geometry":{"type":"Point","coordinates":[34.27536,48.47862]}},
{"type":"Feature","id":"452386056","properties":{"josm":"w452386056","name":"Княгині Ольги  провулок","nameuk":"Крупської провулок"},"geometry":{"type":"Point","coordinates":[34.21357,48.48077]}},
{"type":"Feature","id":"452386057","properties":{"josm":"w452386057","name":"Княгині Ольги  провулок","nameuk":"Крупської провулок"},"geometry":{"type":"Point","coordinates":[34.21512,48.47815]}},
{"type":"Feature","id":"452623799","properties":{"josm":"w452623799","name":"Степна  вулиця","nameuk":"Нова вулиця"},"geometry":{"type":"Point","coordinates":[34.3611,48.55323]}},
{"type":"Feature","id":"454615497","properties":{"josm":"w454615497","name":"Революційна вулиця","nameuk":"Степана Тільги вулиця"},"geometry":{"type":"Point","coordinates":[33.40141,47.8976]}},
{"type":"Feature","id":"454705525","properties":{"josm":"w454705525","name":"переулок Торговый","nameuk":"Свободи вулиця"},"geometry":{"type":"Point","coordinates":[37.79927,48.98479]}},
{"type":"Feature","id":"454717766","properties":{"josm":"w454717766","name":"переулок запорожский","nameuk":"Запорізька вулиця"},"geometry":{"type":"Point","coordinates":[37.79766,48.99928]}},
{"type":"Feature","id":"455139853","properties":{"josm":"w455139853","name":"Новопомерчанская улица","nameuk":"Новопомерчанська вулиця"},"geometry":{"type":"Point","coordinates":[36.26674,50.05835]}},
{"type":"Feature","id":"456709539","properties":{"josm":"w456709539","name":"Spruce Avenue","nameuk":"Ялинкова алея"},"geometry":{"type":"Point","coordinates":[30.06329,49.811]}},
{"type":"Feature"}
]}
