{
"type": "FeatureCollection",
"errorDescr": "Incorrect <b>name</b>-tag value",
"features": [
{"type":"Feature","id":"33792915","properties":{"josm":"w33792915","name":"Площадь Ленина","nameuk":"Площа Леніна"},"geometry":{"type":"Point","coordinates":[35.25616,48.63399]}},
{"type":"Feature","id":"39624965","properties":{"josm":"w39624965","name":"Бехтерева вулиця","nameuk":"Бехтерєва вулиця"},"geometry":{"type":"Point","coordinates":[35.18559,48.47183]}},
{"type":"Feature","id":"76858025","properties":{"josm":"w76858025","name":"1-я лінія","nameuk":"1-а лінія"},"geometry":{"type":"Point","coordinates":[30.81517,50.61811]}},
{"type":"Feature","id":"83296600","properties":{"josm":"w83296600","name":"Чонгарский мост","nameuk":"Чонгарський міст"},"geometry":{"type":"Point","coordinates":[34.55253,45.98796]}},
{"type":"Feature","id":"102687592","properties":{"josm":"w102687592","name":"Солікамська вулиця","nameuk":"Соликамская вулиця"},"geometry":{"type":"Point","coordinates":[37.87854,47.98574]}},
{"type":"Feature","id":"105706597","properties":{"josm":"w105706597","name":"Каляева улица","nameuk":"Каляєва вулиця"},"geometry":{"type":"Point","coordinates":[36.69209,49.84241]}},
{"type":"Feature","id":"106089998","properties":{"josm":"w106089998","name":"11-а Лінія","nameuk":"11-а лінія"},"geometry":{"type":"Point","coordinates":[30.27181,50.54138]}},
{"type":"Feature","id":"106271624","properties":{"josm":"w106271624","name":"Кожедуба улица","nameuk":"Кожедуба вулиця"},"geometry":{"type":"Point","coordinates":[36.68806,49.84178]}},
{"type":"Feature","id":"106287118","properties":{"josm":"w106287118","name":"Академіка Рапопорта вулиця","nameuk":"Академіка Рапопорта"},"geometry":{"type":"Point","coordinates":[31.32337,51.53139]}},
{"type":"Feature","id":"107339105","properties":{"josm":"w107339105","name":"Кашватова вулиця","nameuk":"Каштанова вулиця"},"geometry":{"type":"Point","coordinates":[31.26721,51.51814]}},
{"type":"Feature","id":"112682964","properties":{"josm":"w112682964","name":"Желанна вулиця","nameuk":"Бажана вулиця"},"geometry":{"type":"Point","coordinates":[37.60074,47.97009]}},
{"type":"Feature","id":"114522645","properties":{"josm":"w114522645","name":"Хлібодарна вулиця","nameuk":"Хлебодарная вулиця"},"geometry":{"type":"Point","coordinates":[37.77355,48.00927]}},
{"type":"Feature","id":"114523373","properties":{"josm":"w114523373","name":"Хлібодарна вулиця","nameuk":"Хлебодарная вулиця"},"geometry":{"type":"Point","coordinates":[37.77172,48.01348]}},
{"type":"Feature","id":"114523799","properties":{"josm":"w114523799","name":"Хлібодарна вулиця","nameuk":"Хлебодарная вулиця"},"geometry":{"type":"Point","coordinates":[37.76268,48.01411]}},
{"type":"Feature","id":"115554203","properties":{"josm":"w115554203","name":"Юр’єва вулиця","nameuk":"Юрійова вулиця"},"geometry":{"type":"Point","coordinates":[37.80535,48.06259]}},
{"type":"Feature","id":"116569276","properties":{"josm":"w116569276","name":"Юрія Смирнова вулиця","nameuk":"Юрія Смірнова вулиця"},"geometry":{"type":"Point","coordinates":[37.7662,48.02867]}},
{"type":"Feature","id":"122835271","properties":{"josm":"w122835271","name":"Молодежная улица","nameuk":"Молодіжна вулиця"},"geometry":{"type":"Point","coordinates":[38.44755,47.85554]}},
{"type":"Feature","id":"126632935","properties":{"josm":"w126632935","name":"Магнiтогорська вулиця","nameuk":"Магнітогорська вулиця"},"geometry":{"type":"Point","coordinates":[37.5917,48.75062]}},
{"type":"Feature","id":"129835863","properties":{"josm":"w129835863","name":"Хлібодарна вулиця","nameuk":"Хлебодарная вулиця"},"geometry":{"type":"Point","coordinates":[37.77402,48.00254]}},
{"type":"Feature","id":"134103486","properties":{"josm":"w134103486","name":"Молодежная улица","nameuk":"Молодіжна вулиця"},"geometry":{"type":"Point","coordinates":[37.40126,46.9681]}},
{"type":"Feature","id":"136438191","properties":{"josm":"w136438191","name":"Желанна вулиця","nameuk":"Бажана вулиця"},"geometry":{"type":"Point","coordinates":[37.58953,47.97192]}},
{"type":"Feature","id":"137572047","properties":{"josm":"w137572047","name":"60-лет СССР улица","nameuk":"60 років СРСР вулиця"},"geometry":{"type":"Point","coordinates":[38.08159,47.11838]}},
{"type":"Feature","id":"137572682","properties":{"josm":"w137572682","name":"Молодежная улица","nameuk":"Молодіжна вулиця"},"geometry":{"type":"Point","coordinates":[38.10788,47.11351]}},
{"type":"Feature","id":"142957877","properties":{"josm":"w142957877","name":"8 Сьезда Советов улица","nameuk":"8-го З’їзду Рад вулиця"},"geometry":{"type":"Point","coordinates":[38.48762,47.78849]}},
{"type":"Feature","id":"145109061","properties":{"josm":"w145109061","name":"Бакинских Комисаров улица","nameuk":"Бакинських Комісарів вулиця"},"geometry":{"type":"Point","coordinates":[38.46601,48.03765]}},
{"type":"Feature","id":"148067325","properties":{"josm":"w148067325","name":"Златопольська вулиця","nameuk":"Златопільська вулиця"},"geometry":{"type":"Point","coordinates":[32.21317,48.48166]}},
{"type":"Feature","id":"148112944","properties":{"josm":"w148112944","name":"Щорса вулиця (стор. пос.Дослідної ст.), Степова ввулиця (стор. с.Вигода)","nameuk":"Щорса вулиця"},"geometry":{"type":"Point","coordinates":[30.39234,46.60883]}},
{"type":"Feature","id":"155861824","properties":{"josm":"w155861824","name":"ул. Ленина","nameuk":"вул. Леніна"},"geometry":{"type":"Point","coordinates":[30.55065,46.48445]}},
{"type":"Feature","id":"167455343","properties":{"josm":"w167455343","name":"Турунська вулиця","nameuk":"Турунская вулиця"},"geometry":{"type":"Point","coordinates":[37.67136,47.92072]}},
{"type":"Feature","id":"167458567","properties":{"josm":"w167458567","name":"Проїжджа вулиця","nameuk":"Проїздна вулиця"},"geometry":{"type":"Point","coordinates":[37.67472,47.91954]}},
{"type":"Feature","id":"167459059","properties":{"josm":"w167459059","name":"Бринька вулиця","nameuk":"Бринько вулиця"},"geometry":{"type":"Point","coordinates":[37.6785,47.92013]}},
{"type":"Feature","id":"167991159","properties":{"josm":"w167991159","name":"Садова провулок чи вулиця?","nameuk":"Садова провулок"},"geometry":{"type":"Point","coordinates":[33.17754,49.59085]}},
{"type":"Feature","id":"169566576","properties":{"josm":"w169566576","name":"Лип'янська вулиця","nameuk":"Ганни Дмитришиної вулиця"},"geometry":{"type":"Point","coordinates":[26.02729,50.55492]}},
{"type":"Feature","id":"171633340","properties":{"josm":"w171633340","name":"Верхньошевченківський провулок","nameuk":"Верхньошевченківский провулок"},"geometry":{"type":"Point","coordinates":[37.17433,48.41055]}},
{"type":"Feature","id":"175083114","properties":{"josm":"w175083114","name":"Рози Люксембург переулок","nameuk":"Рози Люксембург вулиця"},"geometry":{"type":"Point","coordinates":[38.56009,48.85844]}},
{"type":"Feature","id":"179312419","properties":{"josm":"w179312419","name":"Озерная улица","nameuk":"Озерна вулиця"},"geometry":{"type":"Point","coordinates":[37.98966,48.27831]}},
{"type":"Feature","id":"183666170","properties":{"josm":"w183666170","name":"Скелевая улица","nameuk":"Смирнова вулиця"},"geometry":{"type":"Point","coordinates":[38.47919,47.89175]}},
{"type":"Feature","id":"188287368","properties":{"josm":"w188287368","name":"ул. 2-я Сортоиспытательная","nameuk":"вул. 2-я Сортовипробувальна"},"geometry":{"type":"Point","coordinates":[30.56051,46.45858]}},
{"type":"Feature","id":"188287407","properties":{"josm":"w188287407","name":"ул. Черноморская","nameuk":"вул. Чорноморська"},"geometry":{"type":"Point","coordinates":[30.55858,46.45833]}},
{"type":"Feature","id":"188289299","properties":{"josm":"w188289299","name":"ул. Шевченко","nameuk":"вул. Шевченко"},"geometry":{"type":"Point","coordinates":[30.57788,46.44246]}},
{"type":"Feature","id":"188318498","properties":{"josm":"w188318498","name":"Молодежная улица","nameuk":"Молодіжна вулиця"},"geometry":{"type":"Point","coordinates":[37.91232,48.18959]}},
{"type":"Feature","id":"188318545","properties":{"josm":"w188318545","name":"Молодежная улица","nameuk":"Молодіжна вулиця"},"geometry":{"type":"Point","coordinates":[37.9188,48.18716]}},
{"type":"Feature","id":"188318552","properties":{"josm":"w188318552","name":"Молодежная улица","nameuk":"Молодіжна вулиця"},"geometry":{"type":"Point","coordinates":[37.91265,48.1889]}},
{"type":"Feature","id":"200763050","properties":{"josm":"w200763050","name":"Южная дорога","nameuk":"Південна дорога"},"geometry":{"type":"Point","coordinates":[30.78038,46.56134]}},
{"type":"Feature","id":"205185203","properties":{"josm":"w205185203","name":"Южная дорога","nameuk":"Південна дорога"},"geometry":{"type":"Point","coordinates":[30.78052,46.56124]}},
{"type":"Feature","id":"210554239","properties":{"josm":"w210554239","name":"Магеллана Ф. вулиця","nameuk":"Магеллана вулиця"},"geometry":{"type":"Point","coordinates":[37.99315,48.06218]}},
{"type":"Feature","id":"221866353","properties":{"josm":"w221866353","name":"Кухарева вулиця","nameuk":"23 Кухарева вулиця"},"geometry":{"type":"Point","coordinates":[31.76853,47.31415]}},
{"type":"Feature","id":"227460040","properties":{"josm":"w227460040","name":"ул. Черноморская","nameuk":"вул. Чорноморська"},"geometry":{"type":"Point","coordinates":[30.5602,46.45419]}},
{"type":"Feature","id":"227460043","properties":{"josm":"w227460043","name":"ул. Профсоюзная","nameuk":"вул. Профспілкова"},"geometry":{"type":"Point","coordinates":[30.56245,46.4524]}},
{"type":"Feature","id":"247789161","properties":{"josm":"w247789161","name":"Молодежная улица","nameuk":"Молодіжна вулиця"},"geometry":{"type":"Point","coordinates":[37.91648,48.18842]}},
{"type":"Feature","id":"251255495","properties":{"josm":"w251255495","name":"Зеленая улица","nameuk":"Зелена вулиця"},"geometry":{"type":"Point","coordinates":[33.3093,51.7711]}},
{"type":"Feature","id":"260620816","properties":{"josm":"w260620816","name":"улица Матросова","nameuk":"Матросова вулиця"},"geometry":{"type":"Point","coordinates":[34.74448,45.44781]}},
{"type":"Feature","id":"260620840","properties":{"josm":"w260620840","name":"улица Матросова","nameuk":"Матросова вулиця"},"geometry":{"type":"Point","coordinates":[34.74344,45.4481]}},
{"type":"Feature","id":"260620841","properties":{"josm":"w260620841","name":"улица Матросова","nameuk":"Матросова вулиця"},"geometry":{"type":"Point","coordinates":[34.74159,45.44861]}},
{"type":"Feature","id":"260620851","properties":{"josm":"w260620851","name":"улица Матросова","nameuk":"Матросова вулиця"},"geometry":{"type":"Point","coordinates":[34.73895,45.44863]}},
{"type":"Feature","id":"262721205","properties":{"josm":"w262721205","name":"Чайкиної вулиця","nameuk":"Чайкіної вулиця"},"geometry":{"type":"Point","coordinates":[37.52005,47.5843]}},
{"type":"Feature","id":"268115760","properties":{"josm":"w268115760","name":"Златопольська вулиця","nameuk":"Златопільська вулиця"},"geometry":{"type":"Point","coordinates":[32.21048,48.48023]}},
{"type":"Feature","id":"268115762","properties":{"josm":"w268115762","name":"Златопольська вулиця","nameuk":"Златопільська вулиця"},"geometry":{"type":"Point","coordinates":[32.20853,48.47917]}},
{"type":"Feature","id":"272921005","properties":{"josm":"w272921005","name":"Матяхина переулок","nameuk":"Матяхіна провулок"},"geometry":{"type":"Point","coordinates":[34.93156,45.33989]}},
{"type":"Feature","id":"279537294","properties":{"josm":"w279537294","name":"Бринька вулиця","nameuk":"Бринько вулиця"},"geometry":{"type":"Point","coordinates":[37.67722,47.91894]}},
{"type":"Feature","id":"294654872","properties":{"josm":"w294654872","name":"Катовицька вулиця","nameuk":"Катовіцька вулиця"},"geometry":{"type":"Point","coordinates":[37.66677,47.93108]}},
{"type":"Feature","id":"294813883","properties":{"josm":"w294813883","name":"Черняхівського вулиця","nameuk":"Черняховського вулиця"},"geometry":{"type":"Point","coordinates":[38.01292,48.3559]}},
{"type":"Feature","id":"295281340","properties":{"josm":"w295281340","name":"Чкалова улица","nameuk":"Садова вулиця"},"geometry":{"type":"Point","coordinates":[30.24314,46.44675]}},
{"type":"Feature","id":"300862645","properties":{"josm":"w300862645","name":"Молодежная улица","nameuk":"Молодіжна вулиця"},"geometry":{"type":"Point","coordinates":[37.39127,47.23169]}},
{"type":"Feature","id":"304386665","properties":{"josm":"w304386665","name":"Молодежная улица","nameuk":"Молодіжна вулиця"},"geometry":{"type":"Point","coordinates":[38.07073,47.67644]}},
{"type":"Feature","id":"304386676","properties":{"josm":"w304386676","name":"Молодежная улица","nameuk":"Молодіжна вулиця"},"geometry":{"type":"Point","coordinates":[38.07138,47.67776]}},
{"type":"Feature","id":"315917350","properties":{"josm":"w315917350","name":"ул. Шевченко","nameuk":"вул. Шевченко"},"geometry":{"type":"Point","coordinates":[30.57709,46.44972]}},
{"type":"Feature","id":"315917992","properties":{"josm":"w315917992","name":"ул. Шевченко","nameuk":"вул. Шевченко"},"geometry":{"type":"Point","coordinates":[30.5795,46.43511]}},
{"type":"Feature","id":"323550643","properties":{"josm":"w323550643","name":"Дворецька вулиця","nameuk":"17 вересня вулиця"},"geometry":{"type":"Point","coordinates":[26.03028,50.54351]}},
{"type":"Feature","id":"324619787","properties":{"josm":"w324619787","name":"Мирна вулиця","nameuk":"вулиця Мирна"},"geometry":{"type":"Point","coordinates":[30.50731,50.46409]}},
{"type":"Feature","id":"333432096","properties":{"josm":"w333432096","name":"Молодежная улица","nameuk":"Молодіжна вулиця"},"geometry":{"type":"Point","coordinates":[38.07158,47.67763]}},
{"type":"Feature","id":"335392530","properties":{"josm":"w335392530","name":"Молодежная улица","nameuk":"Молодіжна вулиця"},"geometry":{"type":"Point","coordinates":[37.17476,47.98792]}},
{"type":"Feature","id":"335673623","properties":{"josm":"w335673623","name":"60-лет СССР улица","nameuk":"60 років СРСР вулиця"},"geometry":{"type":"Point","coordinates":[37.19007,47.0544]}},
{"type":"Feature","id":"335976624","properties":{"josm":"w335976624","name":"Молодежная улица","nameuk":"Молодіжна вулиця"},"geometry":{"type":"Point","coordinates":[38.94028,47.92131]}},
{"type":"Feature","id":"336116218","properties":{"josm":"w336116218","name":"Озерная улица","nameuk":"Озерна вулиця"},"geometry":{"type":"Point","coordinates":[37.44875,48.57493]}},
{"type":"Feature","id":"336603463","properties":{"josm":"w336603463","name":"Молодежная улица","nameuk":"Молодіжна вулиця"},"geometry":{"type":"Point","coordinates":[38.17663,47.94606]}},
{"type":"Feature","id":"364393518","properties":{"josm":"w364393518","name":"8 Сьезда Советов улица","nameuk":"8-го З’їзду Рад вулиця"},"geometry":{"type":"Point","coordinates":[38.49673,47.78851]}},
{"type":"Feature","id":"374272911","properties":{"josm":"w374272911","name":"Зеленая улица","nameuk":"Зелена вулиця"},"geometry":{"type":"Point","coordinates":[33.30461,51.76865]}},
{"type":"Feature","id":"381743121","properties":{"josm":"w381743121","name":"Рывкина улица","nameuk":"Ривкіна вулиця"},"geometry":{"type":"Point","coordinates":[31.29822,51.54213]}},
{"type":"Feature","id":"381746915","properties":{"josm":"w381746915","name":"Григоренка вулиця","nameuk":"Григоренко вулиця"},"geometry":{"type":"Point","coordinates":[31.32312,51.5374]}},
{"type":"Feature","id":"381746917","properties":{"josm":"w381746917","name":"Авіації вулиця","nameuk":"Авіаціі вулиця"},"geometry":{"type":"Point","coordinates":[31.32504,51.53921]}},
{"type":"Feature","id":"381746920","properties":{"josm":"w381746920","name":"Банченка вулиця","nameuk":"вулиця Банченка"},"geometry":{"type":"Point","coordinates":[31.32532,51.54013]}},
{"type":"Feature"}
]}
