{
"type": "FeatureCollection",
"errorDescr": "Incorrect <b>name</b>-tag value",
"features": [
{"type":"Feature","id":"27226642","properties":{"josm":"w27226642","name":"Вільгельма Габсбурга провулок","nameuk":"Богданова провулок"},"geometry":{"type":"Point","coordinates":[30.72219,46.48834]}},
{"type":"Feature","id":"28472062","properties":{"josm":"w28472062","name":"Щёлкина улица","nameuk":"Щолкіна вулиця"},"geometry":{"type":"Point","coordinates":[35.82334,45.42965]}},
{"type":"Feature","id":"28486564","properties":{"josm":"w28486564","name":"аллея №2","nameuk":"алея №1"},"geometry":{"type":"Point","coordinates":[35.8205,45.43056]}},
{"type":"Feature","id":"30173400","properties":{"josm":"w30173400","name":"Лозовеньківський проспект","nameuk":"Окружна дорога"},"geometry":{"type":"Point","coordinates":[36.18048,50.05361]}},
{"type":"Feature","id":"31668656","properties":{"josm":"w31668656","name":"СТ Світанок","nameuk":"Садове товариство Світанок"},"geometry":{"type":"Point","coordinates":[30.64553,50.2625]}},
{"type":"Feature","id":"33792913","properties":{"josm":"w33792913","name":"Шевченко улица","nameuk":"Перемоги площа"},"geometry":{"type":"Point","coordinates":[35.26018,48.6278]}},
{"type":"Feature","id":"34203129","properties":{"josm":"w34203129","name":"Копиловська вулиця","nameuk":"Першої Маївки вулиця"},"geometry":{"type":"Point","coordinates":[36.2085,50.00102]}},
{"type":"Feature","id":"34572897","properties":{"josm":"w34572897","name":"провулок Шарівський","nameuk":"Спортивна вулиця"},"geometry":{"type":"Point","coordinates":[36.157,49.9808]}},
{"type":"Feature","id":"34679755","properties":{"josm":"w34679755","name":"Терихівська вулиця","nameuk":"Скорохода вулиця"},"geometry":{"type":"Point","coordinates":[36.18191,49.99515]}},
{"type":"Feature","id":"34838730","properties":{"josm":"w34838730","name":"Сільський в’їзд","nameuk":"Колгоспний в’їзд"},"geometry":{"type":"Point","coordinates":[36.30029,50.05467]}},
{"type":"Feature","id":"34839561","properties":{"josm":"w34839561","name":"Стара Озерянка вулиця","nameuk":"Аральська вулиця"},"geometry":{"type":"Point","coordinates":[36.33507,50.04493]}},
{"type":"Feature","id":"35478586","properties":{"josm":"w35478586","name":"Козацкий переулок","nameuk":"Будівельна вулиця"},"geometry":{"type":"Point","coordinates":[33.64276,47.56741]}},
{"type":"Feature","id":"37718518","properties":{"josm":"w37718518","name":"Серго Орджоникидзе улица","nameuk":"Орджонікідзе вулиця"},"geometry":{"type":"Point","coordinates":[33.50537,44.59066]}},
{"type":"Feature","id":"39273509","properties":{"josm":"w39273509","name":"Розы Люксембург улица","nameuk":"Рози Люксембург вулиця"},"geometry":{"type":"Point","coordinates":[33.54284,44.60959]}},
{"type":"Feature","id":"41081809","properties":{"josm":"w41081809","name":"Трудова вулиця","nameuk":"Джерельна вулиця"},"geometry":{"type":"Point","coordinates":[27.03142,49.4318]}},
{"type":"Feature","id":"42976870","properties":{"josm":"w42976870","name":"Щёлкина улица","nameuk":"Щолкіна вулиця"},"geometry":{"type":"Point","coordinates":[35.82638,45.42747]}},
{"type":"Feature","id":"57989472","properties":{"josm":"w57989472","name":"Podul Prieteniei","nameuk":"Дружба міст"},"geometry":{"type":"Point","coordinates":[27.78988,48.44375]}},
{"type":"Feature","id":"69253381","properties":{"josm":"w69253381","name":"Волошкова вулиця","nameuk":"Василькова вулиця"},"geometry":{"type":"Point","coordinates":[34.75931,50.93465]}},
{"type":"Feature","id":"81204334","properties":{"josm":"w81204334","name":"Морозова вулиця","nameuk":"Степана Мазурця вулиця"},"geometry":{"type":"Point","coordinates":[25.36354,50.74829]}},
{"type":"Feature","id":"83296600","properties":{"josm":"w83296600","name":"Чонгарский мост - Чонгарський міст","nameuk":"Чонгарський міст"},"geometry":{"type":"Point","coordinates":[34.55253,45.98796]}},
{"type":"Feature","id":"86267548","properties":{"josm":"w86267548","name":"Парусная улица","nameuk":"Вітрильна вулиця"},"geometry":{"type":"Point","coordinates":[36.76818,46.7618]}},
{"type":"Feature","id":"86463430","properties":{"josm":"w86463430","name":"Терихівська вулиця","nameuk":"Скорохода вулиця"},"geometry":{"type":"Point","coordinates":[36.18417,49.99402]}},
{"type":"Feature","id":"86859486","properties":{"josm":"w86859486","name":"Колійний провулок","nameuk":"Піщаний провулок"},"geometry":{"type":"Point","coordinates":[36.24212,49.95272]}},
{"type":"Feature","id":"89547645","properties":{"josm":"w89547645","name":"Сковороди вулиця","nameuk":"Калініна вулиця"},"geometry":{"type":"Point","coordinates":[36.18791,49.91355]}},
{"type":"Feature","id":"96330098","properties":{"josm":"w96330098","name":"Тенистая улица","nameuk":"Промисловий провулок"},"geometry":{"type":"Point","coordinates":[33.86362,45.71902]}},
{"type":"Feature","id":"96932502","properties":{"josm":"w96932502","name":"Дорога для пограничников","nameuk":"Дорога для прикордонників"},"geometry":{"type":"Point","coordinates":[33.62748,46.13726]}},
{"type":"Feature","id":"97606389","properties":{"josm":"w97606389","name":"Ленина улица","nameuk":"Лєнона вулиця"},"geometry":{"type":"Point","coordinates":[36.04367,49.82593]}},
{"type":"Feature","id":"97820519","properties":{"josm":"w97820519","name":"Стадіонний в’їзд","nameuk":"Жовтня в’їзд"},"geometry":{"type":"Point","coordinates":[36.29918,49.87312]}},
{"type":"Feature","id":"99218685","properties":{"josm":"w99218685","name":"Дундича вулиця ( Амосова)","nameuk":"Дундича вулиця"},"geometry":{"type":"Point","coordinates":[30.29935,50.27489]}},
{"type":"Feature","id":"100977886","properties":{"josm":"w100977886","name":"1-го Травня провулок","nameuk":"1-го Травня вулиця"},"geometry":{"type":"Point","coordinates":[30.43224,50.61408]}},
{"type":"Feature","id":"101248203","properties":{"josm":"w101248203","name":"улица Вели Ибрагимова","nameuk":"Велі Ібрагімова вулиця"},"geometry":{"type":"Point","coordinates":[33.87062,44.74095]}},
{"type":"Feature","id":"104134992","properties":{"josm":"w104134992","name":"улица Космонавта Волкова","nameuk":"Вінницька вулиця"},"geometry":{"type":"Point","coordinates":[33.6468,44.58404]}},
{"type":"Feature","id":"104886537","properties":{"josm":"w104886537","name":"Науки улица","nameuk":"Науки вулиця"},"geometry":{"type":"Point","coordinates":[36.18882,49.91986]}},
{"type":"Feature","id":"107354102","properties":{"josm":"w107354102","name":"Неборака улица","nameuk":"Неборака вулиця"},"geometry":{"type":"Point","coordinates":[31.26183,51.5349]}},
{"type":"Feature","id":"107456173","properties":{"josm":"w107456173","name":"Добролюбова провулок","nameuk":"Добролюбова вулиця"},"geometry":{"type":"Point","coordinates":[31.236,51.50045]}},
{"type":"Feature","id":"107678769","properties":{"josm":"w107678769","name":"Германа Шахли вулиця","nameuk":"Челюскіна вулиця"},"geometry":{"type":"Point","coordinates":[34.51875,49.5875]}},
{"type":"Feature","id":"107678771","properties":{"josm":"w107678771","name":"Германа Шахли вулиця","nameuk":"Герман Шахли провулок"},"geometry":{"type":"Point","coordinates":[34.51303,49.58498]}},
{"type":"Feature","id":"107972062","properties":{"josm":"w107972062","name":"улица Ашик Умера","nameuk":"Ашик Умера вулиця"},"geometry":{"type":"Point","coordinates":[34.99419,44.84843]}},
{"type":"Feature","id":"109582437","properties":{"josm":"w109582437","name":"Восьмого Березня вулиця","nameuk":"Першої Маївки вулиця"},"geometry":{"type":"Point","coordinates":[36.20954,49.99917]}},
{"type":"Feature","id":"110359328","properties":{"josm":"w110359328","name":"улица Игнатенко","nameuk":"Графський проїзд"},"geometry":{"type":"Point","coordinates":[34.17048,44.4968]}},
{"type":"Feature","id":"111495707","properties":{"josm":"w111495707","name":"улица Победы","nameuk":"Перемоги вулиця"},"geometry":{"type":"Point","coordinates":[35.94695,49.74011]}},
{"type":"Feature","id":"111597589","properties":{"josm":"w111597589","name":"Леніна вулиця","nameuk":"вулиця Гетьмана Iвана Мазепи"},"geometry":{"type":"Point","coordinates":[35.29503,49.8384]}},
{"type":"Feature","id":"113555511","properties":{"josm":"w113555511","name":"Морозенка вулиця","nameuk":"Фабрична вулиця"},"geometry":{"type":"Point","coordinates":[25.7559,50.40792]}},
{"type":"Feature","id":"117903194","properties":{"josm":"w117903194","name":"Кленовий провулок","nameuk":"Суворова вулиця"},"geometry":{"type":"Point","coordinates":[34.36991,48.55028]}},
{"type":"Feature","id":"118077204","properties":{"josm":"w118077204","name":"Нова вулиця","nameuk":"Гагаріна вулиця"},"geometry":{"type":"Point","coordinates":[35.9455,48.49182]}},
{"type":"Feature","id":"120547614","properties":{"josm":"w120547614","name":"переулок Степной","nameuk":"Черняховського провулок"},"geometry":{"type":"Point","coordinates":[36.57243,45.35198]}},
{"type":"Feature","id":"122460153","properties":{"josm":"w122460153","name":"Веселкова вулиця","nameuk":"Ворошилова вулиця"},"geometry":{"type":"Point","coordinates":[39.22249,48.73516]}},
{"type":"Feature","id":"126494391","properties":{"josm":"w126494391","name":"Приозерна вулиця","nameuk":"Колгоспна вулиця"},"geometry":{"type":"Point","coordinates":[25.23471,50.73975]}},
{"type":"Feature","id":"127023719","properties":{"josm":"w127023719","name":"Друга Галатовка вулиця","nameuk":"Коротка вулиця"},"geometry":{"type":"Point","coordinates":[34.32508,48.6511]}},
{"type":"Feature","id":"127025642","properties":{"josm":"w127025642","name":"Перша Галатовка вулиця","nameuk":"1-а Галатовка вулиця"},"geometry":{"type":"Point","coordinates":[34.32464,48.65001]}},
{"type":"Feature","id":"127025646","properties":{"josm":"w127025646","name":"Матросова перевулок","nameuk":"Матросова вулиця"},"geometry":{"type":"Point","coordinates":[34.32135,48.65105]}},
{"type":"Feature","id":"127025648","properties":{"josm":"w127025648","name":"Дніпровська вулиця","nameuk":"Крупської вулиця"},"geometry":{"type":"Point","coordinates":[34.32211,48.65072]}},
{"type":"Feature","id":"127029389","properties":{"josm":"w127029389","name":"Лісна вулиця","nameuk":"Лісова вулиця"},"geometry":{"type":"Point","coordinates":[34.31856,48.65183]}},
{"type":"Feature","id":"127029392","properties":{"josm":"w127029392","name":"Лісна вулиця","nameuk":"Лісова вулиця"},"geometry":{"type":"Point","coordinates":[34.31896,48.65281]}},
{"type":"Feature","id":"127029394","properties":{"josm":"w127029394","name":"Львівська вулиця","nameuk":"Морська вулиця"},"geometry":{"type":"Point","coordinates":[34.31745,48.6512]}},
{"type":"Feature","id":"127029395","properties":{"josm":"w127029395","name":"Верхньодніпровська  вулиця","nameuk":"Харківська вулиця"},"geometry":{"type":"Point","coordinates":[34.31755,48.65011]}},
{"type":"Feature","id":"127029399","properties":{"josm":"w127029399","name":"Галатовський провулок","nameuk":"Базарна вулиця"},"geometry":{"type":"Point","coordinates":[34.32656,48.65062]}},
{"type":"Feature","id":"127628449","properties":{"josm":"w127628449","name":"Богдана Хмельницького вулиця","nameuk":"Леніна вулиця"},"geometry":{"type":"Point","coordinates":[34.37441,48.55064]}},
{"type":"Feature","id":"127628645","properties":{"josm":"w127628645","name":"Ново Степова вулиця","nameuk":"Степова вулиця"},"geometry":{"type":"Point","coordinates":[34.37564,48.54783]}},
{"type":"Feature","id":"127632636","properties":{"josm":"w127632636","name":"Яблунева вулиця","nameuk":"Островського вулиця"},"geometry":{"type":"Point","coordinates":[34.36637,48.55798]}},
{"type":"Feature","id":"127670675","properties":{"josm":"w127670675","name":"Горяна вулиця","nameuk":"Горянська вулиця"},"geometry":{"type":"Point","coordinates":[34.31496,48.54109]}},
{"type":"Feature","id":"128505290","properties":{"josm":"w128505290","name":"Юрія Паращука вулиця","nameuk":"Івана Минайленка вулиця"},"geometry":{"type":"Point","coordinates":[36.18228,49.97959]}},
{"type":"Feature","id":"128976367","properties":{"josm":"w128976367","name":"Коцюбинского","nameuk":"Коцюбинського"},"geometry":{"type":"Point","coordinates":[32.73893,46.68151]}},
{"type":"Feature","id":"129253771","properties":{"josm":"w129253771","name":"Щербицкого площадь","nameuk":"Щербицького площа"},"geometry":{"type":"Point","coordinates":[34.33472,48.65432]}},
{"type":"Feature","id":"129253772","properties":{"josm":"w129253772","name":"Щербицкого площадь","nameuk":"Щербицького площа"},"geometry":{"type":"Point","coordinates":[34.33457,48.65417]}},
{"type":"Feature","id":"129425302","properties":{"josm":"w129425302","name":"Низовый провулок","nameuk":"Низовий провулок"},"geometry":{"type":"Point","coordinates":[36.13779,49.88082]}},
{"type":"Feature","id":"130659531","properties":{"josm":"w130659531","name":"Чапаєва вулиця","nameuk":"Козацька вулиця"},"geometry":{"type":"Point","coordinates":[33.69316,47.66994]}},
{"type":"Feature","id":"130659533","properties":{"josm":"w130659533","name":"Покровська вулиця","nameuk":"Дзержинського вулиця"},"geometry":{"type":"Point","coordinates":[33.70349,47.66748]}},
{"type":"Feature","id":"130735183","properties":{"josm":"w130735183","name":"Ясный провулок","nameuk":"Ясний провулок"},"geometry":{"type":"Point","coordinates":[33.7134,47.67004]}},
{"type":"Feature","id":"130735268","properties":{"josm":"w130735268","name":"Прибережна вулиця","nameuk":"Набережна вулиця"},"geometry":{"type":"Point","coordinates":[33.72736,47.66233]}},
{"type":"Feature","id":"130740772","properties":{"josm":"w130740772","name":"Космонавтов провулок","nameuk":"Космонавтівпровулок"},"geometry":{"type":"Point","coordinates":[33.69479,47.65374]}},
{"type":"Feature","id":"130740778","properties":{"josm":"w130740778","name":"Довжнка вулиця","nameuk":"Довженка вулиця"},"geometry":{"type":"Point","coordinates":[33.69166,47.65445]}},
{"type":"Feature","id":"130740780","properties":{"josm":"w130740780","name":"Некрасова переулок","nameuk":"Нєкрасова перевулок"},"geometry":{"type":"Point","coordinates":[33.69047,47.65697]}},
{"type":"Feature","id":"131606761","properties":{"josm":"w131606761","name":"Юрія Паращука вулиця","nameuk":"Івана Минайленка вулиця"},"geometry":{"type":"Point","coordinates":[36.18464,49.97802]}},
{"type":"Feature","id":"131654326","properties":{"josm":"w131654326","name":"Григорія Сковороди вулиця","nameuk":"Сковороди вулиця"},"geometry":{"type":"Point","coordinates":[38.42721,48.92228]}},
{"type":"Feature","id":"131654327","properties":{"josm":"w131654327","name":"Ігоря Сікорського вулиця","nameuk":"Сікорського вулиця"},"geometry":{"type":"Point","coordinates":[38.41302,48.91841]}},
{"type":"Feature","id":"131860045","properties":{"josm":"w131860045","name":"Соняшникова вулиця","nameuk":"Балашівська вулиця"},"geometry":{"type":"Point","coordinates":[38.36616,48.94954]}},
{"type":"Feature","id":"133293770","properties":{"josm":"w133293770","name":"2-й Ногайський провулок","nameuk":"2-й Цюрупи провулок"},"geometry":{"type":"Point","coordinates":[35.35341,46.86817]}},
{"type":"Feature","id":"133382117","properties":{"josm":"w133382117","name":"Максима Залізняка вулиця","nameuk":"Залізняка вулиця"},"geometry":{"type":"Point","coordinates":[27.00495,49.45475]}},
{"type":"Feature","id":"134690294","properties":{"josm":"w134690294","name":"Соняшникова вулиця","nameuk":"Балашівська вулиця"},"geometry":{"type":"Point","coordinates":[38.36767,48.94871]}},
{"type":"Feature","id":"134702843","properties":{"josm":"w134702843","name":"проспект Святих Кирила та Мефодія","nameuk":"Димитрова проспект"},"geometry":{"type":"Point","coordinates":[32.55967,46.64553]}},
{"type":"Feature","id":"135196195","properties":{"josm":"w135196195","name":"Мостова вулиця","nameuk":"Слизкоухого вулиця"},"geometry":{"type":"Point","coordinates":[34.31372,48.65874]}},
{"type":"Feature","id":"135271027","properties":{"josm":"w135271027","name":"Пилипа Орлика вулиця","nameuk":"Пилипа Орликавулиця"},"geometry":{"type":"Point","coordinates":[32.0189,46.87978]}},
{"type":"Feature","id":"135271047","properties":{"josm":"w135271047","name":"вулиця Приозерна","nameuk":"Приозерна вулиця"},"geometry":{"type":"Point","coordinates":[32.02785,46.87666]}},
{"type":"Feature","id":"135295734","properties":{"josm":"w135295734","name":"вул. Юрія Корлюка","nameuk":"Приовражний провулок"},"geometry":{"type":"Point","coordinates":[33.12905,48.69983]}},
{"type":"Feature","id":"135370934","properties":{"josm":"w135370934","name":"Ломоносова провулок","nameuk":"Провулок Ломоносова"},"geometry":{"type":"Point","coordinates":[38.38333,48.62065]}},
{"type":"Feature","id":"135370939","properties":{"josm":"w135370939","name":"Ломоносова провулок","nameuk":"Провулок Ломоносова"},"geometry":{"type":"Point","coordinates":[38.37815,48.62633]}},
{"type":"Feature","id":"135372709","properties":{"josm":"w135372709","name":"Лермонтова провулок","nameuk":"Провулок Лермонтова"},"geometry":{"type":"Point","coordinates":[38.3839,48.62324]}},
{"type":"Feature","id":"135377331","properties":{"josm":"w135377331","name":"Семафорний провулок","nameuk":"Семофорний провулок"},"geometry":{"type":"Point","coordinates":[38.40295,48.63232]}},
{"type":"Feature","id":"135377404","properties":{"josm":"w135377404","name":"Вільховий провулок","nameuk":"Ольховий провулок"},"geometry":{"type":"Point","coordinates":[38.4062,48.63237]}},
{"type":"Feature","id":"135377407","properties":{"josm":"w135377407","name":"Фадєєва провулок","nameuk":"Провулок Фадєєва"},"geometry":{"type":"Point","coordinates":[38.40807,48.63151]}},
{"type":"Feature","id":"135459425","properties":{"josm":"w135459425","name":"Шкільний провулок","nameuk":"Гоголя вулиця"},"geometry":{"type":"Point","coordinates":[34.29189,48.65689]}},
{"type":"Feature","id":"135726171","properties":{"josm":"w135726171","name":"проспект Азовський","nameuk":"Азовський проспект"},"geometry":{"type":"Point","coordinates":[35.33673,46.36677]}},
{"type":"Feature","id":"135775848","properties":{"josm":"w135775848","name":"Бирюзова улица","nameuk":"Бірюзова провулок"},"geometry":{"type":"Point","coordinates":[38.13923,48.04451]}},
{"type":"Feature","id":"135902901","properties":{"josm":"w135902901","name":"Остапа Вишні  вулиця","nameuk":"Остапа Вишні вулиця"},"geometry":{"type":"Point","coordinates":[34.29187,48.6483]}},
{"type":"Feature","id":"135902905","properties":{"josm":"w135902905","name":"В. Листопад вулиця","nameuk":"Нечуя-Левицького вулиця"},"geometry":{"type":"Point","coordinates":[34.28796,48.64997]}},
{"type":"Feature","id":"136199618","properties":{"josm":"w136199618","name":"Олександра Довженка вулиця","nameuk":"Довженка вулиця"},"geometry":{"type":"Point","coordinates":[38.42237,48.92094]}},
{"type":"Feature","id":"136240219","properties":{"josm":"w136240219","name":"Носаль Є. І. вулиця","nameuk":"Носаль вулиця"},"geometry":{"type":"Point","coordinates":[35.29509,47.37318]}},
{"type":"Feature","id":"138099205","properties":{"josm":"w138099205","name":"Бурковського вулиця","nameuk":"Костюка вулиця"},"geometry":{"type":"Point","coordinates":[27.64529,50.5706]}},
{"type":"Feature","id":"138268585","properties":{"josm":"w138268585","name":"Золочівський шлях вулиця","nameuk":"вулиця Золочівський шлях"},"geometry":{"type":"Point","coordinates":[36.1087,50.11373]}},
{"type":"Feature","id":"140011166","properties":{"josm":"w140011166","name":"Прокоф’єва вулиця","nameuk":"вулиця Прокоф’єва"},"geometry":{"type":"Point","coordinates":[37.52743,47.93439]}},
{"type":"Feature","id":"142456424","properties":{"josm":"w142456424","name":"Переможний провулок","nameuk":"Привокзальна вулиця"},"geometry":{"type":"Point","coordinates":[34.37849,48.55418]}},
{"type":"Feature","id":"142456425","properties":{"josm":"w142456425","name":"Ново Степова вулиця","nameuk":"Степова вулиця"},"geometry":{"type":"Point","coordinates":[34.38265,48.54513]}},
{"type":"Feature","id":"143766909","properties":{"josm":"w143766909","name":"Молодежная","nameuk":"Польова вулиця"},"geometry":{"type":"Point","coordinates":[33.60582,45.14944]}},
{"type":"Feature","id":"143769863","properties":{"josm":"w143769863","name":"улица Челеби-Джихана","nameuk":"Челебі Джихана вулиця"},"geometry":{"type":"Point","coordinates":[33.62767,45.1429]}},
{"type":"Feature","id":"143769886","properties":{"josm":"w143769886","name":"улица Челеби-Джихана","nameuk":"Челебі Джихана вулиця"},"geometry":{"type":"Point","coordinates":[33.62805,45.1397]}},
{"type":"Feature","id":"144378197","properties":{"josm":"w144378197","name":"Олега Кошевого улица","nameuk":"Олега Кошового вулиця"},"geometry":{"type":"Point","coordinates":[33.5119,47.91929]}},
{"type":"Feature","id":"144715236","properties":{"josm":"w144715236","name":"Центральна вулиця","nameuk":"Радянська вулиця"},"geometry":{"type":"Point","coordinates":[32.01365,49.94229]}},
{"type":"Feature","id":"148112944","properties":{"josm":"w148112944","name":"Щорса вулиця (стор. пос.Дослідної ст.), Степова ввулиця (стор. с.Вигода)","nameuk":"Щорса вулиця"},"geometry":{"type":"Point","coordinates":[30.39234,46.60883]}},
{"type":"Feature","id":"148476288","properties":{"josm":"w148476288","name":"Центральна вулиця","nameuk":"Ценральна вулиця"},"geometry":{"type":"Point","coordinates":[31.73579,48.79176]}},
{"type":"Feature","id":"150052780","properties":{"josm":"w150052780","name":"Прижвальського вулиця","nameuk":"Прживальського вулиця"},"geometry":{"type":"Point","coordinates":[34.58245,48.49816]}},
{"type":"Feature","id":"150883690","properties":{"josm":"w150883690","name":"Прибережна вулиця","nameuk":"Набережна вулиця"},"geometry":{"type":"Point","coordinates":[33.73178,47.66255]}},
{"type":"Feature","id":"152261427","properties":{"josm":"w152261427","name":"вулиця Навродського","nameuk":"Куйбишева вулиця"},"geometry":{"type":"Point","coordinates":[37.02842,48.90106]}},
{"type":"Feature","id":"152442075","properties":{"josm":"w152442075","name":"Украинская улица","nameuk":"Українська вулиця"},"geometry":{"type":"Point","coordinates":[33.51329,47.92042]}},
{"type":"Feature","id":"152809355","properties":{"josm":"w152809355","name":"Ситняківська вулиця","nameuk":"Ситняківська"},"geometry":{"type":"Point","coordinates":[30.30328,50.44928]}},
{"type":"Feature","id":"152809395","properties":{"josm":"w152809395","name":"Северинівська вулиця","nameuk":"Северинівська"},"geometry":{"type":"Point","coordinates":[30.30446,50.44927]}},
{"type":"Feature","id":"153652830","properties":{"josm":"w153652830","name":"Нагірна вулиця","nameuk":"Нагорна вулиця"},"geometry":{"type":"Point","coordinates":[34.87115,48.58758]}},
{"type":"Feature","id":"154409607","properties":{"josm":"w154409607","name":"Каштанова вулиця","nameuk":"Леніна вулиця"},"geometry":{"type":"Point","coordinates":[39.23669,48.73871]}},
{"type":"Feature","id":"154409608","properties":{"josm":"w154409608","name":"Центральна вулиця","nameuk":"Радянська вулиця"},"geometry":{"type":"Point","coordinates":[39.23529,48.73789]}},
{"type":"Feature","id":"156597060","properties":{"josm":"w156597060","name":"Лозовеньківський проспект","nameuk":"Окружна дорога"},"geometry":{"type":"Point","coordinates":[36.21159,50.07881]}},
{"type":"Feature","id":"158073060","properties":{"josm":"w158073060","name":"Красна вулиця","nameuk":"Червона вулиця"},"geometry":{"type":"Point","coordinates":[34.24092,48.48096]}},
{"type":"Feature","id":"158361441","properties":{"josm":"w158361441","name":"Ювілейна вулця","nameuk":"Ювілейна вулиця"},"geometry":{"type":"Point","coordinates":[36.39359,49.98839]}},
{"type":"Feature","id":"158668353","properties":{"josm":"w158668353","name":"Спортивна вулиця","nameuk":"Терешкової вулиця"},"geometry":{"type":"Point","coordinates":[34.41477,48.5932]}},
{"type":"Feature","id":"159003481","properties":{"josm":"w159003481","name":"Центральна вулиця","nameuk":"Радянська вулиця"},"geometry":{"type":"Point","coordinates":[34.04211,52.17602]}},
{"type":"Feature","id":"159185132","properties":{"josm":"w159185132","name":"Перший Соборний провулок","nameuk":"Островського провулок"},"geometry":{"type":"Point","coordinates":[34.25,48.48107]}},
{"type":"Feature","id":"159233378","properties":{"josm":"w159233378","name":"С. Ряженцева вулиця","nameuk":"Тельмана вулиця"},"geometry":{"type":"Point","coordinates":[34.23589,48.48915]}},
{"type":"Feature","id":"159233410","properties":{"josm":"w159233410","name":"Перший Кутузова провулок","nameuk":"Кутузова провулок"},"geometry":{"type":"Point","coordinates":[34.22277,48.4781]}},
{"type":"Feature","id":"159757635","properties":{"josm":"w159757635","name":"Леніна вулиця","nameuk":"Центральна вулиця"},"geometry":{"type":"Point","coordinates":[38.98928,48.9594]}},
{"type":"Feature","id":"159757640","properties":{"josm":"w159757640","name":"Солнечная вулиця","nameuk":"Радянська вулиця"},"geometry":{"type":"Point","coordinates":[38.98695,48.9629]}},
{"type":"Feature","id":"159813362","properties":{"josm":"w159813362","name":"Лозовеньківський проспект","nameuk":"Окружна дорога"},"geometry":{"type":"Point","coordinates":[36.26322,50.1021]}},
{"type":"Feature","id":"159813363","properties":{"josm":"w159813363","name":"Лозовеньківський проспект","nameuk":"Окружна дорога"},"geometry":{"type":"Point","coordinates":[36.26582,50.1019]}},
{"type":"Feature","id":"159815292","properties":{"josm":"w159815292","name":"Лозовеньківський проспект","nameuk":"Окружна дорога"},"geometry":{"type":"Point","coordinates":[36.19682,50.06404]}},
{"type":"Feature","id":"159815293","properties":{"josm":"w159815293","name":"Лозовеньківський проспект","nameuk":"Окружна дорога"},"geometry":{"type":"Point","coordinates":[36.18379,50.05508]}},
{"type":"Feature","id":"159815294","properties":{"josm":"w159815294","name":"Лозовеньківський проспект","nameuk":"Окружна дорога"},"geometry":{"type":"Point","coordinates":[36.18203,50.05423]}},
{"type":"Feature","id":"160906937","properties":{"josm":"w160906937","name":"Зазулинского","nameuk":"Зазулинського"},"geometry":{"type":"Point","coordinates":[28.95062,50.10287]}},
{"type":"Feature","id":"162361872","properties":{"josm":"w162361872","name":"Полтавська (Радевича) вулиця","nameuk":"Полтавська вулиця"},"geometry":{"type":"Point","coordinates":[35.09855,49.44263]}},
{"type":"Feature","id":"162361874","properties":{"josm":"w162361874","name":"Полтавська (Радевича) вулиця","nameuk":"Полтавська вулиця"},"geometry":{"type":"Point","coordinates":[35.13742,49.45199]}},
{"type":"Feature","id":"163200999","properties":{"josm":"w163200999","name":"вулиця Садова","nameuk":"Садова вулиця"},"geometry":{"type":"Point","coordinates":[36.95385,49.49147]}},
{"type":"Feature","id":"163218466","properties":{"josm":"w163218466","name":"Горная улица","nameuk":"Гірська вулиця"},"geometry":{"type":"Point","coordinates":[31.21201,51.49636]}},
{"type":"Feature","id":"163591257","properties":{"josm":"w163591257","name":"2-й Козацький провулок","nameuk":"2-й Петровського провулок"},"geometry":{"type":"Point","coordinates":[30.31918,50.18559]}},
{"type":"Feature","id":"164462286","properties":{"josm":"w164462286","name":"Кіреєва вулиця","nameuk":"Киреєва вулиця"},"geometry":{"type":"Point","coordinates":[34.23117,51.19022]}},
{"type":"Feature","id":"166898262","properties":{"josm":"w166898262","name":"вулиця Чужбинського","nameuk":"вулиця Чужбинского"},"geometry":{"type":"Point","coordinates":[26.47344,48.50633]}},
{"type":"Feature","id":"167991159","properties":{"josm":"w167991159","name":"Садова провулок чи вулиця?","nameuk":"Садова провулок"},"geometry":{"type":"Point","coordinates":[33.17754,49.59085]}},
{"type":"Feature","id":"168001319","properties":{"josm":"w168001319","name":"Бєлінського вулиця","nameuk":"Белінського вулиця"},"geometry":{"type":"Point","coordinates":[34.80489,50.9088]}},
{"type":"Feature","id":"168727056","properties":{"josm":"w168727056","name":"улица Валиуллы Муртазаева","nameuk":"Валіулли Муртазаєва вулиця"},"geometry":{"type":"Point","coordinates":[33.8648,44.73721]}},
{"type":"Feature","id":"168908093","properties":{"josm":"w168908093","name":"Героїв-підпільників вулиця","nameuk":"Ленінської Іскри вулиця"},"geometry":{"type":"Point","coordinates":[37.54655,48.59575]}},
{"type":"Feature","id":"169073631","properties":{"josm":"w169073631","name":"Сонячна вулиця","nameuk":"Сонячна улица"},"geometry":{"type":"Point","coordinates":[35.95961,50.27466]}},
{"type":"Feature","id":"169398903","properties":{"josm":"w169398903","name":"Калинова вулиця","nameuk":"Калініна вулиця"},"geometry":{"type":"Point","coordinates":[34.27899,48.48223]}},
{"type":"Feature","id":"169566576","properties":{"josm":"w169566576","name":"Лип'янська вулиця","nameuk":"Ганни Дмитришиної вулиця"},"geometry":{"type":"Point","coordinates":[26.02729,50.55492]}},
{"type":"Feature","id":"171264907","properties":{"josm":"w171264907","name":"Приозёрная улица","nameuk":"Приозерна вулиця"},"geometry":{"type":"Point","coordinates":[36.04156,49.97504]}},
{"type":"Feature","id":"172302821","properties":{"josm":"w172302821","name":"Безхлібна (Гребінківська) вулиця","nameuk":"Безхлібна вулиця"},"geometry":{"type":"Point","coordinates":[32.44026,50.10391]}},
{"type":"Feature","id":"174667926","properties":{"josm":"w174667926","name":"Артемовская улица","nameuk":"Артемівська вулиця"},"geometry":{"type":"Point","coordinates":[34.99774,48.54648]}},
{"type":"Feature","id":"174667927","properties":{"josm":"w174667927","name":"Центральная улица","nameuk":"Центральна вулиця"},"geometry":{"type":"Point","coordinates":[35.00596,48.54173]}},
{"type":"Feature","id":"174667930","properties":{"josm":"w174667930","name":"Конечная улица","nameuk":"Кінцева вулиця"},"geometry":{"type":"Point","coordinates":[34.99931,48.54534]}},
{"type":"Feature","id":"174667932","properties":{"josm":"w174667932","name":"Ореховая улица","nameuk":"Орехова вулиця"},"geometry":{"type":"Point","coordinates":[34.99525,48.54153]}},
{"type":"Feature","id":"174667944","properties":{"josm":"w174667944","name":"Лесная улица","nameuk":"Лісова вулиця"},"geometry":{"type":"Point","coordinates":[34.99435,48.54944]}},
{"type":"Feature","id":"174667945","properties":{"josm":"w174667945","name":"Грушевая улица","nameuk":"Грушева вулиця"},"geometry":{"type":"Point","coordinates":[34.99593,48.54744]}},
{"type":"Feature","id":"174667949","properties":{"josm":"w174667949","name":"Центральная улица","nameuk":"Центральна вулиця"},"geometry":{"type":"Point","coordinates":[35.0059,48.54179]}},
{"type":"Feature","id":"174667951","properties":{"josm":"w174667951","name":"Вишневая улица","nameuk":"Вишнева вулиця"},"geometry":{"type":"Point","coordinates":[34.99533,48.54816]}},
{"type":"Feature","id":"174667955","properties":{"josm":"w174667955","name":"Зеленая улица","nameuk":"Зелена вулиця"},"geometry":{"type":"Point","coordinates":[34.99424,48.54857]}},
{"type":"Feature","id":"174667994","properties":{"josm":"w174667994","name":"Волжская улица","nameuk":"Волзька вулиця"},"geometry":{"type":"Point","coordinates":[35.00552,48.54237]}},
{"type":"Feature","id":"174964536","properties":{"josm":"w174964536","name":"Михайла Петренко вулиця","nameuk":"Череватенка вулиця"},"geometry":{"type":"Point","coordinates":[37.1555,48.29622]}},
{"type":"Feature","id":"175083114","properties":{"josm":"w175083114","name":"Рози Люксембург переулок","nameuk":"Рози Люксембург вулиця"},"geometry":{"type":"Point","coordinates":[38.56009,48.85844]}},
{"type":"Feature","id":"175802142","properties":{"josm":"w175802142","name":"Залізнична вулиця","nameuk":"Шота вулиця"},"geometry":{"type":"Point","coordinates":[37.15583,48.28773]}},
{"type":"Feature","id":"175802157","properties":{"josm":"w175802157","name":"Залізнична вулиця","nameuk":"Шота вулиця"},"geometry":{"type":"Point","coordinates":[37.14862,48.2872]}},
{"type":"Feature","id":"179918769","properties":{"josm":"w179918769","name":"Садова вулиця","nameuk":"Вишнева вулиця"},"geometry":{"type":"Point","coordinates":[38.51072,48.90954]}},
{"type":"Feature","id":"179950530","properties":{"josm":"w179950530","name":"Червоноткацька вулиця","nameuk":"Мурманська вулиця"},"geometry":{"type":"Point","coordinates":[30.64889,50.45988]}},
{"type":"Feature","id":"180466537","properties":{"josm":"w180466537","name":"Полевая улица","nameuk":"Польова вулиця"},"geometry":{"type":"Point","coordinates":[34.59607,48.58273]}},
{"type":"Feature","id":"180746422","properties":{"josm":"w180746422","name":"Черняховского вулиця","nameuk":"Черняховского  вулиця"},"geometry":{"type":"Point","coordinates":[39.3698,48.55142]}},
{"type":"Feature","id":"181264317","properties":{"josm":"w181264317","name":"Ванди Біневськой провулок","nameuk":"Джерельний провулок"},"geometry":{"type":"Point","coordinates":[36.35264,49.97136]}},
{"type":"Feature","id":"181990532","properties":{"josm":"w181990532","name":"Центральна вулиця","nameuk":"Леніна вулиця"},"geometry":{"type":"Point","coordinates":[34.24676,48.48633]}},
{"type":"Feature","id":"181990533","properties":{"josm":"w181990533","name":"Другий Дніпровський провулок","nameuk":"Радянський провулок"},"geometry":{"type":"Point","coordinates":[34.25054,48.48603]}},
{"type":"Feature","id":"182694851","properties":{"josm":"w182694851","name":"Вишневая улица","nameuk":"Вишнева вулиця"},"geometry":{"type":"Point","coordinates":[35.07745,48.60259]}},
{"type":"Feature","id":"182694891","properties":{"josm":"w182694891","name":"Огородная улица","nameuk":"Огородна вулиця"},"geometry":{"type":"Point","coordinates":[35.07564,48.60184]}},
{"type":"Feature","id":"183125914","properties":{"josm":"w183125914","name":"Грушевського вулиця","nameuk":"Вишнева вулиця"},"geometry":{"type":"Point","coordinates":[25.99277,51.30871]}},
{"type":"Feature","id":"183931574","properties":{"josm":"w183931574","name":"Андрія Шептицького вулиця","nameuk":"Андрея Шептицького вулиця"},"geometry":{"type":"Point","coordinates":[24.2422,50.40045]}},
{"type":"Feature","id":"184190875","properties":{"josm":"w184190875","name":"вулиця Фрідріха Енгельса","nameuk":"Фрідріха Енгельса вулиця"},"geometry":{"type":"Point","coordinates":[37.78177,48.38535]}},
{"type":"Feature","id":"185704730","properties":{"josm":"w185704730","name":"вулиця Кірова","nameuk":"Кірова вулиця"},"geometry":{"type":"Point","coordinates":[37.77964,48.39805]}},
{"type":"Feature","id":"185704739","properties":{"josm":"w185704739","name":"вулиця Леніна","nameuk":"Леніна вулиця"},"geometry":{"type":"Point","coordinates":[37.77869,48.39893]}},
{"type":"Feature","id":"185704742","properties":{"josm":"w185704742","name":"вулиця Клименка","nameuk":"Клименко вулиця"},"geometry":{"type":"Point","coordinates":[37.79917,48.37144]}},
{"type":"Feature","id":"185704746","properties":{"josm":"w185704746","name":"вулиця Миру","nameuk":"Миру вулиця"},"geometry":{"type":"Point","coordinates":[37.77606,48.39748]}},
{"type":"Feature","id":"186724962","properties":{"josm":"w186724962","name":"Набережная улица","nameuk":"Набережна вулиця"},"geometry":{"type":"Point","coordinates":[36.40827,49.80359]}},
{"type":"Feature","id":"186868471","properties":{"josm":"w186868471","name":"Хорив переулок","nameuk":"Хорiв провулок"},"geometry":{"type":"Point","coordinates":[35.03541,47.89072]}},
{"type":"Feature","id":"187837752","properties":{"josm":"w187837752","name":"провулок Феодосія Камінського","nameuk":"Феодосія Камінського провулок"},"geometry":{"type":"Point","coordinates":[32.01585,46.85223]}},
{"type":"Feature","id":"190136595","properties":{"josm":"w190136595","name":"Зелёная улица","nameuk":"Зелена вулиця"},"geometry":{"type":"Point","coordinates":[33.72595,47.5499]}},
{"type":"Feature","id":"191085576","properties":{"josm":"w191085576","name":"Центральна вулиця","nameuk":"Центральнаа вулиця"},"geometry":{"type":"Point","coordinates":[32.01667,49.92818]}},
{"type":"Feature","id":"191388692","properties":{"josm":"w191388692","name":"провулок Марии Рыбальченко","nameuk":"провулок Марії Рибальченко"},"geometry":{"type":"Point","coordinates":[32.00744,46.84577]}},
{"type":"Feature","id":"191560037","properties":{"josm":"w191560037","name":"Вознесенская улица","nameuk":"Вознесенська вулиця"},"geometry":{"type":"Point","coordinates":[35.75683,46.83415]}},
{"type":"Feature","id":"191903787","properties":{"josm":"w191903787","name":"Затиша вулиця","nameuk":"Затишна вулиця"},"geometry":{"type":"Point","coordinates":[30.0711,46.84829]}},
{"type":"Feature","id":"192682961","properties":{"josm":"w192682961","name":"Кутова вулиця","nameuk":"Сутова вулиця"},"geometry":{"type":"Point","coordinates":[30.39687,50.48539]}},
{"type":"Feature","id":"193152518","properties":{"josm":"w193152518","name":"вулиця Чернівецька","nameuk":"вулиця Черновицкая"},"geometry":{"type":"Point","coordinates":[26.48016,48.49575]}},
{"type":"Feature","id":"198189137","properties":{"josm":"w198189137","name":"Річковий провулок","nameuk":"Річкоий провулок"},"geometry":{"type":"Point","coordinates":[38.36889,48.63769]}},
{"type":"Feature","id":"201427896","properties":{"josm":"w201427896","name":"Улица Зигмунда Квасневського","nameuk":"вулиця Зигмунда Квасьнєвського"},"geometry":{"type":"Point","coordinates":[26.9011,49.41428]}},
{"type":"Feature","id":"201437356","properties":{"josm":"w201437356","name":"улица Мира","nameuk":"вулиця Миру"},"geometry":{"type":"Point","coordinates":[26.90464,49.41392]}},
{"type":"Feature","id":"202588850","properties":{"josm":"w202588850","name":"Хмильницького Богдана вулиця","nameuk":"Хмельницького Богдана  вулиця"},"geometry":{"type":"Point","coordinates":[34.10972,48.35919]}},
{"type":"Feature","id":"202614969","properties":{"josm":"w202614969","name":"333-ї Дивізії вулиця","nameuk":"333-ї дивізії вулиця"},"geometry":{"type":"Point","coordinates":[35.50627,48.33054]}},
{"type":"Feature","id":"202938490","properties":{"josm":"w202938490","name":"Об’їздна вулиця","nameuk":"Об’їзна вулиця"},"geometry":{"type":"Point","coordinates":[33.72367,46.99864]}},
{"type":"Feature","id":"205955545","properties":{"josm":"w205955545","name":"улица Маламута Муссы","nameuk":"Маламута Мусси вулиця"},"geometry":{"type":"Point","coordinates":[35.19483,45.18246]}},
{"type":"Feature","id":"205977007","properties":{"josm":"w205977007","name":"Почтовая улица","nameuk":"Поштова вулиця"},"geometry":{"type":"Point","coordinates":[35.7614,46.82989]}},
{"type":"Feature","id":"206663187","properties":{"josm":"w206663187","name":"Светлый переулок","nameuk":"Бузкова вулиця"},"geometry":{"type":"Point","coordinates":[33.34098,45.21787]}},
{"type":"Feature","id":"208488516","properties":{"josm":"w208488516","name":"Центральная улица","nameuk":"Центральна вулиця"},"geometry":{"type":"Point","coordinates":[34.55977,46.59326]}},
{"type":"Feature","id":"208488545","properties":{"josm":"w208488545","name":"Мира улица","nameuk":"Миру вулиця"},"geometry":{"type":"Point","coordinates":[34.56218,46.59667]}},
{"type":"Feature","id":"208488584","properties":{"josm":"w208488584","name":"Мира улица","nameuk":"Миру вулиця"},"geometry":{"type":"Point","coordinates":[34.56155,46.59735]}},
{"type":"Feature","id":"209027701","properties":{"josm":"w209027701","name":"вулиця 23-тя Лінія","nameuk":"вулиця 21-ша Лінія"},"geometry":{"type":"Point","coordinates":[31.91172,46.96248]}},
{"type":"Feature","id":"209027712","properties":{"josm":"w209027712","name":"вулиця 22-га Лінія","nameuk":"вулиця 21-ша Лінія"},"geometry":{"type":"Point","coordinates":[31.91299,46.96505]}},
{"type":"Feature","id":"213434074","properties":{"josm":"w213434074","name":"Спортивна вулиця","nameuk":"Дніпровська вулиця"},"geometry":{"type":"Point","coordinates":[36.07823,48.5267]}},
{"type":"Feature","id":"214776430","properties":{"josm":"w214776430","name":"Хасановский переулок","nameuk":"Хасанівський провулок"},"geometry":{"type":"Point","coordinates":[34.35275,47.56593]}},
{"type":"Feature","id":"220260634","properties":{"josm":"w220260634","name":"Виноградна вулиця","nameuk":"Виноградка вулиця"},"geometry":{"type":"Point","coordinates":[34.80556,46.17865]}},
{"type":"Feature","id":"223016152","properties":{"josm":"w223016152","name":"Слави вулиця","nameuk":"Слава вулиця"},"geometry":{"type":"Point","coordinates":[22.33207,48.60738]}},
{"type":"Feature","id":"223216626","properties":{"josm":"w223216626","name":"улица Мусы Мамута","nameuk":"Муси Мамута вулиця"},"geometry":{"type":"Point","coordinates":[33.99424,44.79057]}},
{"type":"Feature","id":"223287536","properties":{"josm":"w223287536","name":"Юрївська вулиця","nameuk":"Юр'ївська вулиця"},"geometry":{"type":"Point","coordinates":[30.11474,49.80019]}},
{"type":"Feature","id":"223338097","properties":{"josm":"w223338097","name":"Новая улица","nameuk":"Нова вулиця"},"geometry":{"type":"Point","coordinates":[30.28114,46.53729]}},
{"type":"Feature","id":"223346705","properties":{"josm":"w223346705","name":"улица Мусы Мамута","nameuk":"Муси Мамута вулиця"},"geometry":{"type":"Point","coordinates":[33.99439,44.79006]}},
{"type":"Feature","id":"223479822","properties":{"josm":"w223479822","name":"Проспект Европейский","nameuk":"Ворошилова вулиця"},"geometry":{"type":"Point","coordinates":[33.46985,46.80218]}},
{"type":"Feature","id":"224210906","properties":{"josm":"w224210906","name":"Лесной переулок","nameuk":"Лісовий провулок"},"geometry":{"type":"Point","coordinates":[30.83743,46.5608]}},
{"type":"Feature","id":"224655134","properties":{"josm":"w224655134","name":"Миру вулиця","nameuk":"Кірова вулиця"},"geometry":{"type":"Point","coordinates":[30.26949,46.41729]}},
{"type":"Feature","id":"224655155","properties":{"josm":"w224655155","name":"Гончарна вулиця","nameuk":"40 років Жовтня вулиця"},"geometry":{"type":"Point","coordinates":[30.26881,46.42695]}},
{"type":"Feature","id":"224657591","properties":{"josm":"w224657591","name":"Тиха вулиця","nameuk":"Карла Маркса вулиця"},"geometry":{"type":"Point","coordinates":[30.28306,46.41057]}},
{"type":"Feature","id":"224657592","properties":{"josm":"w224657592","name":"Черноморська вулиця","nameuk":"Котовського вулиця"},"geometry":{"type":"Point","coordinates":[30.27816,46.41427]}},
{"type":"Feature","id":"224657593","properties":{"josm":"w224657593","name":"Астрономічна вулиця","nameuk":"Леніна вулиця"},"geometry":{"type":"Point","coordinates":[30.27082,46.40409]}},
{"type":"Feature","id":"224657595","properties":{"josm":"w224657595","name":"Преображенська вулиця","nameuk":"Радянської Армії вулиця"},"geometry":{"type":"Point","coordinates":[30.27554,46.41551]}},
{"type":"Feature","id":"224657599","properties":{"josm":"w224657599","name":"Успенська вулиця","nameuk":"Щорса вулиця"},"geometry":{"type":"Point","coordinates":[30.2782,46.4096]}},
{"type":"Feature","id":"224747271","properties":{"josm":"w224747271","name":"улица Симиренко","nameuk":"Симеренка вулиця"},"geometry":{"type":"Point","coordinates":[34.86838,45.27785]}},
{"type":"Feature","id":"225931419","properties":{"josm":"w225931419","name":"улица Шевченко","nameuk":"Шевченка вулиця"},"geometry":{"type":"Point","coordinates":[33.99461,44.78689]}},
{"type":"Feature","id":"226528335","properties":{"josm":"w226528335","name":"Вул. Молодіжна","nameuk":"вул. Молодыжна"},"geometry":{"type":"Point","coordinates":[30.90508,46.58273]}},
{"type":"Feature","id":"227575588","properties":{"josm":"w227575588","name":"Андрія Шептицького вулиця","nameuk":"Андрея Шептицького вулиця"},"geometry":{"type":"Point","coordinates":[24.24388,50.40103]}},
{"type":"Feature","id":"227575603","properties":{"josm":"w227575603","name":"Ґонти вулиця","nameuk":"Івана Ґонти вулиця"},"geometry":{"type":"Point","coordinates":[24.22723,50.37828]}},
{"type":"Feature","id":"227575604","properties":{"josm":"w227575604","name":"Лепкого вулиця","nameuk":"Богдана Лепкого вулиця"},"geometry":{"type":"Point","coordinates":[24.22276,50.38007]}},
{"type":"Feature","id":"227575612","properties":{"josm":"w227575612","name":"Курбаса вулиця","nameuk":"Леся Курбаса вулиця"},"geometry":{"type":"Point","coordinates":[24.22302,50.38021]}},
{"type":"Feature","id":"227760718","properties":{"josm":"w227760718","name":"Центральная улица","nameuk":"Центральна вулиця"},"geometry":{"type":"Point","coordinates":[31.00304,46.6435]}},
{"type":"Feature","id":"229119773","properties":{"josm":"w229119773","name":"Г. Сковороди вулиця","nameuk":"Комсомольська вулиця"},"geometry":{"type":"Point","coordinates":[34.28148,48.48092]}},
{"type":"Feature","id":"230102083","properties":{"josm":"w230102083","name":"улица Николаева","nameuk":"Фрунзе вулиця"},"geometry":{"type":"Point","coordinates":[33.97594,44.81918]}},
{"type":"Feature","id":"230804362","properties":{"josm":"w230804362","name":"Рудничный проезд","nameuk":"Рудничний проїзд"},"geometry":{"type":"Point","coordinates":[33.58611,44.51302]}},
{"type":"Feature","id":"231093804","properties":{"josm":"w231093804","name":"Троянд провулок","nameuk":"2-й Вишневий провулок"},"geometry":{"type":"Point","coordinates":[33.27919,48.04376]}},
{"type":"Feature","id":"231180106","properties":{"josm":"w231180106","name":"Новая улица","nameuk":"Нова вулиця"},"geometry":{"type":"Point","coordinates":[32.11004,46.62048]}},
{"type":"Feature","id":"235090030","properties":{"josm":"w235090030","name":"Парковая улица","nameuk":"Паркова вулиця"},"geometry":{"type":"Point","coordinates":[30.25892,46.52538]}},
{"type":"Feature","id":"235989227","properties":{"josm":"w235989227","name":"Садовая улица","nameuk":"Садова вулиця"},"geometry":{"type":"Point","coordinates":[29.99272,46.59562]}},
{"type":"Feature","id":"235989229","properties":{"josm":"w235989229","name":"Хуторская улица","nameuk":"Хутірська вулиця"},"geometry":{"type":"Point","coordinates":[29.99965,46.61028]}},
{"type":"Feature","id":"235989237","properties":{"josm":"w235989237","name":"Степовая улица","nameuk":"Степова вулиця"},"geometry":{"type":"Point","coordinates":[30.0058,46.59045]}},
{"type":"Feature","id":"235989241","properties":{"josm":"w235989241","name":"Садовая улица","nameuk":"Садова вулиця"},"geometry":{"type":"Point","coordinates":[29.99436,46.58405]}},
{"type":"Feature","id":"235989253","properties":{"josm":"w235989253","name":"Победы улица","nameuk":"Перемоги вулиця"},"geometry":{"type":"Point","coordinates":[29.98366,46.60619]}},
{"type":"Feature","id":"235989254","properties":{"josm":"w235989254","name":"Хуторская улица","nameuk":"Хутірська вулиця"},"geometry":{"type":"Point","coordinates":[29.99922,46.60933]}},
{"type":"Feature","id":"237670166","properties":{"josm":"w237670166","name":"Івана Франка вулиця","nameuk":"Комсомольська вулиця"},"geometry":{"type":"Point","coordinates":[33.77516,47.195]}},
{"type":"Feature","id":"237715794","properties":{"josm":"w237715794","name":"Тараса Бульбы улица","nameuk":"Тараса Бульби вулиця"},"geometry":{"type":"Point","coordinates":[33.64358,49.95836]}},
{"type":"Feature","id":"238295194","properties":{"josm":"w238295194","name":"улица Комова","nameuk":"Комова вулиця"},"geometry":{"type":"Point","coordinates":[38.20261,47.92388]}},
{"type":"Feature","id":"238498877","properties":{"josm":"w238498877","name":"Лермонтова вулиця","nameuk":"Некрасова вулиця"},"geometry":{"type":"Point","coordinates":[26.97718,49.65622]}},
{"type":"Feature","id":"239162603","properties":{"josm":"w239162603","name":"вулиця Саркісова","nameuk":"Курганський провулок"},"geometry":{"type":"Point","coordinates":[37.59868,48.7653]}},
{"type":"Feature","id":"240434542","properties":{"josm":"w240434542","name":"provulok Kamyanyj","nameuk":"провулок Кам'яний"},"geometry":{"type":"Point","coordinates":[22.28937,48.64388]}},
{"type":"Feature","id":"241532648","properties":{"josm":"w241532648","name":"Лухтовская улица","nameuk":"Лухтівська вулиця"},"geometry":{"type":"Point","coordinates":[33.87499,51.23832]}},
{"type":"Feature","id":"241720836","properties":{"josm":"w241720836","name":"Вишнёвая улица","nameuk":"Вишнева вулиця"},"geometry":{"type":"Point","coordinates":[33.62114,44.8996]}},
{"type":"Feature","id":"242337057","properties":{"josm":"w242337057","name":"Шкільна вулиця","nameuk":"Чкалова вулиця"},"geometry":{"type":"Point","coordinates":[39.45048,48.67179]}},
{"type":"Feature","id":"242526395","properties":{"josm":"w242526395","name":"Нікольска вулиця","nameuk":"Чапаєва вулиця"},"geometry":{"type":"Point","coordinates":[34.04549,52.1905]}},
{"type":"Feature","id":"242940229","properties":{"josm":"w242940229","name":"Слесарная улица","nameuk":"Кузнечна вулиця"},"geometry":{"type":"Point","coordinates":[33.53347,44.59176]}},
{"type":"Feature","id":"243030032","properties":{"josm":"w243030032","name":"Улица Куйбышева","nameuk":"Чапаєва вулиця (вулиця Куйбышева)"},"geometry":{"type":"Point","coordinates":[34.34707,46.81979]}},
{"type":"Feature","id":"243050652","properties":{"josm":"w243050652","name":"Пушкина улица","nameuk":"Пушкіна вулиця"},"geometry":{"type":"Point","coordinates":[34.38714,46.82814]}},
{"type":"Feature","id":"243051087","properties":{"josm":"w243051087","name":"Калинина улица","nameuk":"Калініна вулиця"},"geometry":{"type":"Point","coordinates":[34.38245,46.83934]}},
{"type":"Feature","id":"244337378","properties":{"josm":"w244337378","name":"Новоселів вулиця","nameuk":"Новосельців вулиця"},"geometry":{"type":"Point","coordinates":[25.49595,51.75466]}},
{"type":"Feature","id":"246173085","properties":{"josm":"w246173085","name":"Нестора Махно вулиця","nameuk":"Щорса вулиця"},"geometry":{"type":"Point","coordinates":[34.2158,48.48298]}},
{"type":"Feature","id":"246867425","properties":{"josm":"w246867425","name":"улица Водохранилище","nameuk":"Водосховище вулиця"},"geometry":{"type":"Point","coordinates":[35.12107,45.0414]}},
{"type":"Feature","id":"247192215","properties":{"josm":"w247192215","name":"Макарова провулок","nameuk":"Комунальний провулок"},"geometry":{"type":"Point","coordinates":[25.35342,50.775]}},
{"type":"Feature","id":"247332301","properties":{"josm":"w247332301","name":"Другий Соборний провулок","nameuk":"Островського провулок"},"geometry":{"type":"Point","coordinates":[34.2513,48.48079]}},
{"type":"Feature","id":"249018162","properties":{"josm":"w249018162","name":"Івана Виговського вулиця","nameuk":"Карла Маркса вулиця"},"geometry":{"type":"Point","coordinates":[26.57877,49.17589]}},
{"type":"Feature","id":"250080828","properties":{"josm":"w250080828","name":"Школьный переулок","nameuk":"Шкільний провулок"},"geometry":{"type":"Point","coordinates":[36.21618,48.55874]}},
{"type":"Feature","id":"250527536","properties":{"josm":"w250527536","name":"Тиха  вулиця","nameuk":"Центральна вулиця"},"geometry":{"type":"Point","coordinates":[34.01819,48.79832]}},
{"type":"Feature","id":"251255495","properties":{"josm":"w251255495","name":"Зелёная улица","nameuk":"Зелена вулиця"},"geometry":{"type":"Point","coordinates":[33.3093,51.7711]}},
{"type":"Feature","id":"254343015","properties":{"josm":"w254343015","name":"улица Лесная","nameuk":"вулиця Лісова"},"geometry":{"type":"Point","coordinates":[30.44195,50.33347]}},
{"type":"Feature","id":"255387480","properties":{"josm":"w255387480","name":"Ямская вулиця","nameuk":"Ямська вулиця"},"geometry":{"type":"Point","coordinates":[38.0905,48.85997]}},
{"type":"Feature","id":"258465524","properties":{"josm":"w258465524","name":"Південна вулиця","nameuk":"Южна вулиця"},"geometry":{"type":"Point","coordinates":[33.86438,48.04041]}},
{"type":"Feature","id":"258465525","properties":{"josm":"w258465525","name":"Південна вулиця","nameuk":"Южна вулиця"},"geometry":{"type":"Point","coordinates":[33.87091,48.03985]}},
{"type":"Feature","id":"259211826","properties":{"josm":"w259211826","name":"Гагаріна вулиця","nameuk":"вулиця Гагаріна"},"geometry":{"type":"Point","coordinates":[28.00038,51.21557]}},
{"type":"Feature","id":"259211827","properties":{"josm":"w259211827","name":"Космонавтів вулиця","nameuk":"вулиця Космонавтів"},"geometry":{"type":"Point","coordinates":[27.99953,51.21415]}},
{"type":"Feature","id":"259938422","properties":{"josm":"w259938422","name":"Першотравнева вулиця","nameuk":"1-го Травня вулиця"},"geometry":{"type":"Point","coordinates":[37.65897,47.45905]}},
{"type":"Feature","id":"259938447","properties":{"josm":"w259938447","name":"Виноградна (Радянська) вулиця","nameuk":"вул. Виноградна (Радянська)"},"geometry":{"type":"Point","coordinates":[37.65351,47.45899]}},
{"type":"Feature","id":"262721205","properties":{"josm":"w262721205","name":"Чайкиної вулиця","nameuk":"Чайкіної вулиця"},"geometry":{"type":"Point","coordinates":[37.52005,47.5843]}},
{"type":"Feature","id":"264767902","properties":{"josm":"w264767902","name":"Пушкина улица","nameuk":"Пушкіна вулиця"},"geometry":{"type":"Point","coordinates":[33.49222,46.7377]}},
{"type":"Feature","id":"265039805","properties":{"josm":"w265039805","name":"Святомиколаївська вулиця","nameuk":"Святомиколаївськаа вулиця"},"geometry":{"type":"Point","coordinates":[33.45996,51.85037]}},
{"type":"Feature","id":"265091648","properties":{"josm":"w265091648","name":"Крайний переулок","nameuk":"Крайня вулиця"},"geometry":{"type":"Point","coordinates":[34.95539,45.18745]}},
{"type":"Feature","id":"265974173","properties":{"josm":"w265974173","name":"8-а Лінія вулиця","nameuk":"8-а лінія вулиця"},"geometry":{"type":"Point","coordinates":[29.91719,50.56548]}},
{"type":"Feature","id":"267064327","properties":{"josm":"w267064327","name":"5-й Кавказький проїзд","nameuk":"Ранкова вулиця"},"geometry":{"type":"Point","coordinates":[26.99478,49.38967]}},
{"type":"Feature","id":"268081418","properties":{"josm":"w268081418","name":"Улица Дружбы","nameuk":"Дружби вулиця"},"geometry":{"type":"Point","coordinates":[34.59679,45.14018]}},
{"type":"Feature","id":"270891475","properties":{"josm":"w270891475","name":"вул. Шкільна","nameuk":"Щорса вулиця"},"geometry":{"type":"Point","coordinates":[36.83511,47.84942]}},
{"type":"Feature","id":"271546835","properties":{"josm":"w271546835","name":"Провулок Міус","nameuk":"провулок Міус"},"geometry":{"type":"Point","coordinates":[39.00323,48.95995]}},
{"type":"Feature","id":"271857925","properties":{"josm":"w271857925","name":"Олександра Фадєєва провулок","nameuk":"Фадєєва провулок"},"geometry":{"type":"Point","coordinates":[38.29739,49.01897]}},
{"type":"Feature","id":"272266082","properties":{"josm":"w272266082","name":"переулок 23 Мая 1919 Года","nameuk":"23 Травня 1919 Року провулок"},"geometry":{"type":"Point","coordinates":[36.4696,45.35379]}},
{"type":"Feature","id":"276815260","properties":{"josm":"w276815260","name":"М. Немолота вулиця","nameuk":"М.Немолота вулиця"},"geometry":{"type":"Point","coordinates":[33.22701,51.22548]}},
{"type":"Feature","id":"282579005","properties":{"josm":"w282579005","name":"Тухачевського (Іподромна) вулиця","nameuk":"Тухачевського (Ипподромная) вулиця"},"geometry":{"type":"Point","coordinates":[35.12062,49.46842]}},
{"type":"Feature","id":"283311754","properties":{"josm":"w283311754","name":"Інститутський провулок","nameuk":"Інститутська вулиця"},"geometry":{"type":"Point","coordinates":[30.09205,49.78417]}},
{"type":"Feature","id":"288581554","properties":{"josm":"w288581554","name":"Садовая улица","nameuk":"Садова вулиця"},"geometry":{"type":"Point","coordinates":[29.9936,46.59384]}},
{"type":"Feature","id":"290359480","properties":{"josm":"w290359480","name":"Петропавловский провулок","nameuk":"Леніна провулок"},"geometry":{"type":"Point","coordinates":[37.78017,49.00161]}},
{"type":"Feature","id":"293912067","properties":{"josm":"w293912067","name":"улица Зелёная","nameuk":"Зелений провулок"},"geometry":{"type":"Point","coordinates":[36.45284,45.35428]}},
{"type":"Feature","id":"300672898","properties":{"josm":"w300672898","name":"Украинская (Советская)","nameuk":"Українська (Радянська)"},"geometry":{"type":"Point","coordinates":[32.74721,46.6792]}},
{"type":"Feature","id":"301242063","properties":{"josm":"w301242063","name":"Максименко провулок","nameuk":"Комсомольський провулок"},"geometry":{"type":"Point","coordinates":[35.14077,49.45904]}},
{"type":"Feature","id":"302311069","properties":{"josm":"w302311069","name":"Автозаводський бульвар","nameuk":"Автокразівський бульвар"},"geometry":{"type":"Point","coordinates":[33.41682,49.08841]}},
{"type":"Feature","id":"302482097","properties":{"josm":"w302482097","name":"Миру вулиця","nameuk":"миру вулиця"},"geometry":{"type":"Point","coordinates":[23.88582,48.36041]}},
{"type":"Feature","id":"302895063","properties":{"josm":"w302895063","name":"Советская улица","nameuk":"Радянська вулиця"},"geometry":{"type":"Point","coordinates":[29.27366,47.88552]}},
{"type":"Feature","id":"304386665","properties":{"josm":"w304386665","name":"Молодежная улица","nameuk":"Молодіжна вулиця"},"geometry":{"type":"Point","coordinates":[38.07073,47.67642]}},
{"type":"Feature","id":"304386676","properties":{"josm":"w304386676","name":"Молодежная улица","nameuk":"Молодіжна вулиця"},"geometry":{"type":"Point","coordinates":[38.07138,47.67776]}},
{"type":"Feature","id":"305610371","properties":{"josm":"w305610371","name":"Зональний проїзд, Кременчук","nameuk":"Зональний проїзд"},"geometry":{"type":"Point","coordinates":[33.46402,49.07053]}},
{"type":"Feature","id":"306281266","properties":{"josm":"w306281266","name":"Максименко провулок","nameuk":"Комсомольський провулок"},"geometry":{"type":"Point","coordinates":[35.14239,49.45879]}},
{"type":"Feature","id":"307938865","properties":{"josm":"w307938865","name":"Козаченка вулиця","nameuk":"Козаченко вулиця"},"geometry":{"type":"Point","coordinates":[38.43313,48.8914]}},
{"type":"Feature","id":"307941928","properties":{"josm":"w307941928","name":"Івана Франка вулиця","nameuk":"Франка вулиця"},"geometry":{"type":"Point","coordinates":[38.43574,48.89034]}},
{"type":"Feature","id":"308454787","properties":{"josm":"w308454787","name":"улица Ешиль Ада","nameuk":"Мирна вулиця"},"geometry":{"type":"Point","coordinates":[34.9888,44.83917]}},
{"type":"Feature","id":"310487512","properties":{"josm":"w310487512","name":"улица Виноградная","nameuk":"Виноградна вулиця"},"geometry":{"type":"Point","coordinates":[30.77629,50.51209]}},
{"type":"Feature","id":"312574530","properties":{"josm":"w312574530","name":"Молодежная","nameuk":"Molodijna"},"geometry":{"type":"Point","coordinates":[33.5757,49.93378]}},
{"type":"Feature","id":"312682467","properties":{"josm":"w312682467","name":"вулиця Гавриїла Зелінського","nameuk":"str. Gavriyla Zelinskogo"},"geometry":{"type":"Point","coordinates":[35.25155,48.63347]}},
{"type":"Feature","id":"313254004","properties":{"josm":"w313254004","name":"Пролетарська вулиця","nameuk":"Европейська вулиця"},"geometry":{"type":"Point","coordinates":[33.36657,49.09969]}},
{"type":"Feature","id":"315891608","properties":{"josm":"w315891608","name":"Лісова вулиця","nameuk":"Лісна вулиця"},"geometry":{"type":"Point","coordinates":[33.28573,49.1199]}},
{"type":"Feature","id":"315891608","properties":{"josm":"w315891608","name":"Лісова вулиця","nameuk":"Лісна вулиця"},"geometry":{"type":"Point","coordinates":[33.28573,49.1199]}},
{"type":"Feature","id":"316504888","properties":{"josm":"w316504888","name":"Пушкина улица","nameuk":"Пушкіна вулиця"},"geometry":{"type":"Point","coordinates":[36.21681,48.55459]}},
{"type":"Feature","id":"316504902","properties":{"josm":"w316504902","name":"Соборная улица","nameuk":"Соборна вулиця"},"geometry":{"type":"Point","coordinates":[36.21727,48.55686]}},
{"type":"Feature","id":"316544561","properties":{"josm":"w316544561","name":"Галузевий проїзд","nameuk":"Галузевий провулок"},"geometry":{"type":"Point","coordinates":[33.45535,49.15754]}},
{"type":"Feature","id":"319671081","properties":{"josm":"w319671081","name":"Терешкова вулиця","nameuk":"Мічуріна вулиця"},"geometry":{"type":"Point","coordinates":[29.85431,47.07752]}},
{"type":"Feature","id":"320121311","properties":{"josm":"w320121311","name":"Східна вулиця","nameuk":"Skhidna"},"geometry":{"type":"Point","coordinates":[35.14095,48.56738]}},
{"type":"Feature","id":"322738743","properties":{"josm":"w322738743","name":"Центральна вулиця","nameuk":"Карла Маркса вулиця"},"geometry":{"type":"Point","coordinates":[29.61623,45.83657]}},
{"type":"Feature","id":"327118718","properties":{"josm":"w327118718","name":"Залізнична вулиця","nameuk":"Шота вулиця"},"geometry":{"type":"Point","coordinates":[37.1524,48.28753]}},
{"type":"Feature","id":"329089928","properties":{"josm":"w329089928","name":"Енгельса вулиця","nameuk":"Килимова вулиця"},"geometry":{"type":"Point","coordinates":[34.07586,49.56077]}},
{"type":"Feature","id":"329873745","properties":{"josm":"w329873745","name":"Богдана Хмильницького вулиця","nameuk":"Богдана Хмельницького вулиця"},"geometry":{"type":"Point","coordinates":[34.11931,48.36012]}},
{"type":"Feature","id":"331719061","properties":{"josm":"w331719061","name":"Зелена вулиця","nameuk":"Зелена  вулиця"},"geometry":{"type":"Point","coordinates":[34.11234,48.3584]}},
{"type":"Feature","id":"332249151","properties":{"josm":"w332249151","name":"Виноградський провулок","nameuk":"Виноградский провулок"},"geometry":{"type":"Point","coordinates":[33.45989,51.84214]}},
{"type":"Feature","id":"333432096","properties":{"josm":"w333432096","name":"Молодежная улица","nameuk":"Молодіжна вулиця"},"geometry":{"type":"Point","coordinates":[38.07158,47.67763]}},
{"type":"Feature","id":"333545976","properties":{"josm":"w333545976","name":"улица Милании Мусиенко","nameuk":"Меланії Мусієнко вулиця"},"geometry":{"type":"Point","coordinates":[36.56242,45.36011]}},
{"type":"Feature","id":"333884083","properties":{"josm":"w333884083","name":"Героїв Чорнобиля вулиця","nameuk":"вулиця Героїв Чорнобиля"},"geometry":{"type":"Point","coordinates":[37.51755,47.93412]}},
{"type":"Feature","id":"333884143","properties":{"josm":"w333884143","name":"Прокоф’єва вулиця","nameuk":"вулиця Прокоф’єва"},"geometry":{"type":"Point","coordinates":[37.50544,47.94183]}},
{"type":"Feature","id":"335839005","properties":{"josm":"w335839005","name":"вул. Центральна","nameuk":"Жовтнева вулиця"},"geometry":{"type":"Point","coordinates":[36.83009,47.84586]}},
{"type":"Feature","id":"335890716","properties":{"josm":"w335890716","name":"Південний провулок","nameuk":"Чкалова провулок"},"geometry":{"type":"Point","coordinates":[37.55187,47.7075]}},
{"type":"Feature","id":"336116218","properties":{"josm":"w336116218","name":"Озерная улица","nameuk":"Озерна вулиця"},"geometry":{"type":"Point","coordinates":[37.44876,48.57494]}},
{"type":"Feature","id":"336925963","properties":{"josm":"w336925963","name":"вулиця Горького","nameuk":"Горького вулиця"},"geometry":{"type":"Point","coordinates":[37.78403,48.40066]}},
{"type":"Feature","id":"336925964","properties":{"josm":"w336925964","name":"вулиця Дзержинського","nameuk":"Дзержинського вулиця"},"geometry":{"type":"Point","coordinates":[37.80207,48.37934]}},
{"type":"Feature","id":"336925965","properties":{"josm":"w336925965","name":"вулиця Карла Маркса","nameuk":"Карла Маркса вулиця"},"geometry":{"type":"Point","coordinates":[37.78699,48.38625]}},
{"type":"Feature","id":"336925969","properties":{"josm":"w336925969","name":"вулиця Куйбишева","nameuk":"Куйбишева вулиця"},"geometry":{"type":"Point","coordinates":[37.80116,48.38657]}},
{"type":"Feature","id":"336925974","properties":{"josm":"w336925974","name":"вулиця Пилипенка","nameuk":"Пилипенко вулиця"},"geometry":{"type":"Point","coordinates":[37.80041,48.38436]}},
{"type":"Feature","id":"336925975","properties":{"josm":"w336925975","name":"вулиця Перемоги","nameuk":"Перемоги вулиця"},"geometry":{"type":"Point","coordinates":[37.78302,48.4026]}},
{"type":"Feature","id":"336925977","properties":{"josm":"w336925977","name":"вулиця Шевченка","nameuk":"Шевченка вулиця"},"geometry":{"type":"Point","coordinates":[37.77916,48.39989]}},
{"type":"Feature","id":"337646962","properties":{"josm":"w337646962","name":"Трейл Канатный","nameuk":"Трейл Канатний"},"geometry":{"type":"Point","coordinates":[36.24159,50.02535]}},
{"type":"Feature","id":"338984267","properties":{"josm":"w338984267","name":"провулок Чужбинського","nameuk":"провулок Чужбинского"},"geometry":{"type":"Point","coordinates":[26.47057,48.50593]}},
{"type":"Feature","id":"348715556","properties":{"josm":"w348715556","name":"Садова вулиця","nameuk":"Садовий провулок"},"geometry":{"type":"Point","coordinates":[38.1616,48.55637]}},
{"type":"Feature","id":"349524842","properties":{"josm":"w349524842","name":"Школьная","nameuk":"Шкільна"},"geometry":{"type":"Point","coordinates":[28.94415,50.10129]}},
{"type":"Feature","id":"349524858","properties":{"josm":"w349524858","name":"Школьная","nameuk":"Шкільна"},"geometry":{"type":"Point","coordinates":[28.94346,50.1012]}},
{"type":"Feature","id":"349524861","properties":{"josm":"w349524861","name":"Школьная","nameuk":"Шкільна"},"geometry":{"type":"Point","coordinates":[28.94358,50.10249]}},
{"type":"Feature","id":"352902732","properties":{"josm":"w352902732","name":"Оришечка вулиця","nameuk":"Оришечко вулиця"},"geometry":{"type":"Point","coordinates":[32.05639,49.11205]}},
{"type":"Feature","id":"359633473","properties":{"josm":"w359633473","name":"Вишнева вулиця","nameuk":"Жовтнева вулиця"},"geometry":{"type":"Point","coordinates":[34.24159,48.47322]}},
{"type":"Feature","id":"359871610","properties":{"josm":"w359871610","name":"Гайдамацька вулиця","nameuk":"Леніна вулиця"},"geometry":{"type":"Point","coordinates":[30.23547,48.78907]}},
{"type":"Feature","id":"360780680","properties":{"josm":"w360780680","name":"Щорса вулиця","nameuk":"Шевченка вулиця"},"geometry":{"type":"Point","coordinates":[27.17762,49.73306]}},
{"type":"Feature","id":"361075199","properties":{"josm":"w361075199","name":"Михальченка вулиця - Корольова вулиця","nameuk":"Михальченка вулиця-Корольова вулиця"},"geometry":{"type":"Point","coordinates":[31.94964,51.82714]}},
{"type":"Feature","id":"365887782","properties":{"josm":"w365887782","name":"Троицкая вулиця","nameuk":"Троїцка вулиця"},"geometry":{"type":"Point","coordinates":[36.09548,48.5199]}},
{"type":"Feature","id":"368897230","properties":{"josm":"w368897230","name":"Троицкая вулиця","nameuk":"Троїцка вулиця"},"geometry":{"type":"Point","coordinates":[36.10967,48.52327]}},
{"type":"Feature","id":"370094427","properties":{"josm":"w370094427","name":"Островського провулок","nameuk":"Миру провулок"},"geometry":{"type":"Point","coordinates":[38.15959,48.55038]}},
{"type":"Feature","id":"371929831","properties":{"josm":"w371929831","name":"Шевченко улица","nameuk":"Шевченка вулиця"},"geometry":{"type":"Point","coordinates":[30.00929,46.59879]}},
{"type":"Feature","id":"372687704","properties":{"josm":"w372687704","name":"Парковая улица","nameuk":"Паркова вулиця"},"geometry":{"type":"Point","coordinates":[30.26092,46.52587]}},
{"type":"Feature","id":"372687705","properties":{"josm":"w372687705","name":"Парковая улица","nameuk":"Паркова вулиця"},"geometry":{"type":"Point","coordinates":[30.26081,46.52478]}},
{"type":"Feature","id":"372687706","properties":{"josm":"w372687706","name":"Парковая улица","nameuk":"Паркова вулиця"},"geometry":{"type":"Point","coordinates":[30.25907,46.52456]}},
{"type":"Feature","id":"372687707","properties":{"josm":"w372687707","name":"Парковая улица","nameuk":"Паркова вулиця"},"geometry":{"type":"Point","coordinates":[30.2603,46.52508]}},
{"type":"Feature","id":"374272283","properties":{"josm":"w374272283","name":"Зелёная улица","nameuk":"Зелена вулиця"},"geometry":{"type":"Point","coordinates":[33.30219,51.76598]}},
{"type":"Feature","id":"374272911","properties":{"josm":"w374272911","name":"Зелёная улица","nameuk":"Зелена вулиця"},"geometry":{"type":"Point","coordinates":[33.30461,51.76865]}},
{"type":"Feature","id":"375556191","properties":{"josm":"w375556191","name":"Молодіжна вулиця","nameuk":"Свердлова вулиця"},"geometry":{"type":"Point","coordinates":[30.27238,46.42716]}},
{"type":"Feature","id":"378032317","properties":{"josm":"w378032317","name":"Озёрная улица","nameuk":"Озерна вулиця"},"geometry":{"type":"Point","coordinates":[37.48062,49.28634]}},
{"type":"Feature","id":"378228664","properties":{"josm":"w378228664","name":"Роз’їзна вулиця","nameuk":"Роз'їзна вулиця"},"geometry":{"type":"Point","coordinates":[35.18977,48.47291]}},
{"type":"Feature","id":"384203067","properties":{"josm":"w384203067","name":"Полянская улица","nameuk":"Полянська вулиця"},"geometry":{"type":"Point","coordinates":[31.20821,51.4657]}},
{"type":"Feature","id":"385084331","properties":{"josm":"w385084331","name":"Кйбишева вулиця","nameuk":"Куйбишева вулиця"},"geometry":{"type":"Point","coordinates":[37.83232,48.95713]}},
{"type":"Feature","id":"385257640","properties":{"josm":"w385257640","name":"Пешеходный переход","nameuk":"Пішохідний перехід"},"geometry":{"type":"Point","coordinates":[30.73016,46.55859]}},
{"type":"Feature","id":"385413329","properties":{"josm":"w385413329","name":"Пешеходный переход","nameuk":"Пішохідний перехід"},"geometry":{"type":"Point","coordinates":[30.73517,46.55582]}},
{"type":"Feature","id":"385413330","properties":{"josm":"w385413330","name":"Пешеходный переход","nameuk":"Пішохідний перехід"},"geometry":{"type":"Point","coordinates":[30.73508,46.55625]}},
{"type":"Feature","id":"385472935","properties":{"josm":"w385472935","name":"Пешеходный переход","nameuk":"Пішохідний перехід"},"geometry":{"type":"Point","coordinates":[30.74041,46.53918]}},
{"type":"Feature","id":"387319577","properties":{"josm":"w387319577","name":"Воронцовская улица","nameuk":"Воронцовская"},"geometry":{"type":"Point","coordinates":[32.73726,46.68197]}},
{"type":"Feature","id":"388243183","properties":{"josm":"w388243183","name":"3-я лінія","nameuk":"3-а лінія"},"geometry":{"type":"Point","coordinates":[30.72738,46.4045]}},
{"type":"Feature","id":"390098801","properties":{"josm":"w390098801","name":"Корнієвського провулок","nameuk":"Корнiевського провулок"},"geometry":{"type":"Point","coordinates":[32.24705,51.78217]}},
{"type":"Feature","id":"395269031","properties":{"josm":"w395269031","name":"Носаль Є. І. вулиця","nameuk":"Носаль вулиця"},"geometry":{"type":"Point","coordinates":[35.3103,47.37529]}},
{"type":"Feature","id":"395307853","properties":{"josm":"w395307853","name":"Садова вулиця","nameuk":"Cадова вулиця"},"geometry":{"type":"Point","coordinates":[28.21737,48.75981]}},
{"type":"Feature","id":"400220181","properties":{"josm":"w400220181","name":"провулок Грищенка","nameuk":"Грищенко вулиця"},"geometry":{"type":"Point","coordinates":[36.39105,49.98682]}},
{"type":"Feature","id":"404015264","properties":{"josm":"w404015264","name":"Калиновий проїзд","nameuk":"Калиновий провулок"},"geometry":{"type":"Point","coordinates":[35.8422,48.53972]}},
{"type":"Feature","id":"404015266","properties":{"josm":"w404015266","name":"Тополиний проїзд","nameuk":"Тополиний провулок"},"geometry":{"type":"Point","coordinates":[35.83968,48.53952]}},
{"type":"Feature","id":"413943505","properties":{"josm":"w413943505","name":"Оптимистов улица","nameuk":"Оптимістів вулиця"},"geometry":{"type":"Point","coordinates":[35.1119,48.37723]}},
{"type":"Feature","id":"415713504","properties":{"josm":"w415713504","name":"вул. Чапаєва (Чарівна)","nameuk":"Чапаєва вулиця"},"geometry":{"type":"Point","coordinates":[34.89004,47.02319]}},
{"type":"Feature","id":"415761359","properties":{"josm":"w415761359","name":"Кооперативна вулиця","nameuk":"Кооперативна вулиця "},"geometry":{"type":"Point","coordinates":[35.23245,47.28398]}},
{"type":"Feature","id":"416784657","properties":{"josm":"w416784657","name":"Калинова вулиця","nameuk":"Калініна вулиця"},"geometry":{"type":"Point","coordinates":[34.26936,48.48079]}},
{"type":"Feature","id":"417364964","properties":{"josm":"w417364964","name":"Транспортная улица","nameuk":"вулиця Транспортна"},"geometry":{"type":"Point","coordinates":[36.12876,50.113]}},
{"type":"Feature","id":"417700935","properties":{"josm":"w417700935","name":"Банківська вулиця","nameuk":"Олександра Пушкіна вулиця"},"geometry":{"type":"Point","coordinates":[24.9022,49.80619]}},
{"type":"Feature","id":"417800569","properties":{"josm":"w417800569","name":"Максименко провулок","nameuk":"Комсомольський провулок"},"geometry":{"type":"Point","coordinates":[35.14683,49.4588]}},
{"type":"Feature","id":"420209686","properties":{"josm":"w420209686","name":"улица Пушкина","nameuk":"Жданова вулиця"},"geometry":{"type":"Point","coordinates":[34.38017,46.8265]}},
{"type":"Feature","id":"420214232","properties":{"josm":"w420214232","name":"ул. Карла Маркса","nameuk":"Жданова вулиця"},"geometry":{"type":"Point","coordinates":[34.38481,46.83593]}},
{"type":"Feature","id":"420225685","properties":{"josm":"w420225685","name":"ул. Карла Маркса","nameuk":"Жданова вулиця"},"geometry":{"type":"Point","coordinates":[34.38701,46.83955]}},
{"type":"Feature","id":"420792618","properties":{"josm":"w420792618","name":"Кооперативная улица","nameuk":"Кооперативна вулиця"},"geometry":{"type":"Point","coordinates":[35.75516,46.82599]}},
{"type":"Feature","id":"421777500","properties":{"josm":"w421777500","name":"Мира улица","nameuk":"Миру вулиця"},"geometry":{"type":"Point","coordinates":[34.5509,46.71783]}},
{"type":"Feature","id":"422840471","properties":{"josm":"w422840471","name":"Новая улица","nameuk":"Нова вулиця"},"geometry":{"type":"Point","coordinates":[36.22504,48.56591]}},
{"type":"Feature","id":"423497262","properties":{"josm":"w423497262","name":"Шевченко улица","nameuk":"Шевченка вулиця"},"geometry":{"type":"Point","coordinates":[36.20874,48.53847]}},
{"type":"Feature","id":"424436486","properties":{"josm":"w424436486","name":"Молодёжная улица","nameuk":"Молодіжна вулиця"},"geometry":{"type":"Point","coordinates":[36.09378,48.44954]}},
{"type":"Feature","id":"424772339","properties":{"josm":"w424772339","name":"1-й Заорільський провулок","nameuk":"3-й Заорільський провулок"},"geometry":{"type":"Point","coordinates":[34.52027,48.93094]}},
{"type":"Feature","id":"425193249","properties":{"josm":"w425193249","name":"Тихая улица","nameuk":"Тиха вулиця"},"geometry":{"type":"Point","coordinates":[36.08617,48.52721]}},
{"type":"Feature","id":"425318957","properties":{"josm":"w425318957","name":"Чапаева улица","nameuk":"Чапаєва вулиця"},"geometry":{"type":"Point","coordinates":[30.99815,46.70213]}},
{"type":"Feature","id":"425321594","properties":{"josm":"w425321594","name":"Вишнёвый переулок","nameuk":"Вишневий провулок"},"geometry":{"type":"Point","coordinates":[30.9977,46.69611]}},
{"type":"Feature","id":"425513277","properties":{"josm":"w425513277","name":"Вишнёвый переулок","nameuk":"Вишневий провулок"},"geometry":{"type":"Point","coordinates":[31.00032,46.69645]}},
{"type":"Feature","id":"425537979","properties":{"josm":"w425537979","name":"Чапаева улица","nameuk":"Чапаєва вулиця"},"geometry":{"type":"Point","coordinates":[30.9989,46.69334]}},
{"type":"Feature","id":"425537981","properties":{"josm":"w425537981","name":"Вишнёвый переулок","nameuk":"Вишневий провулок"},"geometry":{"type":"Point","coordinates":[30.99653,46.69596]}},
{"type":"Feature","id":"425538611","properties":{"josm":"w425538611","name":"Южный переулок","nameuk":"Південний провулок"},"geometry":{"type":"Point","coordinates":[30.99994,46.67119]}},
{"type":"Feature","id":"425539387","properties":{"josm":"w425539387","name":"Степовая улица","nameuk":"Степова вулиця"},"geometry":{"type":"Point","coordinates":[31.00514,46.68254]}},
{"type":"Feature","id":"429743204","properties":{"josm":"w429743204","name":"вул. Богдана Хмельницького","nameuk":"Богдана Хмельницького вулиця"},"geometry":{"type":"Point","coordinates":[24.6075,49.97334]}},
{"type":"Feature","id":"440234270","properties":{"josm":"w440234270","name":"Крикунівка вулиця","nameuk":"вулиця Крикунівка"},"geometry":{"type":"Point","coordinates":[36.96765,49.49662]}},
{"type":"Feature","id":"441611497","properties":{"josm":"w441611497","name":"Фонарная улица","nameuk":"Фонарна вулиця"},"geometry":{"type":"Point","coordinates":[34.47207,49.56819]}},
{"type":"Feature","id":"441877279","properties":{"josm":"w441877279","name":"Июльская улица","nameuk":"Липнева вулиця"},"geometry":{"type":"Point","coordinates":[34.47831,49.57951]}},
{"type":"Feature","id":"441880904","properties":{"josm":"w441880904","name":"ИваІванівська вулиця","nameuk":"Іванівська вулиця"},"geometry":{"type":"Point","coordinates":[34.47031,49.57263]}},
{"type":"Feature","id":"441880960","properties":{"josm":"w441880960","name":"Подсолнечная улица","nameuk":"Соняшникова вулиця"},"geometry":{"type":"Point","coordinates":[34.47054,49.5712]}},
{"type":"Feature","id":"445233138","properties":{"josm":"w445233138","name":"Данилевского улица","nameuk":"Данилевського вулиця"},"geometry":{"type":"Point","coordinates":[37.25676,49.19146]}},
{"type":"Feature","id":"446327863","properties":{"josm":"w446327863","name":"Воронежский переулок","nameuk":"Воронезький провулок"},"geometry":{"type":"Point","coordinates":[36.81222,46.77193]}},
{"type":"Feature","id":"447279953","properties":{"josm":"w447279953","name":"Донецкая улица","nameuk":"Донецька вулиця"},"geometry":{"type":"Point","coordinates":[37.29234,49.21642]}},
{"type":"Feature","id":"450355202","properties":{"josm":"w450355202","name":"Горького  вулиця","nameuk":"Горького вулиця"},"geometry":{"type":"Point","coordinates":[34.43011,48.60308]}},
{"type":"Feature","id":"451010945","properties":{"josm":"w451010945","name":"Робітничий провулок","nameuk":"Робітнича вулиця"},"geometry":{"type":"Point","coordinates":[34.40073,48.54415]}},
{"type":"Feature","id":"451878361","properties":{"josm":"w451878361","name":"Дружби  Народів вулиця","nameuk":"Гоголя вулиця"},"geometry":{"type":"Point","coordinates":[34.29163,48.65757]}},
{"type":"Feature","id":"451879315","properties":{"josm":"w451879315","name":"Підгірна вулиця","nameuk":"Шкільна вулиця"},"geometry":{"type":"Point","coordinates":[34.29288,48.65848]}},
{"type":"Feature","id":"452068367","properties":{"josm":"w452068367","name":"Могілевська","nameuk":"Тополина вулиця"},"geometry":{"type":"Point","coordinates":[36.81947,46.74247]}},
{"type":"Feature","id":"452207366","properties":{"josm":"w452207366","name":"Лісна  вулиця","nameuk":"Харківська вулиця"},"geometry":{"type":"Point","coordinates":[34.31908,48.65329]}},
{"type":"Feature","id":"452383661","properties":{"josm":"w452383661","name":"Г. Сковороди вулиця","nameuk":"Комсомольська вулиця"},"geometry":{"type":"Point","coordinates":[34.27536,48.47862]}},
{"type":"Feature","id":"452386056","properties":{"josm":"w452386056","name":"Княгині Ольги провулок","nameuk":"Крупської провулок"},"geometry":{"type":"Point","coordinates":[34.21357,48.48077]}},
{"type":"Feature","id":"452386057","properties":{"josm":"w452386057","name":"Княгині Ольги провулок","nameuk":"Крупської провулок"},"geometry":{"type":"Point","coordinates":[34.21512,48.47815]}},
{"type":"Feature","id":"452623799","properties":{"josm":"w452623799","name":"Степна  вулиця","nameuk":"Нова вулиця"},"geometry":{"type":"Point","coordinates":[34.3611,48.55323]}},
{"type":"Feature","id":"454717766","properties":{"josm":"w454717766","name":"переулок запорожский","nameuk":"Запорізька вулиця"},"geometry":{"type":"Point","coordinates":[37.79766,48.99928]}},
{"type":"Feature","id":"455139853","properties":{"josm":"w455139853","name":"Новопомерчанская улица","nameuk":"Новопомерчанська вулиця"},"geometry":{"type":"Point","coordinates":[36.26683,50.05836]}},
{"type":"Feature","id":"455468478","properties":{"josm":"w455468478","name":"2-й Гайдара провулок","nameuk":"2-ий Гайдара провулок"},"geometry":{"type":"Point","coordinates":[29.2794,50.76946]}},
{"type":"Feature","id":"465938054","properties":{"josm":"w465938054","name":"Елены Телиги переулок","nameuk":"Олени Теліги провулок"},"geometry":{"type":"Point","coordinates":[37.25375,49.1821]}},
{"type":"Feature","id":"474700479","properties":{"josm":"w474700479","name":"Курчатова провулок-Курчатова вулиця","nameuk":"Курчатова провулок-КУрчатова вулиця"},"geometry":{"type":"Point","coordinates":[25.72447,50.12082]}},
{"type":"Feature","id":"481785380","properties":{"josm":"w481785380","name":"Кринична вулиця","nameuk":"Радянська вулиця"},"geometry":{"type":"Point","coordinates":[37.71473,49.10004]}},
{"type":"Feature","id":"484720587","properties":{"josm":"w484720587","name":"Зелёный переулок","nameuk":"Зелений провулок"},"geometry":{"type":"Point","coordinates":[36.00775,49.88867]}},
{"type":"Feature","id":"489335300","properties":{"josm":"w489335300","name":"Стара Озерянка вулиця","nameuk":"Аральська вулиця"},"geometry":{"type":"Point","coordinates":[36.34184,50.03789]}},
{"type":"Feature","id":"489335304","properties":{"josm":"w489335304","name":"Стара Озерянка вулиця","nameuk":"Аральська вулиця"},"geometry":{"type":"Point","coordinates":[36.33688,50.04103]}},
{"type":"Feature","id":"495552400","properties":{"josm":"w495552400","name":"Лєскова вулиця","nameuk":"Миколи Лєскова вулиця"},"geometry":{"type":"Point","coordinates":[30.54051,50.4313]}},
{"type":"Feature","id":"500645212","properties":{"josm":"w500645212","name":"Клары Цеткин улица","nameuk":"Клари Цеткін провулок"},"geometry":{"type":"Point","coordinates":[38.14121,48.05599]}},
{"type":"Feature","id":"501153361","properties":{"josm":"w501153361","name":"Павла Чубинського вулиця","nameuk":"Павла Чубинського Вулиця"},"geometry":{"type":"Point","coordinates":[30.76993,50.51829]}},
{"type":"Feature","id":"503343586","properties":{"josm":"w503343586","name":"Юрія Паращука вулиця","nameuk":"Івана Минайленка вулиця"},"geometry":{"type":"Point","coordinates":[36.18968,49.97485]}},
{"type":"Feature","id":"503343588","properties":{"josm":"w503343588","name":"Юрія Паращука вулиця","nameuk":"Івана Минайленка вулиця"},"geometry":{"type":"Point","coordinates":[36.18753,49.97615]}},
{"type":"Feature","id":"512824065","properties":{"josm":"w512824065","name":"Customs Terminal","nameuk":"Митний термінал"},"geometry":{"type":"Point","coordinates":[29.26584,50.76059]}},
{"type":"Feature","id":"515049669","properties":{"josm":"w515049669","name":"«Таврида»","nameuk":"Тавріда"},"geometry":{"type":"Point","coordinates":[33.71244,44.65633]}},
{"type":"Feature","id":"516995482","properties":{"josm":"w516995482","name":"Моторобуд вулиця","nameuk":"8 Березня вулиця"},"geometry":{"type":"Point","coordinates":[35.20198,47.83989]}},
{"type":"Feature","id":"517530509","properties":{"josm":"w517530509","name":"вулиця Фрідріха Енгельса","nameuk":"Фрідріха Енгельса вулиця"},"geometry":{"type":"Point","coordinates":[37.77932,48.39062]}},
{"type":"Feature","id":"521711845","properties":{"josm":"w521711845","name":"Юності вулиця","nameuk":"Юност вулиця"},"geometry":{"type":"Point","coordinates":[37.83566,48.3774]}},
{"type":"Feature","id":"537852484","properties":{"josm":"w537852484","name":"Сортировочная","nameuk":"Сортувальна"},"geometry":{"type":"Point","coordinates":[30.75459,46.55053]}},
{"type":"Feature","id":"537852486","properties":{"josm":"w537852486","name":"Сортировочная","nameuk":"Сортувальна"},"geometry":{"type":"Point","coordinates":[30.7563,46.55125]}},
{"type":"Feature","id":"543991151","properties":{"josm":"w543991151","name":"Сергея Ядова переулок","nameuk":"Сергія Ядова провулок"},"geometry":{"type":"Point","coordinates":[30.68632,46.48749]}},
{"type":"Feature","id":"552358450","properties":{"josm":"w552358450","name":"Набережна вулиця","nameuk":"Леніна вулиця"},"geometry":{"type":"Point","coordinates":[33.79038,47.18907]}},
{"type":"Feature","id":"566209992","properties":{"josm":"w566209992","name":"Сім’ї Кульженків вулиця","nameuk":"Сім'ї Кульженків вулиця"},"geometry":{"type":"Point","coordinates":[30.46903,50.52498]}},
{"type":"Feature","id":"576237755","properties":{"josm":"w576237755","name":"Таврид","nameuk":"Тавріда"},"geometry":{"type":"Point","coordinates":[33.81211,44.72245]}},
{"type":"Feature","id":"583112790","properties":{"josm":"w583112790","name":"Лозовеньківський проспект","nameuk":"Окружна дорога"},"geometry":{"type":"Point","coordinates":[36.217,50.08354]}},
{"type":"Feature","id":"583112795","properties":{"josm":"w583112795","name":"Лозовеньківський проспект","nameuk":"Окружна дорога"},"geometry":{"type":"Point","coordinates":[36.21661,50.08322]}},
{"type":"Feature","id":"583143995","properties":{"josm":"w583143995","name":"Лозовеньківський проспект","nameuk":"Окружна дорога"},"geometry":{"type":"Point","coordinates":[36.23463,50.09024]}},
{"type":"Feature","id":"583143996","properties":{"josm":"w583143996","name":"Лозовеньківський проспект","nameuk":"Окружна дорога"},"geometry":{"type":"Point","coordinates":[36.23988,50.09139]}},
{"type":"Feature","id":"583143997","properties":{"josm":"w583143997","name":"Лозовеньківський проспект","nameuk":"Окружна дорога"},"geometry":{"type":"Point","coordinates":[36.25115,50.0973]}},
{"type":"Feature","id":"583143998","properties":{"josm":"w583143998","name":"Лозовеньківський проспект","nameuk":"Окружна дорога"},"geometry":{"type":"Point","coordinates":[36.23995,50.0914]}},
{"type":"Feature","id":"583410641","properties":{"josm":"w583410641","name":"Лозовеньківський проспект","nameuk":"Окружна дорога"},"geometry":{"type":"Point","coordinates":[36.22321,50.08689]}},
{"type":"Feature","id":"590451026","properties":{"josm":"w590451026","name":"Придорожня вулиця","nameuk":"Польова вулиця"},"geometry":{"type":"Point","coordinates":[30.37865,50.30949]}},
{"type":"Feature","id":"600373172","properties":{"josm":"w600373172","name":"Центральная улица","nameuk":"Центральна вулиця"},"geometry":{"type":"Point","coordinates":[35.00132,48.54447]}},
{"type":"Feature","id":"600373175","properties":{"josm":"w600373175","name":"Центральная улица","nameuk":"Центральна вулиця"},"geometry":{"type":"Point","coordinates":[34.99626,48.54122]}},
{"type":"Feature","id":"600373180","properties":{"josm":"w600373180","name":"Ореховая улица","nameuk":"Орехова вулиця"},"geometry":{"type":"Point","coordinates":[35.00127,48.54553]}},
{"type":"Feature","id":"606110208","properties":{"josm":"w606110208","name":"Парникова вулиця","nameuk":"Марії Демченко вулиця"},"geometry":{"type":"Point","coordinates":[30.71834,46.37377]}},
{"type":"Feature","id":"606273356","properties":{"josm":"w606273356","name":"Каштанова","nameuk":"Каштанова вулиця"},"geometry":{"type":"Point","coordinates":[33.71943,49.7951]}},
{"type":"Feature","id":"609034187","properties":{"josm":"w609034187","name":"Кирова улица","nameuk":"Кірова вулиця"},"geometry":{"type":"Point","coordinates":[33.60181,44.49964]}},
{"type":"Feature","id":"611592286","properties":{"josm":"w611592286","name":"Перемоги площа","nameuk":"Микити Головка вулиця"},"geometry":{"type":"Point","coordinates":[35.26188,48.62706]}},
{"type":"Feature","id":"611735010","properties":{"josm":"w611735010","name":"улица Чуба","nameuk":"Чуба вулиця"},"geometry":{"type":"Point","coordinates":[36.05394,45.30982]}},
{"type":"Feature","id":"617628560","properties":{"josm":"w617628560","name":"улица Мицкевича","nameuk":"вулиця Міцкевича"},"geometry":{"type":"Point","coordinates":[26.90969,49.41219]}},
{"type":"Feature","id":"622804652","properties":{"josm":"w622804652","name":"Ивана Никитенко улица","nameuk":"Івана Микитенка вулиця"},"geometry":{"type":"Point","coordinates":[30.61024,50.48762]}},
{"type":"Feature","id":"625760358","properties":{"josm":"w625760358","name":"Вишнева","nameuk":"Вишнева вулиця"},"geometry":{"type":"Point","coordinates":[24.60729,49.91441]}},
{"type":"Feature","id":"626221031","properties":{"josm":"w626221031","name":"улица Лесная","nameuk":"вулиця Лісова"},"geometry":{"type":"Point","coordinates":[30.44302,50.33265]}},
{"type":"Feature","id":"626356962","properties":{"josm":"w626356962","name":"переулок Лесной","nameuk":"провулок Лісовий"},"geometry":{"type":"Point","coordinates":[30.44333,50.33335]}},
{"type":"Feature","id":"626657609","properties":{"josm":"w626657609","name":"Садова","nameuk":"Садова вулиця"},"geometry":{"type":"Point","coordinates":[24.60646,49.91388]}},
{"type":"Feature","id":"633081001","properties":{"josm":"w633081001","name":"проспект Азовський","nameuk":"Азовський проспект"},"geometry":{"type":"Point","coordinates":[35.33475,46.36835]}},
{"type":"Feature","id":"633081003","properties":{"josm":"w633081003","name":"проспект Азовський","nameuk":"Азовський проспект"},"geometry":{"type":"Point","coordinates":[35.33238,46.37024]}},
{"type":"Feature","id":"635395377","properties":{"josm":"w635395377","name":"Мелитопольская улица","nameuk":"Мелітопольська вулиця"},"geometry":{"type":"Point","coordinates":[35.737,46.83788]}},
{"type":"Feature","id":"636036658","properties":{"josm":"w636036658","name":"бульвар Ленина","nameuk":"улица Гагарина"},"geometry":{"type":"Point","coordinates":[34.08704,44.96439]}},
{"type":"Feature","id":"636036661","properties":{"josm":"w636036661","name":"Персиковый переулок","nameuk":"улица Кима"},"geometry":{"type":"Point","coordinates":[34.08422,44.96708]}},
{"type":"Feature","id":"636036663","properties":{"josm":"w636036663","name":"Персиковый переулок","nameuk":"улица Кима"},"geometry":{"type":"Point","coordinates":[34.08586,44.96535]}},
{"type":"Feature","id":"636036668","properties":{"josm":"w636036668","name":"бульвар Ленина","nameuk":"улица Гагарина"},"geometry":{"type":"Point","coordinates":[34.08545,44.96311]}},
{"type":"Feature","id":"637402388","properties":{"josm":"w637402388","name":"Мар’ївська вулиця","nameuk":"Мар'ївська вулиця"},"geometry":{"type":"Point","coordinates":[38.40558,48.63436]}},
{"type":"Feature","id":"637404106","properties":{"josm":"w637404106","name":"1-го Травня провулок","nameuk":"1-го Травня вулиця"},"geometry":{"type":"Point","coordinates":[30.43644,50.61763]}},
{"type":"Feature","id":"637516515","properties":{"josm":"w637516515","name":"Олександра Олеся вулиця","nameuk":"Ворошилова вулиця"},"geometry":{"type":"Point","coordinates":[27.80009,51.20224]}},
{"type":"Feature","id":"649755149","properties":{"josm":"w649755149","name":"Натальевская дорога","nameuk":"Натальївська дорога"},"geometry":{"type":"Point","coordinates":[35.24905,47.84124]}},
{"type":"Feature","id":"654048560","properties":{"josm":"w654048560","name":"Tsentralna Street","nameuk":"Центральна вулиця"},"geometry":{"type":"Point","coordinates":[29.71264,49.86888]}},
{"type":"Feature","id":"661386243","properties":{"josm":"w661386243","name":"2й Кривоноса переулок","nameuk":"2й Кривоноса провулок"},"geometry":{"type":"Point","coordinates":[31.35714,51.52097]}},
{"type":"Feature","id":"661386244","properties":{"josm":"w661386244","name":"Радиозаводская улица","nameuk":"Радіозаводська вулиця"},"geometry":{"type":"Point","coordinates":[31.35741,51.52124]}},
{"type":"Feature","id":"667399349","properties":{"josm":"w667399349","name":"Будівельників2-й провулок","nameuk":"Будівельників 2-й провулок"},"geometry":{"type":"Point","coordinates":[33.209,51.26223]}},
{"type":"Feature","id":"670711048","properties":{"josm":"w670711048","name":"Генерала Батюка вулиця","nameuk":"Геологічна вулиця"},"geometry":{"type":"Point","coordinates":[31.22259,51.5186]}},
{"type":"Feature","id":"672844389","properties":{"josm":"w672844389","name":"Николая Плавьюка улица","nameuk":"Миколи Плав'юка вулиця"},"geometry":{"type":"Point","coordinates":[30.52911,50.4852]}},
{"type":"Feature","id":"674238681","properties":{"josm":"w674238681","name":"Миру вулиця","nameuk":"миру вулиця"},"geometry":{"type":"Point","coordinates":[23.88597,48.36034]}},
{"type":"Feature","id":"674940856","properties":{"josm":"w674940856","name":"Промышленный переулок","nameuk":"Польова вулиця"},"geometry":{"type":"Point","coordinates":[33.86395,45.71493]}},
{"type":"Feature","id":"674940857","properties":{"josm":"w674940857","name":"Промышленный переулок","nameuk":"Польова вулиця"},"geometry":{"type":"Point","coordinates":[33.86557,45.71524]}},
{"type":"Feature","id":"677005902","properties":{"josm":"w677005902","name":"Миру провулок","nameuk":"Миру вулиця"},"geometry":{"type":"Point","coordinates":[30.41808,50.41014]}},
{"type":"Feature","id":"677037167","properties":{"josm":"w677037167","name":"Петровская улица","nameuk":"вул. Петрівська"},"geometry":{"type":"Point","coordinates":[30.50323,50.4611]}},
{"type":"Feature","id":"679603264","properties":{"josm":"w679603264","name":"Святомиколаївська вулиця","nameuk":"Святомиколаївськаа вулиця"},"geometry":{"type":"Point","coordinates":[33.46029,51.84373]}},
{"type":"Feature","id":"680227733","properties":{"josm":"w680227733","name":"провулок Короленко","nameuk":"Короленко провулок"},"geometry":{"type":"Point","coordinates":[36.6748,49.83413]}},
{"type":"Feature","id":"680741049","properties":{"josm":"w680741049","name":"бульвар Ленина","nameuk":"улица Гагарина"},"geometry":{"type":"Point","coordinates":[34.08765,44.96491]}},
{"type":"Feature","id":"680741050","properties":{"josm":"w680741050","name":"бульвар Ленина","nameuk":"улица Гагарина"},"geometry":{"type":"Point","coordinates":[34.09233,44.96893]}},
{"type":"Feature"}
]}
